[{"category":"anti-social-behaviour","location_type":"Force","location":{"latitude":"53.483088","street":{"id":726700,"name":"On or near Vane Street"},"longitude":"-2.354388"},"context":"","outcome_status":null,"persistent_id":"","id":74981774,"location_subtype":"","month":"2019-06"},{"category":"anti-social-behaviour","location_type":"Force","location":{"latitude":"53.478834","street":{"id":726775,"name":"On or near Alba Close"},"longitude":"-2.355286"},"context":"","outcome_status":null,"persistent_id":"","id":74981766,"location_subtype":"","month":"2019-06"},{"category":"anti-social-behaviour","location_type":"Force","location":{"latitude":"53.485590","street":{"id":726899,"name":"On or near Colborne Avenue"},"longitude":"-2.368303"},"context":"","outcome_status":null,"persistent_id":"","id":74981762,"location_subtype":"","month":"2019-06"},{"category":"anti-social-behaviour","location_type":"Force","location":{"latitude":"53.484125","street":{"id":726758,"name":"On or near Cromwell Road"},"longitude":"-2.353537"},"context":"","outcome_status":null,"persistent_id":"","id":74981760,"location_subtype":"","month":"2019-06"},{"category":"anti-social-behaviour","location_type":"Force","location":{"latitude":"53.467998","street":{"id":723046,"name":"On or near South Avenue"},"longitude":"-2.344832"},"context":"","outcome_status":null,"persistent_id":"","id":74993740,"location_subtype":"","month":"2019-06"},{"category":"anti-social-behaviour","location_type":"Force","location":{"latitude":"53.478859","street":{"id":726810,"name":"On or near John Street"},"longitude":"-2.364930"},"context":"","outcome_status":null,"persistent_id":"","id":74981759,"location_subtype":"","month":"2019-06"},{"category":"anti-social-behaviour","location_type":"Force","location":{"latitude":"53.491088","street":{"id":728247,"name":"On or near Partington Street"},"longitude":"-2.351531"},"context":"","outcome_status":null,"persistent_id":"","id":74981754,"location_subtype":"","month":"2019-06"},{"category":"anti-social-behaviour","location_type":"Force","location":{"latitude":"53.482194","street":{"id":726793,"name":"On or near Sarah Street"},"longitude":"-2.364974"},"context":"","outcome_status":null,"persistent_id":"","id":74981707,"location_subtype":"","month":"2019-06"},{"category":"anti-social-behaviour","location_type":"Force","location":{"latitude":"53.483341","street":{"id":726631,"name":"On or near Church Street"},"longitude":"-2.341732"},"context":"","outcome_status":null,"persistent_id":"","id":74981701,"location_subtype":"","month":"2019-06"},{"category":"anti-social-behaviour","location_type":"Force","location":{"latitude":"53.487742","street":{"id":726733,"name":"On or near Jubillee Close"},"longitude":"-2.349167"},"context":"","outcome_status":null,"persistent_id":"","id":74981691,"location_subtype":"","month":"2019-06"},{"category":"anti-social-behaviour","location_type":"Force","location":{"latitude":"53.483341","street":{"id":726631,"name":"On or near Church Street"},"longitude":"-2.341732"},"context":"","outcome_status":null,"persistent_id":"","id":74981678,"location_subtype":"","month":"2019-06"},{"category":"anti-social-behaviour","location_type":"Force","location":{"latitude":"53.487166","street":{"id":726640,"name":"On or near Belgrave Crescent"},"longitude":"-2.336729"},"context":"","outcome_status":null,"persistent_id":"","id":74981671,"location_subtype":"","month":"2019-06"},{"category":"anti-social-behaviour","location_type":"Force","location":{"latitude":"53.482549","street":{"id":710492,"name":"On or near Andoc Avenue"},"longitude":"-2.332699"},"context":"","outcome_status":null,"persistent_id":"","id":74981824,"location_subtype":"","month":"2019-06"},{"category":"anti-social-behaviour","location_type":"Force","location":{"latitude":"53.475362","street":{"id":723066,"name":"On or near Guinness Road"},"longitude":"-2.331196"},"context":"","outcome_status":null,"persistent_id":"","id":74993353,"location_subtype":"","month":"2019-06"},{"category":"anti-social-behaviour","location_type":"Force","location":{"latitude":"53.483789","street":{"id":726705,"name":"On or near Shakespeare Crescent"},"longitude":"-2.351425"},"context":"","outcome_status":null,"persistent_id":"","id":74981668,"location_subtype":"","month":"2019-06"},{"category":"anti-social-behaviour","location_type":"Force","location":{"latitude":"53.481189","street":{"id":726888,"name":"On or near Hatherop Close"},"longitude":"-2.367105"},"context":"","outcome_status":null,"persistent_id":"","id":74981649,"location_subtype":"","month":"2019-06"},{"category":"anti-social-behaviour","location_type":"Force","location":{"latitude":"53.482113","street":{"id":726639,"name":"On or near Bentcliffe Way"},"longitude":"-2.334217"},"context":"","outcome_status":null,"persistent_id":"","id":74981797,"location_subtype":"","month":"2019-06"},{"category":"anti-social-behaviour","location_type":"Force","location":{"latitude":"53.485866","street":{"id":726832,"name":"On or near Bromsgrove Avenue"},"longitude":"-2.363317"},"context":"","outcome_status":null,"persistent_id":"","id":74981783,"location_subtype":"","month":"2019-06"},{"category":"anti-social-behaviour","location_type":"Force","location":{"latitude":"53.472456","street":{"id":723072,"name":"On or near Bailey Road"},"longitude":"-2.329080"},"context":"","outcome_status":null,"persistent_id":"","id":74993691,"location_subtype":"","month":"2019-06"},{"category":"anti-social-behaviour","location_type":"Force","location":{"latitude":"53.487466","street":{"id":726591,"name":"On or near Trafalgar Road"},"longitude":"-2.329030"},"context":"","outcome_status":null,"persistent_id":"","id":74981640,"location_subtype":"","month":"2019-06"},{"category":"anti-social-behaviour","location_type":"Force","location":{"latitude":"53.476553","street":{"id":726676,"name":"On or near Wharfside Avenue"},"longitude":"-2.348683"},"context":"","outcome_status":null,"persistent_id":"","id":74981570,"location_subtype":"","month":"2019-06"},{"category":"anti-social-behaviour","location_type":"Force","location":{"latitude":"53.484787","street":{"id":726914,"name":"On or near Annisdale Close"},"longitude":"-2.366458"},"context":"","outcome_status":null,"persistent_id":"","id":74981548,"location_subtype":"","month":"2019-06"},{"category":"anti-social-behaviour","location_type":"Force","location":{"latitude":"53.491010","street":{"id":728270,"name":"On or near Denstone Avenue"},"longitude":"-2.344265"},"context":"","outcome_status":null,"persistent_id":"","id":74981521,"location_subtype":"","month":"2019-06"},{"category":"anti-social-behaviour","location_type":"Force","location":{"latitude":"53.482884","street":{"id":726632,"name":"On or near Church Street"},"longitude":"-2.338036"},"context":"","outcome_status":null,"persistent_id":"","id":74981506,"location_subtype":"","month":"2019-06"},{"category":"anti-social-behaviour","location_type":"Force","location":{"latitude":"53.473076","street":{"id":723030,"name":"On or near Langland Drive"},"longitude":"-2.360300"},"context":"","outcome_status":null,"persistent_id":"","id":74993977,"location_subtype":"","month":"2019-06"},{"category":"anti-social-behaviour","location_type":"Force","location":{"latitude":"53.478675","street":{"id":726772,"name":"On or near Austen Road"},"longitude":"-2.348233"},"context":"","outcome_status":null,"persistent_id":"","id":74981500,"location_subtype":"","month":"2019-06"},{"category":"anti-social-behaviour","location_type":"Force","location":{"latitude":"53.467998","street":{"id":723046,"name":"On or near South Avenue"},"longitude":"-2.344832"},"context":"","outcome_status":null,"persistent_id":"","id":74994096,"location_subtype":"","month":"2019-06"},{"category":"anti-social-behaviour","location_type":"Force","location":{"latitude":"53.467998","street":{"id":723046,"name":"On or near South Avenue"},"longitude":"-2.344832"},"context":"","outcome_status":null,"persistent_id":"","id":74994139,"location_subtype":"","month":"2019-06"},{"category":"anti-social-behaviour","location_type":"Force","location":{"latitude":"53.467998","street":{"id":723046,"name":"On or near South Avenue"},"longitude":"-2.344832"},"context":"","outcome_status":null,"persistent_id":"","id":74994175,"location_subtype":"","month":"2019-06"},{"category":"anti-social-behaviour","location_type":"Force","location":{"latitude":"53.479865","street":{"id":726735,"name":"On or near Ivy Street"},"longitude":"-2.353216"},"context":"","outcome_status":null,"persistent_id":"","id":74986777,"location_subtype":"","month":"2019-06"},{"category":"anti-social-behaviour","location_type":"Force","location":{"latitude":"53.467652","street":{"id":723057,"name":"On or near Petrol Station"},"longitude":"-2.352497"},"context":"","outcome_status":null,"persistent_id":"","id":74994189,"location_subtype":"","month":"2019-06"},{"category":"anti-social-behaviour","location_type":"Force","location":{"latitude":"53.485252","street":{"id":726589,"name":"On or near Vernon Avenue"},"longitude":"-2.339893"},"context":"","outcome_status":null,"persistent_id":"","id":74982065,"location_subtype":"","month":"2019-06"},{"category":"anti-social-behaviour","location_type":"Force","location":{"latitude":"53.492051","street":{"id":728248,"name":"On or near Parrin Lane"},"longitude":"-2.356995"},"context":"","outcome_status":null,"persistent_id":"","id":74982032,"location_subtype":"","month":"2019-06"},{"category":"anti-social-behaviour","location_type":"Force","location":{"latitude":"53.491088","street":{"id":728247,"name":"On or near Partington Street"},"longitude":"-2.351531"},"context":"","outcome_status":null,"persistent_id":"","id":74982011,"location_subtype":"","month":"2019-06"},{"category":"anti-social-behaviour","location_type":"Force","location":{"latitude":"53.484212","street":{"id":726595,"name":"On or near St Mary's Road"},"longitude":"-2.332606"},"context":"","outcome_status":null,"persistent_id":"","id":74982001,"location_subtype":"","month":"2019-06"},{"category":"anti-social-behaviour","location_type":"Force","location":{"latitude":"53.487992","street":{"id":726723,"name":"On or near Monton Avenue"},"longitude":"-2.346727"},"context":"","outcome_status":null,"persistent_id":"","id":74981934,"location_subtype":"","month":"2019-06"},{"category":"anti-social-behaviour","location_type":"Force","location":{"latitude":"53.467495","street":{"id":723039,"name":"On or near Parking Area"},"longitude":"-2.347630"},"context":"","outcome_status":null,"persistent_id":"","id":74993734,"location_subtype":"","month":"2019-06"},{"category":"anti-social-behaviour","location_type":"Force","location":{"latitude":"53.477001","street":{"id":726669,"name":"On or near Edison Road"},"longitude":"-2.358134"},"context":"","outcome_status":null,"persistent_id":"","id":74981914,"location_subtype":"","month":"2019-06"},{"category":"anti-social-behaviour","location_type":"Force","location":{"latitude":"53.482984","street":{"id":726741,"name":"On or near Hamilcar Avenue"},"longitude":"-2.346943"},"context":"","outcome_status":null,"persistent_id":"","id":74981881,"location_subtype":"","month":"2019-06"},{"category":"anti-social-behaviour","location_type":"Force","location":{"latitude":"53.483341","street":{"id":726631,"name":"On or near Church Street"},"longitude":"-2.341732"},"context":"","outcome_status":null,"persistent_id":"","id":74981816,"location_subtype":"","month":"2019-06"},{"category":"anti-social-behaviour","location_type":"Force","location":{"latitude":"53.487992","street":{"id":726723,"name":"On or near Monton Avenue"},"longitude":"-2.346727"},"context":"","outcome_status":null,"persistent_id":"","id":74986792,"location_subtype":"","month":"2019-06"},{"category":"anti-social-behaviour","location_type":"Force","location":{"latitude":"53.481814","street":{"id":726850,"name":"On or near St John Street"},"longitude":"-2.353729"},"context":"","outcome_status":null,"persistent_id":"","id":74986767,"location_subtype":"","month":"2019-06"},{"category":"anti-social-behaviour","location_type":"Force","location":{"latitude":"53.482564","street":{"id":726756,"name":"On or near Dickens Road"},"longitude":"-2.349290"},"context":"","outcome_status":null,"persistent_id":"","id":74986779,"location_subtype":"","month":"2019-06"},{"category":"anti-social-behaviour","location_type":"Force","location":{"latitude":"53.484787","street":{"id":726914,"name":"On or near Annisdale Close"},"longitude":"-2.366458"},"context":"","outcome_status":null,"persistent_id":"","id":74986718,"location_subtype":"","month":"2019-06"},{"category":"anti-social-behaviour","location_type":"Force","location":{"latitude":"53.483341","street":{"id":726631,"name":"On or near Church Street"},"longitude":"-2.341732"},"context":"","outcome_status":null,"persistent_id":"","id":74981809,"location_subtype":"","month":"2019-06"},{"category":"anti-social-behaviour","location_type":"Force","location":{"latitude":"53.478598","street":{"id":726890,"name":"On or near Hallsworth Road"},"longitude":"-2.370910"},"context":"","outcome_status":null,"persistent_id":"","id":74981804,"location_subtype":"","month":"2019-06"},{"category":"anti-social-behaviour","location_type":"Force","location":{"latitude":"53.481814","street":{"id":726850,"name":"On or near St John Street"},"longitude":"-2.353729"},"context":"","outcome_status":null,"persistent_id":"","id":74981949,"location_subtype":"","month":"2019-06"},{"category":"anti-social-behaviour","location_type":"Force","location":{"latitude":"53.486079","street":{"id":726875,"name":"On or near Slater Street"},"longitude":"-2.367072"},"context":"","outcome_status":null,"persistent_id":"","id":74981768,"location_subtype":"","month":"2019-06"},{"category":"bicycle-theft","location_type":"Force","location":{"latitude":"53.467652","street":{"id":723057,"name":"On or near Petrol Station"},"longitude":"-2.352497"},"context":"","outcome_status":{"category":"Investigation complete; no suspect identified","date":"2019-06"},"persistent_id":"34780b3591648c04d722aa5158fc6a767ed8b43126354513ff84d177bce17ded","id":74957412,"location_subtype":"","month":"2019-06"},{"category":"bicycle-theft","location_type":"Force","location":{"latitude":"53.483218","street":{"id":726599,"name":"On or near Regent Street"},"longitude":"-2.334256"},"context":"","outcome_status":{"category":"Investigation complete; no suspect identified","date":"2019-06"},"persistent_id":"569c3655b84f0644e093af2e7ca18fb3e64c86085ebfa23264553d305c574824","id":74972680,"location_subtype":"","month":"2019-06"},{"category":"bicycle-theft","location_type":"Force","location":{"latitude":"53.482671","street":{"id":726625,"name":"On or near Corporation Road"},"longitude":"-2.340385"},"context":"","outcome_status":{"category":"Investigation complete; no suspect identified","date":"2019-06"},"persistent_id":"36e2588e5e09d8cf462c31a5f6f3bba06870183e8e4c4f10ecd702bd114b5c5e","id":74957902,"location_subtype":"","month":"2019-06"},{"category":"bicycle-theft","location_type":"Force","location":{"latitude":"53.483134","street":{"id":726564,"name":"On or near Pilgrims Way"},"longitude":"-2.325726"},"context":"","outcome_status":{"category":"Investigation complete; no suspect identified","date":"2019-06"},"persistent_id":"087583d7ad5273071efe34e18f12a1037ff4efd85a9a8bc0e51b06186c8496d7","id":74962209,"location_subtype":"","month":"2019-06"},{"category":"bicycle-theft","location_type":"Force","location":{"latitude":"53.485171","street":{"id":726817,"name":"On or near Green Lane"},"longitude":"-2.358369"},"context":"","outcome_status":{"category":"Investigation complete; no suspect identified","date":"2019-06"},"persistent_id":"bf27252c7ce62b3a8298dcf3b9bfcdc914789c3e09ae2d882c4239693505d388","id":74956227,"location_subtype":"","month":"2019-06"},{"category":"bicycle-theft","location_type":"Force","location":{"latitude":"53.487386","street":{"id":726629,"name":"On or near Clarendon Road"},"longitude":"-2.335224"},"context":"","outcome_status":{"category":"Investigation complete; no suspect identified","date":"2019-06"},"persistent_id":"c11368f8d9be11a9f1996fe48080369616eba2855db73096597ebdebae8eb1d4","id":74960585,"location_subtype":"","month":"2019-06"},{"category":"bicycle-theft","location_type":"Force","location":{"latitude":"53.481373","street":{"id":726594,"name":"On or near Talbot Street"},"longitude":"-2.341595"},"context":"","outcome_status":{"category":"Investigation complete; no suspect identified","date":"2019-06"},"persistent_id":"7a1cd1ffefcb781ca20b9071a815e6f16a92aa629d8eb6656e342b1b15510417","id":74958765,"location_subtype":"","month":"2019-06"},{"category":"burglary","location_type":"Force","location":{"latitude":"53.483789","street":{"id":726705,"name":"On or near Shakespeare Crescent"},"longitude":"-2.351425"},"context":"","outcome_status":{"category":"Investigation complete; no suspect identified","date":"2019-06"},"persistent_id":"517e50f98a8c59055d32acaac9b3b3db4e368970b9f4a073248d205762e3995e","id":74955332,"location_subtype":"","month":"2019-06"},{"category":"burglary","location_type":"Force","location":{"latitude":"53.490608","street":{"id":728268,"name":"On or near Francis Street"},"longitude":"-2.352521"},"context":"","outcome_status":{"category":"Investigation complete; no suspect identified","date":"2019-06"},"persistent_id":"fcd0129803d56092144a962cf5347ed201690481ec7b5873d170db1f070cc23a","id":74963144,"location_subtype":"","month":"2019-06"},{"category":"burglary","location_type":"Force","location":{"latitude":"53.493055","street":{"id":728253,"name":"On or near Monton Green"},"longitude":"-2.351893"},"context":"","outcome_status":{"category":"Status update unavailable","date":"2019-10"},"persistent_id":"91dfa482f8bed88260136b971895f048d3240681e150a841c6bee71f6c6d0565","id":74968170,"location_subtype":"","month":"2019-06"},{"category":"burglary","location_type":"Force","location":{"latitude":"53.468126","street":{"id":723042,"name":"On or near Traders Avenue"},"longitude":"-2.343914"},"context":"","outcome_status":{"category":"Status update unavailable","date":"2019-10"},"persistent_id":"229a7505d8a8f7d52c652ac6131c0fcad920d56183c120b8f881cf836819b8b1","id":74973071,"location_subtype":"","month":"2019-06"},{"category":"burglary","location_type":"Force","location":{"latitude":"53.487416","street":{"id":726805,"name":"On or near Lulworth Road"},"longitude":"-2.362020"},"context":"","outcome_status":{"category":"Investigation complete; no suspect identified","date":"2019-06"},"persistent_id":"d157a128fc4578622e055463dcd511c222534b4d5b3fb0adc6077fba710cd720","id":74974406,"location_subtype":"","month":"2019-06"},{"category":"burglary","location_type":"Force","location":{"latitude":"53.472142","street":{"id":723073,"name":"On or near Ashburton Road West"},"longitude":"-2.338372"},"context":"","outcome_status":{"category":"Status update unavailable","date":"2019-10"},"persistent_id":"93010a49ed79d06528b23276b0b8b49db5d8e9fc7e5e9b0d751e8cc5112d1767","id":74974868,"location_subtype":"","month":"2019-06"},{"category":"burglary","location_type":"Force","location":{"latitude":"53.480260","street":{"id":726615,"name":"On or near Garden Street"},"longitude":"-2.341059"},"context":"","outcome_status":{"category":"Investigation complete; no suspect identified","date":"2019-06"},"persistent_id":"50f0d7062072ea6ce82db2b3511a80ee1b87d7693be9b1d77875225d385672c4","id":74976267,"location_subtype":"","month":"2019-06"},{"category":"burglary","location_type":"Force","location":{"latitude":"53.487157","street":{"id":726578,"name":"On or near Pedestrian Subway"},"longitude":"-2.330414"},"context":"","outcome_status":{"category":"Investigation complete; no suspect identified","date":"2019-06"},"persistent_id":"e9c13b708a4859078dd75419db4e30c47333c062503d08385c1baf063f7b7200","id":74957131,"location_subtype":"","month":"2019-06"},{"category":"burglary","location_type":"Force","location":{"latitude":"53.483650","street":{"id":726801,"name":"On or near Nameplate Close"},"longitude":"-2.364866"},"context":"","outcome_status":{"category":"Status update unavailable","date":"2019-10"},"persistent_id":"d82b49b9c9fee94bec7ba96f949aff544f2dcd9059197451962ae1d6c8943bc3","id":74965687,"location_subtype":"","month":"2019-06"},{"category":"burglary","location_type":"Force","location":{"latitude":"53.489918","street":{"id":728272,"name":"On or near Crawford Street"},"longitude":"-2.352063"},"context":"","outcome_status":{"category":"Investigation complete; no suspect identified","date":"2019-06"},"persistent_id":"c48ba1b8b6384f7fc7ed53f754a4626ee4c227f3124f224128dcd664f6e5b602","id":74978153,"location_subtype":"","month":"2019-06"},{"category":"burglary","location_type":"Force","location":{"latitude":"53.485866","street":{"id":726832,"name":"On or near Bromsgrove Avenue"},"longitude":"-2.363317"},"context":"","outcome_status":{"category":"Status update unavailable","date":"2019-10"},"persistent_id":"ff701cc424e0c63dd7ded796d2007043142fa7988c6021e967e0e76ccf9b62d1","id":74978156,"location_subtype":"","month":"2019-06"},{"category":"burglary","location_type":"Force","location":{"latitude":"53.480734","street":{"id":726610,"name":"On or near Irwell Grove"},"longitude":"-2.338727"},"context":"","outcome_status":{"category":"Status update unavailable","date":"2019-10"},"persistent_id":"b5819e8588c7d5ed32b87527b7167a9a22822dc02a73c23e6dee65f863b5a93d","id":74956233,"location_subtype":"","month":"2019-06"},{"category":"burglary","location_type":"Force","location":{"latitude":"53.480533","street":{"id":726736,"name":"On or near Irlam Avenue"},"longitude":"-2.349334"},"context":"","outcome_status":{"category":"Status update unavailable","date":"2019-10"},"persistent_id":"c1cb5301286b53159486bf2ecc6bbad38a3619733bbcbe4660af485c6bb0ed4d","id":74957082,"location_subtype":"","month":"2019-06"},{"category":"burglary","location_type":"Force","location":{"latitude":"53.480243","street":{"id":726896,"name":"On or near Evans Road"},"longitude":"-2.370864"},"context":"","outcome_status":{"category":"Investigation complete; no suspect identified","date":"2019-06"},"persistent_id":"c04fc7580efd8b3a153b6500c29a13db2ad0368adcb263ddedb836b79fc943a2","id":74957887,"location_subtype":"","month":"2019-06"},{"category":"burglary","location_type":"Force","location":{"latitude":"53.472142","street":{"id":723073,"name":"On or near Ashburton Road West"},"longitude":"-2.338372"},"context":"","outcome_status":{"category":"Investigation complete; no suspect identified","date":"2019-06"},"persistent_id":"2e9c7a37121023cdd17debaea8f812b74f140c54c94507995b52db0d85ae42cc","id":74976686,"location_subtype":"","month":"2019-06"},{"category":"burglary","location_type":"Force","location":{"latitude":"53.490859","street":{"id":728291,"name":"On or near Napier Road"},"longitude":"-2.361958"},"context":"","outcome_status":{"category":"Investigation complete; no suspect identified","date":"2019-06"},"persistent_id":"af4a2570054b09d2af22003a1dbf16d32a9aabe0bb4d9bacc050f3ad2cec1efd","id":74968195,"location_subtype":"","month":"2019-06"},{"category":"burglary","location_type":"Force","location":{"latitude":"53.484721","street":{"id":726618,"name":"On or near Ennismore Avenue"},"longitude":"-2.330561"},"context":"","outcome_status":{"category":"Status update unavailable","date":"2019-10"},"persistent_id":"64392861a74f2d10398ff377570f6c103d06523debaa284e02d9d72655ee7f03","id":74954506,"location_subtype":"","month":"2019-06"},{"category":"burglary","location_type":"Force","location":{"latitude":"53.487416","street":{"id":726805,"name":"On or near Lulworth Road"},"longitude":"-2.362020"},"context":"","outcome_status":{"category":"Status update unavailable","date":"2019-10"},"persistent_id":"23b98b12f826a6098c52e7b82fdd1f68fca993f6fac30813c3ad0197ce0886d1","id":74978165,"location_subtype":"","month":"2019-06"},{"category":"burglary","location_type":"Force","location":{"latitude":"53.481073","street":{"id":726843,"name":"On or near Aldred Street"},"longitude":"-2.361061"},"context":"","outcome_status":{"category":"Investigation complete; no suspect identified","date":"2019-06"},"persistent_id":"5952df4bbb4628bddc9bd28ae77aa791d35bac7d6c86c7625f1d01b8b560c04d","id":74958746,"location_subtype":"","month":"2019-06"},{"category":"burglary","location_type":"Force","location":{"latitude":"53.483501","street":{"id":726719,"name":"On or near Othello Drive"},"longitude":"-2.351739"},"context":"","outcome_status":{"category":"Status update unavailable","date":"2019-10"},"persistent_id":"c4b8bf885802b05134162e42cee8267832f5766f2843724be2e8344d6d649ec3","id":74969131,"location_subtype":"","month":"2019-06"},{"category":"burglary","location_type":"Force","location":{"latitude":"53.484137","street":{"id":726579,"name":"On or near Pedestrian Subway"},"longitude":"-2.330556"},"context":"","outcome_status":{"category":"Investigation complete; no suspect identified","date":"2019-06"},"persistent_id":"69f81071540c541680a1e6c31cd14d2f482cf25c9b6da07d8fd5a489a1557490","id":74963990,"location_subtype":"","month":"2019-06"},{"category":"burglary","location_type":"Force","location":{"latitude":"53.492674","street":{"id":728241,"name":"On or near Stableford Avenue"},"longitude":"-2.356246"},"context":"","outcome_status":{"category":"Status update unavailable","date":"2019-10"},"persistent_id":"b3a05c12dd3e684377d38c68a5ac850055831f4195087eb509ea09889f9765d3","id":74976250,"location_subtype":"","month":"2019-06"},{"category":"burglary","location_type":"Force","location":{"latitude":"53.483088","street":{"id":726700,"name":"On or near Vane Street"},"longitude":"-2.354388"},"context":"","outcome_status":{"category":"Status update unavailable","date":"2019-10"},"persistent_id":"781bb181519c1c1a8719f3e8975a83e501a159a69dedd48fe2db4ab8e4853660","id":74979971,"location_subtype":"","month":"2019-06"},{"category":"burglary","location_type":"Force","location":{"latitude":"53.490600","street":{"id":728307,"name":"On or near Bradgreen Road"},"longitude":"-2.361203"},"context":"","outcome_status":{"category":"Investigation complete; no suspect identified","date":"2019-06"},"persistent_id":"fb2aceb1a83d67ab7ae56c38d48c3ebf1f02a1185632c5999fa86500b44d5172","id":74972687,"location_subtype":"","month":"2019-06"},{"category":"burglary","location_type":"Force","location":{"latitude":"53.486886","street":{"id":726588,"name":"On or near Vicars Street"},"longitude":"-2.334104"},"context":"","outcome_status":{"category":"Investigation complete; no suspect identified","date":"2019-06"},"persistent_id":"fd37c633960049284e678995376afa0dc00e77d784d64e41b47df2bdb9fc5f5a","id":74955360,"location_subtype":"","month":"2019-06"},{"category":"burglary","location_type":"Force","location":{"latitude":"53.480546","street":{"id":726755,"name":"On or near Dorning Street"},"longitude":"-2.353809"},"context":"","outcome_status":{"category":"Investigation complete; no suspect identified","date":"2019-06"},"persistent_id":"42751b3b8c530fc0657cc3d48f298b10732509437b7af48dafcb892417d57e14","id":74973580,"location_subtype":"","month":"2019-06"},{"category":"burglary","location_type":"Force","location":{"latitude":"53.487803","street":{"id":726613,"name":"On or near Glenart"},"longitude":"-2.343455"},"context":"","outcome_status":{"category":"Investigation complete; no suspect identified","date":"2019-06"},"persistent_id":"40d8278e0a1dc53145006a7336e67ef54cd13c04f298d59a2c98ec81ca0dcadc","id":74978211,"location_subtype":"","month":"2019-06"},{"category":"criminal-damage-arson","location_type":"Force","location":{"latitude":"53.481518","street":{"id":726895,"name":"On or near Finstock Close"},"longitude":"-2.368253"},"context":"","outcome_status":{"category":"Status update unavailable","date":"2019-10"},"persistent_id":"5a84c40147a8898ed184c5c98b2cb1e709d8978a03df3ce04ffc2da4804527f6","id":74957919,"location_subtype":"","month":"2019-06"},{"category":"criminal-damage-arson","location_type":"Force","location":{"latitude":"53.490801","street":{"id":728293,"name":"On or near Montonfields Road"},"longitude":"-2.360164"},"context":"","outcome_status":{"category":"Status update unavailable","date":"2019-10"},"persistent_id":"24de20adafa254f5b1cecfae7eb92d6e5080b0f1b149b033d5b4d63dae0ad9ba","id":74964802,"location_subtype":"","month":"2019-06"},{"category":"criminal-damage-arson","location_type":"Force","location":{"latitude":"53.466179","street":{"id":723059,"name":"On or near Shopping Area"},"longitude":"-2.349005"},"context":"","outcome_status":{"category":"Investigation complete; no suspect identified","date":"2019-06"},"persistent_id":"93030f36b08abacdea4072069ed4f6f77dfd3157a753187685a64b40b03ab2b5","id":74964366,"location_subtype":"","month":"2019-06"},{"category":"criminal-damage-arson","location_type":"Force","location":{"latitude":"53.490130","street":{"id":728269,"name":"On or near Dovedale Avenue"},"longitude":"-2.347137"},"context":"","outcome_status":{"category":"Investigation complete; no suspect identified","date":"2019-06"},"persistent_id":"5758df8b370a1ac8a53c1afd95e4cee8f705cc7de80119b48dfb12d67d56c9c2","id":74963130,"location_subtype":"","month":"2019-06"},{"category":"criminal-damage-arson","location_type":"Force","location":{"latitude":"53.480288","street":{"id":726760,"name":"On or near Charlton Avenue"},"longitude":"-2.349964"},"context":"","outcome_status":{"category":"Investigation complete; no suspect identified","date":"2019-06"},"persistent_id":"c43e2442ca2c26ea9fd9f4329f0412ea8ce1733bcbbf096f7e10910c02c1bbd2","id":74963128,"location_subtype":"","month":"2019-06"},{"category":"criminal-damage-arson","location_type":"Force","location":{"latitude":"53.481518","street":{"id":726895,"name":"On or near Finstock Close"},"longitude":"-2.368253"},"context":"","outcome_status":{"category":"Status update unavailable","date":"2019-10"},"persistent_id":"e319c90567bb8b82fe292b062fad4aa2a903c9ad8cc61540b0c29b9a200b3353","id":74961352,"location_subtype":"","month":"2019-06"},{"category":"criminal-damage-arson","location_type":"Force","location":{"latitude":"53.475480","street":{"id":726861,"name":"On or near Reginald Street"},"longitude":"-2.370717"},"context":"","outcome_status":{"category":"Investigation complete; no suspect identified","date":"2019-06"},"persistent_id":"78cc31da3f8b694fc8bd7fb89f3a84e68f57d6b4ee467595b99d221450876aff","id":74961385,"location_subtype":"","month":"2019-06"},{"category":"criminal-damage-arson","location_type":"Force","location":{"latitude":"53.483088","street":{"id":726700,"name":"On or near Vane Street"},"longitude":"-2.354388"},"context":"","outcome_status":{"category":"Investigation complete; no suspect identified","date":"2019-06"},"persistent_id":"fd70a9aab3af956d71d9a4cd62e51754ccdc484ccfeb823f53700ffd0bd78df7","id":74959728,"location_subtype":"","month":"2019-06"},{"category":"criminal-damage-arson","location_type":"Force","location":{"latitude":"53.485441","street":{"id":726912,"name":"On or near Blandford Road"},"longitude":"-2.367172"},"context":"","outcome_status":{"category":"Status update unavailable","date":"2019-10"},"persistent_id":"fba5700e198774aba17d8a5c54616b2226cb0bf549a82a69a625b7deb2626872","id":74959690,"location_subtype":"","month":"2019-06"},{"category":"criminal-damage-arson","location_type":"Force","location":{"latitude":"53.478082","street":{"id":726826,"name":"On or near Darwell Avenue"},"longitude":"-2.357254"},"context":"","outcome_status":{"category":"Investigation complete; no suspect identified","date":"2019-06"},"persistent_id":"5ac163b439bf679f593adf399c385a62ef568776f02a577190cf273c7ac98811","id":74967398,"location_subtype":"","month":"2019-06"},{"category":"criminal-damage-arson","location_type":"Force","location":{"latitude":"53.483200","street":{"id":726562,"name":"On or near Parking Area"},"longitude":"-2.324506"},"context":"","outcome_status":{"category":"Status update unavailable","date":"2019-10"},"persistent_id":"badaf7d8737d601e4d62e878ff35a3e3f8e789b268043bac84ff88f0afd25b93","id":74980017,"location_subtype":"","month":"2019-06"},{"category":"criminal-damage-arson","location_type":"Force","location":{"latitude":"53.475901","street":{"id":726670,"name":"On or near Belper Road"},"longitude":"-2.365161"},"context":"","outcome_status":{"category":"Investigation complete; no suspect identified","date":"2019-06"},"persistent_id":"7be5730b1d22028066df0800d54dcb5765d0891ad4e9ec2f153641027727a4d3","id":74955362,"location_subtype":"","month":"2019-06"},{"category":"criminal-damage-arson","location_type":"Force","location":{"latitude":"53.482445","street":{"id":726922,"name":"On or near Sports/recreation Area"},"longitude":"-2.371049"},"context":"","outcome_status":{"category":"Status update unavailable","date":"2019-10"},"persistent_id":"cba2a6f2a7e343f29c4ef43da3087d8520d05ae1352e61a3559e8d35c5ba8e6d","id":74979980,"location_subtype":"","month":"2019-06"},{"category":"criminal-damage-arson","location_type":"Force","location":{"latitude":"53.482848","street":{"id":726611,"name":"On or near Hunterston Avenue"},"longitude":"-2.331692"},"context":"","outcome_status":{"category":"Unable to prosecute suspect","date":"2019-06"},"persistent_id":"d037295304a0f0aa166c0694d1c8c87f99b862cc0a6c410a76850d6ebbfab14d","id":74957075,"location_subtype":"","month":"2019-06"},{"category":"criminal-damage-arson","location_type":"Force","location":{"latitude":"53.484518","street":{"id":726647,"name":"On or near Shopping Area"},"longitude":"-2.335698"},"context":"","outcome_status":{"category":"Investigation complete; no suspect identified","date":"2019-06"},"persistent_id":"027bc4b6436114706ed74eadc0be519ea2dfc324e566a21e4e78a3fce53c1320","id":74957879,"location_subtype":"","month":"2019-06"},{"category":"criminal-damage-arson","location_type":"Force","location":{"latitude":"53.482549","street":{"id":710492,"name":"On or near Andoc Avenue"},"longitude":"-2.332699"},"context":"","outcome_status":{"category":"Unable to prosecute suspect","date":"2019-06"},"persistent_id":"72c0a2d9e8e362e551817b7ce3602b1483ba4e679d0b46ea27d8accee995fc17","id":74958805,"location_subtype":"","month":"2019-06"},{"category":"criminal-damage-arson","location_type":"Force","location":{"latitude":"53.489275","street":{"id":728240,"name":"On or near Stanier Avenue"},"longitude":"-2.353384"},"context":"","outcome_status":{"category":"Investigation complete; no suspect identified","date":"2019-06"},"persistent_id":"6bed20449f0d11360fc2042fc3e6e240a9fffa20733a9bbccb02077d1d0e69c8","id":74964831,"location_subtype":"","month":"2019-06"},{"category":"criminal-damage-arson","location_type":"Force","location":{"latitude":"53.482984","street":{"id":726741,"name":"On or near Hamilcar Avenue"},"longitude":"-2.346943"},"context":"","outcome_status":{"category":"Investigation complete; no suspect identified","date":"2019-06"},"persistent_id":"944ee47a19cd475e7c8b4fb400ca582f6157a786a9b112ca17d8e7f4af67d4ae","id":74963973,"location_subtype":"","month":"2019-06"},{"category":"criminal-damage-arson","location_type":"Force","location":{"latitude":"53.483088","street":{"id":726700,"name":"On or near Vane Street"},"longitude":"-2.354388"},"context":"","outcome_status":{"category":"Investigation complete; no suspect identified","date":"2019-06"},"persistent_id":"6e51722e33ab06cf3ef664747480423b49e4d20c90df4f278d04cbca3a95dccb","id":74964001,"location_subtype":"","month":"2019-06"},{"category":"criminal-damage-arson","location_type":"Force","location":{"latitude":"53.478859","street":{"id":726810,"name":"On or near John Street"},"longitude":"-2.364930"},"context":"","outcome_status":{"category":"Status update unavailable","date":"2019-10"},"persistent_id":"5970692f5b902c5e7ac40eb07e34f62231a3110bd72839e0a0a96e5467c600bb","id":74979119,"location_subtype":"","month":"2019-06"},{"category":"criminal-damage-arson","location_type":"Force","location":{"latitude":"53.484336","street":{"id":726765,"name":"On or near Byron Street"},"longitude":"-2.348898"},"context":"","outcome_status":{"category":"Unable to prosecute suspect","date":"2019-06"},"persistent_id":"144fec9f1216a7de1ec42ab67c51472d108da347ea64dca8942faabf273ba1ac","id":74967418,"location_subtype":"","month":"2019-06"},{"category":"criminal-damage-arson","location_type":"Force","location":{"latitude":"53.480486","street":{"id":726729,"name":"On or near Lewis Street"},"longitude":"-2.353040"},"context":"","outcome_status":{"category":"Status update unavailable","date":"2019-10"},"persistent_id":"801f2d9c74b3fefdcd0f29a5ddb7b35434d64f40419c667d7714dbd91cd1df7b","id":74977240,"location_subtype":"","month":"2019-06"},{"category":"criminal-damage-arson","location_type":"Force","location":{"latitude":"53.477714","street":{"id":726884,"name":"On or near Lorne Street"},"longitude":"-2.366216"},"context":"","outcome_status":{"category":"Status update unavailable","date":"2019-10"},"persistent_id":"f292cf38054500a573fa46bf6426b90a137b6c19051e7bcbef4ab971f2cf239d","id":74978208,"location_subtype":"","month":"2019-06"},{"category":"criminal-damage-arson","location_type":"Force","location":{"latitude":"53.483358","street":{"id":726809,"name":"On or near King Edward Street"},"longitude":"-2.357313"},"context":"","outcome_status":{"category":"Unable to prosecute suspect","date":"2019-06"},"persistent_id":"8554b56827ba519c7192c5bb47ab95d23d1344f984f80ed184dc37f7bc5beeb1","id":74977218,"location_subtype":"","month":"2019-06"},{"category":"criminal-damage-arson","location_type":"Force","location":{"latitude":"53.484336","street":{"id":726765,"name":"On or near Byron Street"},"longitude":"-2.348898"},"context":"","outcome_status":{"category":"Unable to prosecute suspect","date":"2019-06"},"persistent_id":"9497347cc24662615ad3daaec070ac1db241ede62af5813df4de4a6a1fc0df5b","id":74965658,"location_subtype":"","month":"2019-06"},{"category":"criminal-damage-arson","location_type":"Force","location":{"latitude":"53.481441","street":{"id":726715,"name":"On or near Philip Street"},"longitude":"-2.349025"},"context":"","outcome_status":{"category":"Court result unavailable","date":"2019-12"},"persistent_id":"ff526e1fa430272654946f3d8c2520dd8503c6f265230b5474be9921a7eae50c","id":74960559,"location_subtype":"","month":"2019-06"},{"category":"criminal-damage-arson","location_type":"Force","location":{"latitude":"53.484212","street":{"id":726595,"name":"On or near St Mary's Road"},"longitude":"-2.332606"},"context":"","outcome_status":{"category":"Status update unavailable","date":"2019-10"},"persistent_id":"d4f766a3f7509ad5633731c494e14159d57651c43bbfe2a60668412d455eeddb","id":74972711,"location_subtype":"","month":"2019-06"},{"category":"criminal-damage-arson","location_type":"Force","location":{"latitude":"53.477424","street":{"id":726830,"name":"On or near Clifford Street"},"longitude":"-2.363773"},"context":"","outcome_status":{"category":"Status update unavailable","date":"2019-10"},"persistent_id":"38342827337bbd7ad9bc7224ac68359a87a99f798abf1261606288308fe6b6b3","id":74979089,"location_subtype":"","month":"2019-06"},{"category":"criminal-damage-arson","location_type":"Force","location":{"latitude":"53.480486","street":{"id":726729,"name":"On or near Lewis Street"},"longitude":"-2.353040"},"context":"","outcome_status":{"category":"Status update unavailable","date":"2019-10"},"persistent_id":"980f9c97eb9d15023c04fc20238eb39dad2784da9dd9defc53749ce1a3d3a96a","id":74979167,"location_subtype":"","month":"2019-06"},{"category":"criminal-damage-arson","location_type":"Force","location":{"latitude":"53.480486","street":{"id":726729,"name":"On or near Lewis Street"},"longitude":"-2.353040"},"context":"","outcome_status":{"category":"Status update unavailable","date":"2019-10"},"persistent_id":"2851b795444f0ac87eaa2de4fdb54cad7549f64375bfe7977e185fb1cf32e634","id":74976282,"location_subtype":"","month":"2019-06"},{"category":"criminal-damage-arson","location_type":"Force","location":{"latitude":"53.483961","street":{"id":726814,"name":"On or near Hall Bank"},"longitude":"-2.360332"},"context":"","outcome_status":{"category":"Status update unavailable","date":"2019-10"},"persistent_id":"f821fc3c017aabbbb13c9a3c135814d05be301419e3262a3086fbc115eaa0f27","id":74976251,"location_subtype":"","month":"2019-06"},{"category":"criminal-damage-arson","location_type":"Force","location":{"latitude":"53.484101","street":{"id":726581,"name":"On or near Parking Area"},"longitude":"-2.336795"},"context":"","outcome_status":{"category":"Status update unavailable","date":"2019-10"},"persistent_id":"fe642fa78b8f81ce74334b1645936fa4498c11ef12f33a583a405690325da61b","id":74971855,"location_subtype":"","month":"2019-06"},{"category":"criminal-damage-arson","location_type":"Force","location":{"latitude":"53.483088","street":{"id":726700,"name":"On or near Vane Street"},"longitude":"-2.354388"},"context":"","outcome_status":{"category":"Investigation complete; no suspect identified","date":"2019-06"},"persistent_id":"7dc01ec2b3896e4bdbe44663145b7c3313be81672acf155e94fc7962e275f9a0","id":74969143,"location_subtype":"","month":"2019-06"},{"category":"criminal-damage-arson","location_type":"Force","location":{"latitude":"53.482309","street":{"id":726608,"name":"On or near Kearton Drive"},"longitude":"-2.331703"},"context":"","outcome_status":{"category":"Investigation complete; no suspect identified","date":"2019-06"},"persistent_id":"b51c78f7e51d1fbb4970d3347ba2aadadb4b62d7c77429474616ce2b73171d7b","id":74969146,"location_subtype":"","month":"2019-06"},{"category":"criminal-damage-arson","location_type":"Force","location":{"latitude":"53.483961","street":{"id":726814,"name":"On or near Hall Bank"},"longitude":"-2.360332"},"context":"","outcome_status":{"category":"Status update unavailable","date":"2019-10"},"persistent_id":"40f3be9e7653607cc430c3f15aa3fb861e27b3d2fdbbef442bf7798a9399e002","id":74957104,"location_subtype":"","month":"2019-06"},{"category":"criminal-damage-arson","location_type":"Force","location":{"latitude":"53.480533","street":{"id":726736,"name":"On or near Irlam Avenue"},"longitude":"-2.349334"},"context":"","outcome_status":{"category":"Investigation complete; no suspect identified","date":"2019-06"},"persistent_id":"6a15fa628f435ba0c052f741a75df81cb9d14ff88a908fdf130b1135e824803d","id":74957076,"location_subtype":"","month":"2019-06"},{"category":"criminal-damage-arson","location_type":"Force","location":{"latitude":"53.484212","street":{"id":726595,"name":"On or near St Mary's Road"},"longitude":"-2.332606"},"context":"","outcome_status":{"category":"Unable to prosecute suspect","date":"2019-06"},"persistent_id":"94a4dcb26f19ea0805a11ef0cca756771e2035bac9b239032f6c10be555fc329","id":74970862,"location_subtype":"","month":"2019-06"},{"category":"criminal-damage-arson","location_type":"Force","location":{"latitude":"53.480486","street":{"id":726729,"name":"On or near Lewis Street"},"longitude":"-2.353040"},"context":"","outcome_status":{"category":"Status update unavailable","date":"2019-10"},"persistent_id":"8369e4b1a184aa9819ada3ec0eca44be2028119a946c98ee34f1e2eb7ff43b0c","id":74970063,"location_subtype":"","month":"2019-06"},{"category":"criminal-damage-arson","location_type":"Force","location":{"latitude":"53.478264","street":{"id":726716,"name":"On or near Peter Street"},"longitude":"-2.350671"},"context":"","outcome_status":{"category":"Investigation complete; no suspect identified","date":"2019-06"},"persistent_id":"467d3712d40ca928dd8119679e2909cccc81e0ab61799a174cb63f462fec2a12","id":74970044,"location_subtype":"","month":"2019-06"},{"category":"criminal-damage-arson","location_type":"Force","location":{"latitude":"53.483890","street":{"id":726745,"name":"On or near Franklin Street"},"longitude":"-2.353882"},"context":"","outcome_status":{"category":"Status update unavailable","date":"2019-10"},"persistent_id":"20e987f1656eb0fd05de3f6bcdfc4f70f914ea8efe4e5aecc14ca7815f93593b","id":74954481,"location_subtype":"","month":"2019-06"},{"category":"criminal-damage-arson","location_type":"Force","location":{"latitude":"53.479160","street":{"id":726771,"name":"On or near Barlow Street"},"longitude":"-2.354400"},"context":"","outcome_status":{"category":"Unable to prosecute suspect","date":"2019-06"},"persistent_id":"db3c0882343752ab9a40cfd74d0fdc8246068b2ac4036040fabd2358ead7f127","id":74967419,"location_subtype":"","month":"2019-06"},{"category":"criminal-damage-arson","location_type":"Force","location":{"latitude":"53.484212","street":{"id":726595,"name":"On or near St Mary's Road"},"longitude":"-2.332606"},"context":"","outcome_status":{"category":"Status update unavailable","date":"2019-10"},"persistent_id":"1d8b53ecb502bdab31f58204db1fbeab71e66b75ebfa052a29092d1c53e92dc3","id":74966535,"location_subtype":"","month":"2019-06"},{"category":"criminal-damage-arson","location_type":"Force","location":{"latitude":"53.484137","street":{"id":726579,"name":"On or near Pedestrian Subway"},"longitude":"-2.330556"},"context":"","outcome_status":{"category":"Investigation complete; no suspect identified","date":"2019-06"},"persistent_id":"6f4d3b8e64fcb2db62365b306c0fbc940e34e9a47fb1e237d501ec413f664b0a","id":74964844,"location_subtype":"","month":"2019-06"},{"category":"drugs","location_type":"Force","location":{"latitude":"53.486554","street":{"id":726558,"name":"On or near Dukes Court"},"longitude":"-2.343415"},"context":"","outcome_status":{"category":"Offender given a caution","date":"2019-06"},"persistent_id":"04b49b6faeed1f7c7cf881c76e1fcc7242d05ccc0c0cd86cd20900e27aba7883","id":74956175,"location_subtype":"","month":"2019-06"},{"category":"drugs","location_type":"Force","location":{"latitude":"53.481938","street":{"id":726767,"name":"On or near Bradburn Street"},"longitude":"-2.351425"},"context":"","outcome_status":{"category":"Unable to prosecute suspect","date":"2019-06"},"persistent_id":"5c9138dc8258e709f9e2b8c8c8d2bd4335eb6fd4e36dc64aba89875aecdccdf0","id":74958811,"location_subtype":"","month":"2019-06"},{"category":"drugs","location_type":"Force","location":{"latitude":"53.491088","street":{"id":728247,"name":"On or near Partington Street"},"longitude":"-2.351531"},"context":"","outcome_status":{"category":"Status update unavailable","date":"2019-10"},"persistent_id":"79266a617d52d6ee2a0869c6e40a87bf000ba3851d194ada7af5664457173bed","id":74972647,"location_subtype":"","month":"2019-06"},{"category":"drugs","location_type":"Force","location":{"latitude":"53.476448","street":{"id":726681,"name":"On or near Nasmyth Road"},"longitude":"-2.356743"},"context":"","outcome_status":{"category":"Court result unavailable","date":"2019-12"},"persistent_id":"2651de52ddf35575d0cdebd978c3e8cfcbf1463105fa3c164f8aa786013701fc","id":74970864,"location_subtype":"","month":"2019-06"},{"category":"drugs","location_type":"Force","location":{"latitude":"53.481938","street":{"id":726767,"name":"On or near Bradburn Street"},"longitude":"-2.351425"},"context":"","outcome_status":{"category":"Investigation complete; no suspect identified","date":"2019-06"},"persistent_id":"6c0dc845f4a3c7234f4e85c4ca26c23c9ab24396bc6efd31425055e001169bc1","id":74960581,"location_subtype":"","month":"2019-06"},{"category":"drugs","location_type":"Force","location":{"latitude":"53.485866","street":{"id":726832,"name":"On or near Bromsgrove Avenue"},"longitude":"-2.363317"},"context":"","outcome_status":{"category":"Offender given a caution","date":"2019-06"},"persistent_id":"8b899d9446c00f1ece2d2724f66346068cbed1b346a733c17e8613ebcbfbaf1e","id":74975395,"location_subtype":"","month":"2019-06"},{"category":"drugs","location_type":"Force","location":{"latitude":"53.476766","street":{"id":726561,"name":"On or near Shopping Area"},"longitude":"-2.327230"},"context":"","outcome_status":{"category":"Investigation complete; no suspect identified","date":"2019-06"},"persistent_id":"0b70850363cfb2da88f1a85208bd25dea478ccb53f57bf3472be3eb011ae07ff","id":74974884,"location_subtype":"","month":"2019-06"},{"category":"other-theft","location_type":"Force","location":{"latitude":"53.483218","street":{"id":726599,"name":"On or near Regent Street"},"longitude":"-2.334256"},"context":"","outcome_status":{"category":"Investigation complete; no suspect identified","date":"2019-06"},"persistent_id":"d7ff04be55471f417123e7fa2b0b9a616df71f0e786995229d5843a612c640ec","id":74970062,"location_subtype":"","month":"2019-06"},{"category":"other-theft","location_type":"Force","location":{"latitude":"53.476448","street":{"id":726681,"name":"On or near Nasmyth Road"},"longitude":"-2.356743"},"context":"","outcome_status":{"category":"Unable to prosecute suspect","date":"2019-06"},"persistent_id":"5106354352aeaa93caa2f3032e0ea2a6771f329d420e27d282ba1ee6463ed26f","id":74970890,"location_subtype":"","month":"2019-06"},{"category":"other-theft","location_type":"Force","location":{"latitude":"53.481373","street":{"id":726594,"name":"On or near Talbot Street"},"longitude":"-2.341595"},"context":"","outcome_status":{"category":"Investigation complete; no suspect identified","date":"2019-06"},"persistent_id":"c5dde3c72be7ba558c0393d226ebc2e665c97b757a94683b1830e8e0bdb34799","id":74966579,"location_subtype":"","month":"2019-06"},{"category":"other-theft","location_type":"Force","location":{"latitude":"53.486188","street":{"id":726585,"name":"On or near Wellington Road"},"longitude":"-2.336405"},"context":"","outcome_status":{"category":"Investigation complete; no suspect identified","date":"2019-06"},"persistent_id":"b4212d052e5b435edbe1d1af5f52937b472a89c62a3d07a4cfb052bfebfd1bd6","id":74970932,"location_subtype":"","month":"2019-06"},{"category":"other-theft","location_type":"Force","location":{"latitude":"53.482458","street":{"id":726612,"name":"On or near Hemming Drive"},"longitude":"-2.342418"},"context":"","outcome_status":{"category":"Status update unavailable","date":"2019-10"},"persistent_id":"6964727739284ac01625cca40670eeeca138507c2f5f434dcd0ff70479eb893d","id":74959710,"location_subtype":"","month":"2019-06"},{"category":"other-theft","location_type":"Force","location":{"latitude":"53.466179","street":{"id":723059,"name":"On or near Shopping Area"},"longitude":"-2.349005"},"context":"","outcome_status":{"category":"Status update unavailable","date":"2019-10"},"persistent_id":"7f4a5a7c377bb2d6fc0d30bdb2ff1c63295dde6dc7c05bac316883701d80c8e5","id":74980375,"location_subtype":"","month":"2019-06"},{"category":"other-theft","location_type":"Force","location":{"latitude":"53.479451","street":{"id":726606,"name":"On or near Lankro Way"},"longitude":"-2.334528"},"context":"","outcome_status":{"category":"Investigation complete; no suspect identified","date":"2019-06"},"persistent_id":"c9bbe10069fe99f56d857631bb8cba728ebc2812c4d9df1a75cb70db9d51c007","id":74971309,"location_subtype":"","month":"2019-06"},{"category":"other-theft","location_type":"Force","location":{"latitude":"53.466581","street":{"id":723061,"name":"On or near Phoenix Way"},"longitude":"-2.340543"},"context":"","outcome_status":{"category":"Investigation complete; no suspect identified","date":"2019-06"},"persistent_id":"81ee8a6520eecf5c40d7877e9f138cf0b8ccee9068be0c55d27cdd7ac635c6a1","id":74969538,"location_subtype":"","month":"2019-06"},{"category":"other-theft","location_type":"Force","location":{"latitude":"53.484055","street":{"id":726557,"name":"On or near Plum Tree Close"},"longitude":"-2.343636"},"context":"","outcome_status":{"category":"Investigation complete; no suspect identified","date":"2019-06"},"persistent_id":"854555a2dbab034c4ee13582024026f5d78f0365b62ee49b4b3b353eaf74d821","id":74974387,"location_subtype":"","month":"2019-06"},{"category":"other-theft","location_type":"Force","location":{"latitude":"53.483833","street":{"id":726708,"name":"On or near Richardson Road"},"longitude":"-2.345608"},"context":"","outcome_status":{"category":"Investigation complete; no suspect identified","date":"2019-06"},"persistent_id":"0c5d7b8a3849cb5e82b3bd5f3c490bf6886a012bd3c9ae5cd76e959deeb8c963","id":74968158,"location_subtype":"","month":"2019-06"},{"category":"other-theft","location_type":"Force","location":{"latitude":"53.481807","street":{"id":726646,"name":"On or near Petrol Station"},"longitude":"-2.337560"},"context":"","outcome_status":{"category":"Investigation complete; no suspect identified","date":"2019-06"},"persistent_id":"65c1ea837bfe7612bfa8e9a3a037ba8550e65b7c3dfcb290420154b0201eea11","id":74965666,"location_subtype":"","month":"2019-06"},{"category":"other-theft","location_type":"Force","location":{"latitude":"53.484212","street":{"id":726595,"name":"On or near St Mary's Road"},"longitude":"-2.332606"},"context":"","outcome_status":{"category":"Unable to prosecute suspect","date":"2019-06"},"persistent_id":"ad3749a716f6d7f5f2ccb019792b98f1278c0fe5e47b3c22708378e571d4ae01","id":74965670,"location_subtype":"","month":"2019-06"},{"category":"other-theft","location_type":"Force","location":{"latitude":"53.480945","street":{"id":726641,"name":"On or near Alma Street"},"longitude":"-2.340266"},"context":"","outcome_status":{"category":"Status update unavailable","date":"2019-10"},"persistent_id":"0d4036a19df1cdc472968665db4efc816a27c00f8d15cf673335f09161fdfa6f","id":74972656,"location_subtype":"","month":"2019-06"},{"category":"other-theft","location_type":"Force","location":{"latitude":"53.474851","street":{"id":723065,"name":"On or near Kestrel Road"},"longitude":"-2.333799"},"context":"","outcome_status":{"category":"Status update unavailable","date":"2019-10"},"persistent_id":"bdb378863081b435ef0611f9c2152906cf98b7bfd389cf4031bf7467a250d3ca","id":74977655,"location_subtype":"","month":"2019-06"},{"category":"other-theft","location_type":"Force","location":{"latitude":"53.467652","street":{"id":723057,"name":"On or near Petrol Station"},"longitude":"-2.352497"},"context":"","outcome_status":{"category":"Investigation complete; no suspect identified","date":"2019-06"},"persistent_id":"645915dc5845d57eb067e3d91efc03838ef5ce639138c4ac978fc7c32e6a8566","id":74977650,"location_subtype":"","month":"2019-06"},{"category":"other-theft","location_type":"Force","location":{"latitude":"53.482194","street":{"id":726793,"name":"On or near Sarah Street"},"longitude":"-2.364974"},"context":"","outcome_status":{"category":"Investigation complete; no suspect identified","date":"2019-06"},"persistent_id":"71117f32cc1414cefbd35a01ee3d795d5507a0dd132829633b1921d28a385c42","id":74965686,"location_subtype":"","month":"2019-06"},{"category":"other-theft","location_type":"Force","location":{"latitude":"53.468375","street":{"id":710181,"name":"On or near Trafford Boulevard"},"longitude":"-2.354175"},"context":"","outcome_status":{"category":"Status update unavailable","date":"2019-10"},"persistent_id":"00bba5536e479e5c2a43067b067e5d0fc516a8baa00d09bc6509babcf7a0a524","id":74966075,"location_subtype":"","month":"2019-06"},{"category":"other-theft","location_type":"Force","location":{"latitude":"53.490529","street":{"id":728377,"name":"On or near Westminster Road"},"longitude":"-2.339559"},"context":"","outcome_status":{"category":"Investigation complete; no suspect identified","date":"2019-06"},"persistent_id":"e07d211b9e43ab7365aeec2c03924d2e6bedd53664b039cab5265e7239763899","id":74979088,"location_subtype":"","month":"2019-06"},{"category":"other-theft","location_type":"Force","location":{"latitude":"53.485171","street":{"id":726817,"name":"On or near Green Lane"},"longitude":"-2.358369"},"context":"","outcome_status":{"category":"Unable to prosecute suspect","date":"2019-06"},"persistent_id":"5290448135bde427c310f9dbae480cad4ae8d5fa78af6c98b1b3aaa6fabc7bf1","id":74968167,"location_subtype":"","month":"2019-06"},{"category":"other-theft","location_type":"Force","location":{"latitude":"53.491174","street":{"id":728257,"name":"On or near Marsden Street"},"longitude":"-2.355887"},"context":"","outcome_status":{"category":"Status update unavailable","date":"2019-10"},"persistent_id":"8bb23f454f191cba7cf71bbae91abdcf601a7c6c527d828a38c19e6922f7fc6d","id":74977200,"location_subtype":"","month":"2019-06"},{"category":"other-theft","location_type":"Force","location":{"latitude":"53.482309","street":{"id":726608,"name":"On or near Kearton Drive"},"longitude":"-2.331703"},"context":"","outcome_status":{"category":"Status update unavailable","date":"2019-10"},"persistent_id":"c3d8dc8076f54949729469c60c6bcbb9f5ae5f24e97d0e4f90f23ecf58bf811f","id":74969133,"location_subtype":"","month":"2019-06"},{"category":"other-theft","location_type":"Force","location":{"latitude":"53.484240","street":{"id":726570,"name":"On or near Canterbury Gardens"},"longitude":"-2.325524"},"context":"","outcome_status":{"category":"Status update unavailable","date":"2019-10"},"persistent_id":"45e461332290aa7755165b0021548032a126ca9e56940a0bbf95c5aeeb28bb4e","id":74973565,"location_subtype":"","month":"2019-06"},{"category":"other-theft","location_type":"Force","location":{"latitude":"53.470267","street":{"id":723044,"name":"On or near Taylor Road"},"longitude":"-2.346583"},"context":"","outcome_status":{"category":"Investigation complete; no suspect identified","date":"2019-06"},"persistent_id":"0c2d66aaeeaa38f18d195ba60c20ed402f9a63da3c4b3d7a77d3566fa2312c96","id":74974841,"location_subtype":"","month":"2019-06"},{"category":"other-theft","location_type":"Force","location":{"latitude":"53.467652","street":{"id":723057,"name":"On or near Petrol Station"},"longitude":"-2.352497"},"context":"","outcome_status":{"category":"Investigation complete; no suspect identified","date":"2019-06"},"persistent_id":"484cd73387398a398691a2c5fc77161ff2ed6cebb3bb848c7d067a154ceb5a4f","id":74958293,"location_subtype":"","month":"2019-06"},{"category":"other-theft","location_type":"Force","location":{"latitude":"53.489918","street":{"id":728272,"name":"On or near Crawford Street"},"longitude":"-2.352063"},"context":"","outcome_status":{"category":"Investigation complete; no suspect identified","date":"2019-06"},"persistent_id":"13b1da2c2f465f3be7c1b29ff0bb491a485c52467c04850497f93491e0e0318e","id":74976242,"location_subtype":"","month":"2019-06"},{"category":"other-theft","location_type":"Force","location":{"latitude":"53.470267","street":{"id":723044,"name":"On or near Taylor Road"},"longitude":"-2.346583"},"context":"","outcome_status":{"category":"Status update unavailable","date":"2019-10"},"persistent_id":"fda342abc3757b329031466295c9f4130d90857e1949aade7aefd61818a73108","id":74979499,"location_subtype":"","month":"2019-06"},{"category":"other-theft","location_type":"Force","location":{"latitude":"53.485163","street":{"id":726604,"name":"On or near Mather Avenue"},"longitude":"-2.342545"},"context":"","outcome_status":{"category":"Investigation complete; no suspect identified","date":"2019-06"},"persistent_id":"ec8afd745a437605b3ee93ee3d60a5c0e193b3e789ab7476f1d6636385f3ea2f","id":74954495,"location_subtype":"","month":"2019-06"},{"category":"other-theft","location_type":"Force","location":{"latitude":"53.467998","street":{"id":723046,"name":"On or near South Avenue"},"longitude":"-2.344832"},"context":"","outcome_status":{"category":"Investigation complete; no suspect identified","date":"2019-06"},"persistent_id":"be71ab8c1faff16ac0196538f83f48efb184dd00fd30be58f64dd18ce5512df2","id":74959200,"location_subtype":"","month":"2019-06"},{"category":"other-theft","location_type":"Force","location":{"latitude":"53.481354","street":{"id":726821,"name":"On or near Fielding Street"},"longitude":"-2.357387"},"context":"","outcome_status":{"category":"Investigation complete; no suspect identified","date":"2019-06"},"persistent_id":"ce3d9fdaa7b1847da49db94e507f01d6ebae21d3bbbc26cab3f4c17df1435410","id":74963133,"location_subtype":"","month":"2019-06"},{"category":"other-theft","location_type":"Force","location":{"latitude":"53.481807","street":{"id":726646,"name":"On or near Petrol Station"},"longitude":"-2.337560"},"context":"","outcome_status":{"category":"Investigation complete; no suspect identified","date":"2019-06"},"persistent_id":"338ffa2443d6e1564af73586e3a4073a007113a063a5775ccb86cc8ec7c54289","id":74956197,"location_subtype":"","month":"2019-06"},{"category":"other-theft","location_type":"Force","location":{"latitude":"53.478045","street":{"id":726749,"name":"On or near Enfield Close"},"longitude":"-2.354662"},"context":"","outcome_status":{"category":"Investigation complete; no suspect identified","date":"2019-06"},"persistent_id":"f0ea9a0c3b5693064ec659d98b2586b51496ad5b3a4ae2bcc0885e5a15b9ebc0","id":74964863,"location_subtype":"","month":"2019-06"},{"category":"possession-of-weapons","location_type":"Force","location":{"latitude":"53.476766","street":{"id":726561,"name":"On or near Shopping Area"},"longitude":"-2.327230"},"context":"","outcome_status":{"category":"Investigation complete; no suspect identified","date":"2019-06"},"persistent_id":"d29de5ef3cf00cbe1ffdc065c96e4e2e9e8526160c035353697d1eb655b162a0","id":74974905,"location_subtype":"","month":"2019-06"},{"category":"possession-of-weapons","location_type":"Force","location":{"latitude":"53.487423","street":{"id":726707,"name":"On or near Richmond Grove"},"longitude":"-2.347672"},"context":"","outcome_status":{"category":"Investigation complete; no suspect identified","date":"2019-06"},"persistent_id":"9628c404dbf14fe6920c17369c2e242533f6db9b8583f0217ee5aa6d3d3b31dd","id":74965683,"location_subtype":"","month":"2019-06"},{"category":"public-order","location_type":"Force","location":{"latitude":"53.467963","street":{"id":723041,"name":"On or near Trafford Boulevard"},"longitude":"-2.353493"},"context":"","outcome_status":{"category":"Unable to prosecute suspect","date":"2019-06"},"persistent_id":"4c3656f25f8b9e24cbc8016e0550cbb243bf1bd668d67b8279cf8eac746e5264","id":74957454,"location_subtype":"","month":"2019-06"},{"category":"public-order","location_type":"Force","location":{"latitude":"53.483088","street":{"id":726700,"name":"On or near Vane Street"},"longitude":"-2.354388"},"context":"","outcome_status":{"category":"Investigation complete; no suspect identified","date":"2019-06"},"persistent_id":"8ac1a38256f4c6148670602bff83275dff3b06569da52e72b7dac65144a9c467","id":74966561,"location_subtype":"","month":"2019-06"},{"category":"public-order","location_type":"Force","location":{"latitude":"53.487386","street":{"id":726629,"name":"On or near Clarendon Road"},"longitude":"-2.335224"},"context":"","outcome_status":{"category":"Investigation complete; no suspect identified","date":"2019-06"},"persistent_id":"7a5e3ee47e1b5436b271664a66cf8cd9231bc0218144971d5190e61d9caf182f","id":74968160,"location_subtype":"","month":"2019-06"},{"category":"public-order","location_type":"Force","location":{"latitude":"53.467495","street":{"id":723039,"name":"On or near Parking Area"},"longitude":"-2.347630"},"context":"","outcome_status":{"category":"Investigation complete; no suspect identified","date":"2019-06"},"persistent_id":"1a0292bb0a111a8582aeaf5aba6c555088bfe55109d05b968c1227e4fc9cb873","id":74976704,"location_subtype":"","month":"2019-06"},{"category":"public-order","location_type":"Force","location":{"latitude":"53.482461","street":{"id":726648,"name":"On or near Supermarket"},"longitude":"-2.335079"},"context":"","outcome_status":{"category":"Unable to prosecute suspect","date":"2019-06"},"persistent_id":"ff07d8b051764fe4fe8bc643aad0cf7ad2494fbec9f056a1927c331094e29ecb","id":74957098,"location_subtype":"","month":"2019-06"},{"category":"public-order","location_type":"Force","location":{"latitude":"53.468375","street":{"id":710181,"name":"On or near Trafford Boulevard"},"longitude":"-2.354175"},"context":"","outcome_status":{"category":"Investigation complete; no suspect identified","date":"2019-06"},"persistent_id":"ac8486a34ac451e396fb57ceddac4ebc3af3284720aa29154a3499c32b98b425","id":74960064,"location_subtype":"","month":"2019-06"},{"category":"public-order","location_type":"Force","location":{"latitude":"53.478264","street":{"id":726716,"name":"On or near Peter Street"},"longitude":"-2.350671"},"context":"","outcome_status":{"category":"Investigation complete; no suspect identified","date":"2019-06"},"persistent_id":"78f07c40cb4ea712f2d6e016981e2e090b3276651dcad2dc0b0c21baeab3af46","id":74957110,"location_subtype":"","month":"2019-06"},{"category":"public-order","location_type":"Force","location":{"latitude":"53.482309","street":{"id":726608,"name":"On or near Kearton Drive"},"longitude":"-2.331703"},"context":"","outcome_status":{"category":"Investigation complete; no suspect identified","date":"2019-06"},"persistent_id":"0e75e51a34692fd89210b4af841a890c160fc4b0d1987ab25a94c9f6d67a0a7d","id":74978215,"location_subtype":"","month":"2019-06"},{"category":"public-order","location_type":"Force","location":{"latitude":"53.482461","street":{"id":726648,"name":"On or near Supermarket"},"longitude":"-2.335079"},"context":"","outcome_status":{"category":"Investigation complete; no suspect identified","date":"2019-06"},"persistent_id":"901221942e20731f70baf0aafa926c67ae12a76fb2ba21bed295ac76d1edc24f","id":74958779,"location_subtype":"","month":"2019-06"},{"category":"public-order","location_type":"Force","location":{"latitude":"53.467998","street":{"id":723046,"name":"On or near South Avenue"},"longitude":"-2.344832"},"context":"","outcome_status":{"category":"Investigation complete; no suspect identified","date":"2019-06"},"persistent_id":"763d80ffff169eecfb60b1dd6d5281ee9d6fdab12d4fa39408b59d4e5526a488","id":74959205,"location_subtype":"","month":"2019-06"},{"category":"public-order","location_type":"Force","location":{"latitude":"53.482461","street":{"id":726648,"name":"On or near Supermarket"},"longitude":"-2.335079"},"context":"","outcome_status":{"category":"Status update unavailable","date":"2019-10"},"persistent_id":"cd81197ae0770604611a193e9bf78b78ce9acdc9efcc85659f67d3d3c668fe59","id":74979154,"location_subtype":"","month":"2019-06"},{"category":"public-order","location_type":"Force","location":{"latitude":"53.482445","street":{"id":726922,"name":"On or near Sports/recreation Area"},"longitude":"-2.371049"},"context":"","outcome_status":{"category":"Status update unavailable","date":"2019-10"},"persistent_id":"64366e8e3acf3a5d73e16f812c59e680f759cdcc9f43864632ee8fba37ccadbe","id":74980022,"location_subtype":"","month":"2019-06"},{"category":"public-order","location_type":"Force","location":{"latitude":"53.488984","street":{"id":728381,"name":"On or near Sunnybank Avenue"},"longitude":"-2.339155"},"context":"","outcome_status":{"category":"Unable to prosecute suspect","date":"2019-06"},"persistent_id":"9b47462fd02b5b55e3f75ccd7317956e580d9ef7e94bfc328a208b3811c5796e","id":74962219,"location_subtype":"","month":"2019-06"},{"category":"public-order","location_type":"Force","location":{"latitude":"53.479160","street":{"id":726771,"name":"On or near Barlow Street"},"longitude":"-2.354400"},"context":"","outcome_status":{"category":"Investigation complete; no suspect identified","date":"2019-06"},"persistent_id":"d2bbb09999472894a4d0e0348634ef40323247b445799c888f32269e2f2504e7","id":74962243,"location_subtype":"","month":"2019-06"},{"category":"public-order","location_type":"Force","location":{"latitude":"53.479489","street":{"id":726763,"name":"On or near Cawdor Street"},"longitude":"-2.355819"},"context":"","outcome_status":{"category":"Unable to prosecute suspect","date":"2019-06"},"persistent_id":"443a85d9bed35901a23bcc212605f48d9d6de323364a79ae15f352fb0841ea13","id":74964007,"location_subtype":"","month":"2019-06"},{"category":"public-order","location_type":"Force","location":{"latitude":"53.484682","street":{"id":726642,"name":"On or near Albert Street"},"longitude":"-2.338096"},"context":"","outcome_status":{"category":"Status update unavailable","date":"2019-10"},"persistent_id":"c439bbc7760fbd626e7667d9cdbdbcc807d6a27f98ab26ec50aed7b694eb37f0","id":74957898,"location_subtype":"","month":"2019-06"},{"category":"public-order","location_type":"Force","location":{"latitude":"53.483943","street":{"id":726626,"name":"On or near College Road"},"longitude":"-2.332152"},"context":"","outcome_status":{"category":"Investigation complete; no suspect identified","date":"2019-06"},"persistent_id":"63c962b7908c20827a4257553722de27ff57373326d72cfe428a444a500ad312","id":74975429,"location_subtype":"","month":"2019-06"},{"category":"public-order","location_type":"Force","location":{"latitude":"53.483341","street":{"id":726631,"name":"On or near Church Street"},"longitude":"-2.341732"},"context":"","outcome_status":{"category":"Investigation complete; no suspect identified","date":"2019-06"},"persistent_id":"d14e422132ee6f05b24d3448256d956d248db5599d58bf9362a95daa1cd5f51c","id":74970905,"location_subtype":"","month":"2019-06"},{"category":"public-order","location_type":"Force","location":{"latitude":"53.481373","street":{"id":726594,"name":"On or near Talbot Street"},"longitude":"-2.341595"},"context":"","outcome_status":{"category":"Investigation complete; no suspect identified","date":"2019-06"},"persistent_id":"2d985a7d8bb4592567b1a4f468ef60f3ef24013d8f171230b5b27a20ef2e487a","id":74969995,"location_subtype":"","month":"2019-06"},{"category":"public-order","location_type":"Force","location":{"latitude":"53.483501","street":{"id":726719,"name":"On or near Othello Drive"},"longitude":"-2.351739"},"context":"","outcome_status":{"category":"Status update unavailable","date":"2019-10"},"persistent_id":"a7ed404473a7672e68e0c21cbb354b3d75984b8e9bee0b33467e8bce6c4323d0","id":74979097,"location_subtype":"","month":"2019-06"},{"category":"public-order","location_type":"Force","location":{"latitude":"53.483653","street":{"id":726722,"name":"On or near Nelson Street"},"longitude":"-2.355056"},"context":"","outcome_status":{"category":"Status update unavailable","date":"2019-10"},"persistent_id":"3756a38e8e9aeb92f83d1a76280661a3af5ffa40a4b2fbee844a7dd780febfb7","id":74980031,"location_subtype":"","month":"2019-06"},{"category":"public-order","location_type":"Force","location":{"latitude":"53.485252","street":{"id":726589,"name":"On or near Vernon Avenue"},"longitude":"-2.339893"},"context":"","outcome_status":{"category":"Investigation complete; no suspect identified","date":"2019-06"},"persistent_id":"bfd9ecac7fcdc9f2805ac71e07211680e955654e431af2914516cc57b455bfe0","id":74978233,"location_subtype":"","month":"2019-06"},{"category":"public-order","location_type":"Force","location":{"latitude":"53.467495","street":{"id":723039,"name":"On or near Parking Area"},"longitude":"-2.347630"},"context":"","outcome_status":{"category":"Status update unavailable","date":"2019-10"},"persistent_id":"f6d7d884d470e8a2585f0649ebefdfcf307946dd5a6699e86c476ae7d8c358dc","id":74957429,"location_subtype":"","month":"2019-06"},{"category":"public-order","location_type":"Force","location":{"latitude":"53.491083","street":{"id":728260,"name":"On or near Howard Avenue"},"longitude":"-2.349993"},"context":"","outcome_status":{"category":"Investigation complete; no suspect identified","date":"2019-06"},"persistent_id":"de0df6d930dded67383424d3ffa6bda2618da63168fae270a9380d23316c41b4","id":74955371,"location_subtype":"","month":"2019-06"},{"category":"public-order","location_type":"Force","location":{"latitude":"53.488984","street":{"id":728381,"name":"On or near Sunnybank Avenue"},"longitude":"-2.339155"},"context":"","outcome_status":{"category":"Unable to prosecute suspect","date":"2019-06"},"persistent_id":"39628ab3f323567f6183f89eb650c4d84a0c6ddf5a6703d6a69708155c92720b","id":74962201,"location_subtype":"","month":"2019-06"},{"category":"public-order","location_type":"Force","location":{"latitude":"53.466179","street":{"id":723059,"name":"On or near Shopping Area"},"longitude":"-2.349005"},"context":"","outcome_status":{"category":"Investigation complete; no suspect identified","date":"2019-06"},"persistent_id":"40caed3d53c9128d10b8ce9f959535404eb850f455f71214b93286b0ef68e283","id":74967767,"location_subtype":"","month":"2019-06"},{"category":"public-order","location_type":"Force","location":{"latitude":"53.474439","street":{"id":723028,"name":"On or near Peel Green Road"},"longitude":"-2.361367"},"context":"","outcome_status":{"category":"Unable to prosecute suspect","date":"2019-06"},"persistent_id":"a03d77e278ab0f7277cccdd3a373053cadcf88931e46fedfd3067f0f9e0d03d6","id":74975436,"location_subtype":"","month":"2019-06"},{"category":"public-order","location_type":"Force","location":{"latitude":"53.483540","street":{"id":726617,"name":"On or near Fox Street"},"longitude":"-2.334877"},"context":"","outcome_status":{"category":"Status update unavailable","date":"2019-10"},"persistent_id":"a2d11f6962ee58f653de5e0e688537260158a0fbde29bcac06e030b89b1c226c","id":74979988,"location_subtype":"","month":"2019-06"},{"category":"public-order","location_type":"Force","location":{"latitude":"53.467495","street":{"id":723039,"name":"On or near Parking Area"},"longitude":"-2.347630"},"context":"","outcome_status":{"category":"Status update unavailable","date":"2019-10"},"persistent_id":"c6a8ab948611b94eab499d83211c622c86ef392fa94a8f4a38791cc388f883c0","id":74968589,"location_subtype":"","month":"2019-06"},{"category":"public-order","location_type":"Force","location":{"latitude":"53.483650","street":{"id":726801,"name":"On or near Nameplate Close"},"longitude":"-2.364866"},"context":"","outcome_status":{"category":"Investigation complete; no suspect identified","date":"2019-06"},"persistent_id":"325b6a8ed8d53ec7b2beb7e391b33c773002cd5fbc8e873e43a85a0219b5a34f","id":74976320,"location_subtype":"","month":"2019-06"},{"category":"public-order","location_type":"Force","location":{"latitude":"53.483371","street":{"id":726627,"name":"On or near College Croft"},"longitude":"-2.334288"},"context":"","outcome_status":{"category":"Unable to prosecute suspect","date":"2019-06"},"persistent_id":"bf1b4365900e905f12232a1645d86cd3242cdb7b1cfb0046bd908e6dbf14abf9","id":74963135,"location_subtype":"","month":"2019-06"},{"category":"public-order","location_type":"Force","location":{"latitude":"53.478598","street":{"id":726890,"name":"On or near Hallsworth Road"},"longitude":"-2.370910"},"context":"","outcome_status":{"category":"Investigation complete; no suspect identified","date":"2019-06"},"persistent_id":"14e7f063cabd8c72badfa42e29b767e8199280fb8470e9fded3927b7a03160d6","id":74963183,"location_subtype":"","month":"2019-06"},{"category":"public-order","location_type":"Force","location":{"latitude":"53.483540","street":{"id":726617,"name":"On or near Fox Street"},"longitude":"-2.334877"},"context":"","outcome_status":{"category":"Status update unavailable","date":"2019-10"},"persistent_id":"82b1c9826fcfeb033a28628c3eeaf7c1c189ebb7c84e9a9131d6985214f9f2b8","id":74968149,"location_subtype":"","month":"2019-06"},{"category":"public-order","location_type":"Force","location":{"latitude":"53.481441","street":{"id":726715,"name":"On or near Philip Street"},"longitude":"-2.349025"},"context":"","outcome_status":{"category":"Investigation complete; no suspect identified","date":"2019-06"},"persistent_id":"80e5844a563070fac75bbfed11dbe5b94d8d72e5ad762855081a8ca217f1404f","id":74958819,"location_subtype":"","month":"2019-06"},{"category":"public-order","location_type":"Force","location":{"latitude":"53.482840","street":{"id":726803,"name":"On or near Millers Street"},"longitude":"-2.362312"},"context":"","outcome_status":{"category":"Investigation complete; no suspect identified","date":"2019-06"},"persistent_id":"6d8ab70107105abce313ae145bcebbfb9b74d97ed5bf3782c7b05b9694917c95","id":74971848,"location_subtype":"","month":"2019-06"},{"category":"public-order","location_type":"Force","location":{"latitude":"53.485788","street":{"id":726659,"name":"On or near Kearsley Street"},"longitude":"-2.365411"},"context":"","outcome_status":{"category":"Status update unavailable","date":"2019-10"},"persistent_id":"88907ed96306cbf83cddabaadfc4831f1eaff2d2b4e894488867448944ff30d2","id":74979970,"location_subtype":"","month":"2019-06"},{"category":"public-order","location_type":"Force","location":{"latitude":"53.467998","street":{"id":723046,"name":"On or near South Avenue"},"longitude":"-2.344832"},"context":"","outcome_status":{"category":"Investigation complete; no suspect identified","date":"2019-06"},"persistent_id":"b86ede96bd2d07159b6a7a3dbfec6d6b4ad8ac21a4011430c2fc5f25037d47de","id":74959195,"location_subtype":"","month":"2019-06"},{"category":"public-order","location_type":"Force","location":{"latitude":"53.467495","street":{"id":723039,"name":"On or near Parking Area"},"longitude":"-2.347630"},"context":"","outcome_status":{"category":"Status update unavailable","date":"2019-10"},"persistent_id":"154c7f5effa57dc36a949fce23aaba00d8333328973e96143a6fd3f5f615994d","id":74979526,"location_subtype":"","month":"2019-06"},{"category":"public-order","location_type":"Force","location":{"latitude":"53.468375","street":{"id":710181,"name":"On or near Trafford Boulevard"},"longitude":"-2.354175"},"context":"","outcome_status":{"category":"Status update unavailable","date":"2019-10"},"persistent_id":"03c45e549b4fc4196d31521f3b1ac42bbb3b133565ba4bfd09150757cd2dfdc1","id":74969501,"location_subtype":"","month":"2019-06"},{"category":"public-order","location_type":"Force","location":{"latitude":"53.467963","street":{"id":723041,"name":"On or near Trafford Boulevard"},"longitude":"-2.353493"},"context":"","outcome_status":{"category":"Investigation complete; no suspect identified","date":"2019-06"},"persistent_id":"40c5002e4911edc36aa99c7779847d9a49597c18d17e633e1cb0674bf162b19d","id":74963523,"location_subtype":"","month":"2019-06"},{"category":"public-order","location_type":"Force","location":{"latitude":"53.483437","street":{"id":726576,"name":"On or near Pedestrian Subway"},"longitude":"-2.336579"},"context":"","outcome_status":{"category":"Status update unavailable","date":"2019-10"},"persistent_id":"3be12e262a98431f2937f9795bdb874ea696c9ccba4d0956edeb0932b2d2d2e1","id":74979166,"location_subtype":"","month":"2019-06"},{"category":"public-order","location_type":"Force","location":{"latitude":"53.482840","street":{"id":726803,"name":"On or near Millers Street"},"longitude":"-2.362312"},"context":"","outcome_status":{"category":"Investigation complete; no suspect identified","date":"2019-06"},"persistent_id":"029cdb632bd2e491b42266a96578c145e30a07be2ccc34689d7e4856780b1783","id":74971804,"location_subtype":"","month":"2019-06"},{"category":"public-order","location_type":"Force","location":{"latitude":"53.477122","street":{"id":726864,"name":"On or near Liverpool Road"},"longitude":"-2.368682"},"context":"","outcome_status":{"category":"Status update unavailable","date":"2019-10"},"persistent_id":"5a8c249e7e16aaf00d5e135092ef4e6df2c01ecf7a56e177ca9f6183417640f8","id":74970883,"location_subtype":"","month":"2019-06"},{"category":"public-order","location_type":"Force","location":{"latitude":"53.481373","street":{"id":726594,"name":"On or near Talbot Street"},"longitude":"-2.341595"},"context":"","outcome_status":{"category":"Unable to prosecute suspect","date":"2019-06"},"persistent_id":"66e2ce4f1ef5eb5cff077bb5d07df3ccc901e45e25a5429c7f2d87c75bb1b0ca","id":74968185,"location_subtype":"","month":"2019-06"},{"category":"public-order","location_type":"Force","location":{"latitude":"53.481890","street":{"id":726831,"name":"On or near Chapel Street"},"longitude":"-2.358476"},"context":"","outcome_status":{"category":"Investigation complete; no suspect identified","date":"2019-06"},"persistent_id":"0486dfa25b6b149d9982adb939dc6d0fe309b8da7680798c38d62830b70f7a09","id":74972727,"location_subtype":"","month":"2019-06"},{"category":"public-order","location_type":"Force","location":{"latitude":"53.483650","street":{"id":726801,"name":"On or near Nameplate Close"},"longitude":"-2.364866"},"context":"","outcome_status":{"category":"Status update unavailable","date":"2019-10"},"persistent_id":"5f48379a0fb9fab5d5a569c14d5623a7c54f5930580eb290644b3cd5d7cf4233","id":74965691,"location_subtype":"","month":"2019-06"},{"category":"public-order","location_type":"Force","location":{"latitude":"53.480416","street":{"id":726725,"name":"On or near Mellor Street"},"longitude":"-2.352286"},"context":"","outcome_status":{"category":"Status update unavailable","date":"2019-10"},"persistent_id":"c5afbc28a98a2672af0f67f7a5f3f4bb3a854b3c358ee04602d9c1ebf2e29f07","id":74977208,"location_subtype":"","month":"2019-06"},{"category":"public-order","location_type":"Force","location":{"latitude":"53.467495","street":{"id":723039,"name":"On or near Parking Area"},"longitude":"-2.347630"},"context":"","outcome_status":{"category":"Unable to prosecute suspect","date":"2019-06"},"persistent_id":"46685d70a3c53d81de8806d4cf897a85637a1dd47f363b702e46d430e2ba4156","id":74970426,"location_subtype":"","month":"2019-06"},{"category":"public-order","location_type":"Force","location":{"latitude":"53.480582","street":{"id":726657,"name":"On or near Lily Street"},"longitude":"-2.365924"},"context":"","outcome_status":{"category":"Unable to prosecute suspect","date":"2019-06"},"persistent_id":"248ab95bebc3e6f32498754dbc276ba97fe5f285f6f29b6d05e889a14fe6a582","id":74974410,"location_subtype":"","month":"2019-06"},{"category":"robbery","location_type":"Force","location":{"latitude":"53.482283","street":{"id":726764,"name":"On or near Cannon Street"},"longitude":"-2.347148"},"context":"","outcome_status":{"category":"Status update unavailable","date":"2019-10"},"persistent_id":"143147bdd59dbde4c75f5aa906c5c1a03722eb3a501e914d127a4e980660e66c","id":74972666,"location_subtype":"","month":"2019-06"},{"category":"robbery","location_type":"Force","location":{"latitude":"53.467652","street":{"id":723057,"name":"On or near Petrol Station"},"longitude":"-2.352497"},"context":"","outcome_status":{"category":"Status update unavailable","date":"2019-10"},"persistent_id":"9ffdc1e697d5d889915c411ae0bd70b0381d0875346cc329a278c0ba929ec220","id":74962661,"location_subtype":"","month":"2019-06"},{"category":"shoplifting","location_type":"Force","location":{"latitude":"53.470267","street":{"id":723044,"name":"On or near Taylor Road"},"longitude":"-2.346583"},"context":"","outcome_status":{"category":"Investigation complete; no suspect identified","date":"2019-06"},"persistent_id":"c1bc1b14a33b4a78d71edc85e1a9f6b338a717b0a0b44a4b2cc8a42e9a4365fc","id":74958288,"location_subtype":"","month":"2019-06"},{"category":"shoplifting","location_type":"Force","location":{"latitude":"53.466179","street":{"id":723059,"name":"On or near Shopping Area"},"longitude":"-2.349005"},"context":"","outcome_status":{"category":"Investigation complete; no suspect identified","date":"2019-06"},"persistent_id":"98824b7d34318390dfa830be6619f8280d028ce553a451293b3efb3c88aed7f9","id":74966939,"location_subtype":"","month":"2019-06"},{"category":"shoplifting","location_type":"Force","location":{"latitude":"53.468126","street":{"id":723042,"name":"On or near Traders Avenue"},"longitude":"-2.343914"},"context":"","outcome_status":{"category":"Status update unavailable","date":"2019-10"},"persistent_id":"dbeff62c4dba01f732a32fb9258f31effea0c0710b28a622ee9d73904c7da78f","id":74965181,"location_subtype":"","month":"2019-06"},{"category":"shoplifting","location_type":"Force","location":{"latitude":"53.483437","street":{"id":726576,"name":"On or near Pedestrian Subway"},"longitude":"-2.336579"},"context":"","outcome_status":{"category":"Court result unavailable","date":"2019-12"},"persistent_id":"d8141115bc004a2c07b341e3d94edaddd863b2d7c24c31b54e53ae55eabd8e60","id":74965645,"location_subtype":"","month":"2019-06"},{"category":"shoplifting","location_type":"Force","location":{"latitude":"53.470267","street":{"id":723044,"name":"On or near Taylor Road"},"longitude":"-2.346583"},"context":"","outcome_status":{"category":"Investigation complete; no suspect identified","date":"2019-06"},"persistent_id":"ac082061f253588e9efc4c73f4dcfbdba2c613e5ac8ebd6f46a6866eaff057b2","id":74963504,"location_subtype":"","month":"2019-06"},{"category":"shoplifting","location_type":"Force","location":{"latitude":"53.466179","street":{"id":723058,"name":"On or near Shopping Area"},"longitude":"-2.349020"},"context":"","outcome_status":{"category":"Investigation complete; no suspect identified","date":"2019-06"},"persistent_id":"28f816380822ad424f4d7dbd58e8881ab475cc2ebcbc2133c66b39778efa3a09","id":74970391,"location_subtype":"","month":"2019-06"},{"category":"shoplifting","location_type":"Force","location":{"latitude":"53.470267","street":{"id":723044,"name":"On or near Taylor Road"},"longitude":"-2.346583"},"context":"","outcome_status":{"category":"Unable to prosecute suspect","date":"2019-06"},"persistent_id":"79e2d2bb3511faa37b3e2c74d0f9cce6fee953eed18011e68c6572af5e8cc4bc","id":74968566,"location_subtype":"","month":"2019-06"},{"category":"shoplifting","location_type":"Force","location":{"latitude":"53.466179","street":{"id":723059,"name":"On or near Shopping Area"},"longitude":"-2.349005"},"context":"","outcome_status":{"category":"Investigation complete; no suspect identified","date":"2019-06"},"persistent_id":"0505bbafc572546e9ed0866cb46a539df6d74d04f5bb299a6752b5dcba6e0afa","id":74977649,"location_subtype":"","month":"2019-06"},{"category":"shoplifting","location_type":"Force","location":{"latitude":"53.478099","street":{"id":726924,"name":"On or near Supermarket"},"longitude":"-2.366551"},"context":"","outcome_status":{"category":"Further investigation is not in the public interest","date":"2019-06"},"persistent_id":"91a85c37561681214a6add7b0629d7e20e035850833cc444719c3a59627045bc","id":74954449,"location_subtype":"","month":"2019-06"},{"category":"shoplifting","location_type":"Force","location":{"latitude":"53.468126","street":{"id":723042,"name":"On or near Traders Avenue"},"longitude":"-2.343914"},"context":"","outcome_status":{"category":"Investigation complete; no suspect identified","date":"2019-06"},"persistent_id":"33b564db430e646ed4ad8fcf32c39f7f4fb476d4f57b78fd3c1c12986a6d10ae","id":74964383,"location_subtype":"","month":"2019-06"},{"category":"shoplifting","location_type":"Force","location":{"latitude":"53.466179","street":{"id":723059,"name":"On or near Shopping Area"},"longitude":"-2.349005"},"context":"","outcome_status":{"category":"Further investigation is not in the public interest","date":"2019-06"},"persistent_id":"0f2a4dcd751e6f9773b6b243a9c907cb3c40b9deb317b9d0faa60f3144f2417d","id":74972166,"location_subtype":"","month":"2019-06"},{"category":"shoplifting","location_type":"Force","location":{"latitude":"53.467963","street":{"id":723041,"name":"On or near Trafford Boulevard"},"longitude":"-2.353493"},"context":"","outcome_status":{"category":"Investigation complete; no suspect identified","date":"2019-06"},"persistent_id":"69255b24d1d589204909bb0d17124d64b3537af796c1606dc4bac155e89983e9","id":74962683,"location_subtype":"","month":"2019-06"},{"category":"shoplifting","location_type":"Force","location":{"latitude":"53.483437","street":{"id":726576,"name":"On or near Pedestrian Subway"},"longitude":"-2.336579"},"context":"","outcome_status":{"category":"Investigation complete; no suspect identified","date":"2019-06"},"persistent_id":"c45afe80d138a99d927f0a35f484ed338251be5679493f14f72fd4672e0dc4a7","id":74969097,"location_subtype":"","month":"2019-06"},{"category":"shoplifting","location_type":"Force","location":{"latitude":"53.467495","street":{"id":723039,"name":"On or near Parking Area"},"longitude":"-2.347630"},"context":"","outcome_status":{"category":"Investigation complete; no suspect identified","date":"2019-06"},"persistent_id":"82308a7896eb97549b6996bb9a2a97c849400832ca08d0f14fcc39d89469e009","id":74958309,"location_subtype":"","month":"2019-06"},{"category":"shoplifting","location_type":"Force","location":{"latitude":"53.466179","street":{"id":723058,"name":"On or near Shopping Area"},"longitude":"-2.349020"},"context":"","outcome_status":{"category":"Investigation complete; no suspect identified","date":"2019-06"},"persistent_id":"25a40eac8aeeb156beed7a25e2cc046276e7d05e4c91e41172be7b66929debf3","id":74965206,"location_subtype":"","month":"2019-06"},{"category":"shoplifting","location_type":"Force","location":{"latitude":"53.483437","street":{"id":726576,"name":"On or near Pedestrian Subway"},"longitude":"-2.336579"},"context":"","outcome_status":{"category":"Investigation complete; no suspect identified","date":"2019-06"},"persistent_id":"6bfaa7ee13e8975ab445952f0f041b0648e481cc0cfe1d1a74cb7da239575618","id":74964881,"location_subtype":"","month":"2019-06"},{"category":"shoplifting","location_type":"Force","location":{"latitude":"53.466179","street":{"id":723058,"name":"On or near Shopping Area"},"longitude":"-2.349020"},"context":"","outcome_status":{"category":"Status update unavailable","date":"2019-10"},"persistent_id":"be977e431966369a2eedcb54230b3938f06d5f7e3ead70116c11fe33c777e1b1","id":74956596,"location_subtype":"","month":"2019-06"},{"category":"shoplifting","location_type":"Force","location":{"latitude":"53.470267","street":{"id":723044,"name":"On or near Taylor Road"},"longitude":"-2.346583"},"context":"","outcome_status":{"category":"Investigation complete; no suspect identified","date":"2019-06"},"persistent_id":"2cbda0033d7e516da94436da42995c117792e480bb19734453ca62d4c0f4542b","id":74958307,"location_subtype":"","month":"2019-06"},{"category":"shoplifting","location_type":"Force","location":{"latitude":"53.467495","street":{"id":723039,"name":"On or near Parking Area"},"longitude":"-2.347630"},"context":"","outcome_status":{"category":"Investigation complete; no suspect identified","date":"2019-06"},"persistent_id":"baebe5138b9764ada6a13ac02e0931c8ecfce5ec71a3b0ac7c7f268850ed17b7","id":74967744,"location_subtype":"","month":"2019-06"},{"category":"theft-from-the-person","location_type":"Force","location":{"latitude":"53.484101","street":{"id":726581,"name":"On or near Parking Area"},"longitude":"-2.336795"},"context":"","outcome_status":{"category":"Investigation complete; no suspect identified","date":"2019-06"},"persistent_id":"cb3b0095743f28767cbb50beb51d0252d0fedae69f45684363f8aa7d26e35d9c","id":74958755,"location_subtype":"","month":"2019-06"},{"category":"theft-from-the-person","location_type":"Force","location":{"latitude":"53.466179","street":{"id":723059,"name":"On or near Shopping Area"},"longitude":"-2.349005"},"context":"","outcome_status":{"category":"Investigation complete; no suspect identified","date":"2019-06"},"persistent_id":"d750a761cf666b35d2d82cb33a885c2de8ddca13ebed85349e194c88cee76055","id":74959213,"location_subtype":"","month":"2019-06"},{"category":"theft-from-the-person","location_type":"Force","location":{"latitude":"53.467652","street":{"id":723057,"name":"On or near Petrol Station"},"longitude":"-2.352497"},"context":"","outcome_status":{"category":"Investigation complete; no suspect identified","date":"2019-06"},"persistent_id":"506ce3f76a884d08eed110309d301606be224e8ce65422677634f3c2d0c93f7b","id":74976692,"location_subtype":"","month":"2019-06"},{"category":"vehicle-crime","location_type":"Force","location":{"latitude":"53.475775","street":{"id":726857,"name":"On or near Stelfox Street"},"longitude":"-2.368188"},"context":"","outcome_status":{"category":"Investigation complete; no suspect identified","date":"2019-06"},"persistent_id":"482ca7c591c8dbfdb2452a8958bd3840a9ddf7984096f018e1b6ce12d1a15897","id":74959716,"location_subtype":"","month":"2019-06"},{"category":"vehicle-crime","location_type":"Force","location":{"latitude":"53.467652","street":{"id":723057,"name":"On or near Petrol Station"},"longitude":"-2.352497"},"context":"","outcome_status":{"category":"Investigation complete; no suspect identified","date":"2019-06"},"persistent_id":"a33ff7a8db4c93d1420d2a81eb354f5f063e0e53d4bbd7b3716c10f41fd18f83","id":74966026,"location_subtype":"","month":"2019-06"},{"category":"vehicle-crime","location_type":"Force","location":{"latitude":"53.487386","street":{"id":726629,"name":"On or near Clarendon Road"},"longitude":"-2.335224"},"context":"","outcome_status":{"category":"Investigation complete; no suspect identified","date":"2019-06"},"persistent_id":"acc99c760fe9b7731a7519c00347ca9efd93e78616cfdbcc1f93140880b4b602","id":74974429,"location_subtype":"","month":"2019-06"},{"category":"vehicle-crime","location_type":"Force","location":{"latitude":"53.485171","street":{"id":726817,"name":"On or near Green Lane"},"longitude":"-2.358369"},"context":"","outcome_status":{"category":"Investigation complete; no suspect identified","date":"2019-06"},"persistent_id":"c5af2dcc4d5450b722699f2ff83fbb0bdf6f2a14fcf96f54419c33f57a858be8","id":74974401,"location_subtype":"","month":"2019-06"},{"category":"vehicle-crime","location_type":"Force","location":{"latitude":"53.487166","street":{"id":726640,"name":"On or near Belgrave Crescent"},"longitude":"-2.336729"},"context":"","outcome_status":{"category":"Investigation complete; no suspect identified","date":"2019-06"},"persistent_id":"8646e9def464a18d5dd7ea31c4aa690683604f540a631414eb686f80e6e5f7ac","id":74973601,"location_subtype":"","month":"2019-06"},{"category":"vehicle-crime","location_type":"Force","location":{"latitude":"53.482848","street":{"id":726611,"name":"On or near Hunterston Avenue"},"longitude":"-2.331692"},"context":"","outcome_status":{"category":"Status update unavailable","date":"2019-10"},"persistent_id":"546f61fe72a1196fe72da7bcf4bf9736d5b433cd64437c7b787daeb6240cc391","id":74973568,"location_subtype":"","month":"2019-06"},{"category":"vehicle-crime","location_type":"Force","location":{"latitude":"53.484314","street":{"id":726726,"name":"On or near Mather Road"},"longitude":"-2.343940"},"context":"","outcome_status":{"category":"Status update unavailable","date":"2019-10"},"persistent_id":"1d3465b86668c8d2d76ae33bf93d0c51b1b6dee9a1826fadb5ec831234354e69","id":74975408,"location_subtype":"","month":"2019-06"},{"category":"vehicle-crime","location_type":"Force","location":{"latitude":"53.467495","street":{"id":723039,"name":"On or near Parking Area"},"longitude":"-2.347630"},"context":"","outcome_status":{"category":"Investigation complete; no suspect identified","date":"2019-06"},"persistent_id":"a192fb30a2a9dbe029a6f89208dd6bec0110db7aa5cad355f212ab205f42e305","id":74958291,"location_subtype":"","month":"2019-06"},{"category":"vehicle-crime","location_type":"Force","location":{"latitude":"53.468375","street":{"id":710181,"name":"On or near Trafford Boulevard"},"longitude":"-2.354175"},"context":"","outcome_status":{"category":"Investigation complete; no suspect identified","date":"2019-06"},"persistent_id":"c6f525b6ee1966d9f993b3208c3d511c6495fc662592675323bd9b777cf7c4c2","id":74975743,"location_subtype":"","month":"2019-06"},{"category":"vehicle-crime","location_type":"Force","location":{"latitude":"53.490697","street":{"id":728295,"name":"On or near Monton Mill Gardens"},"longitude":"-2.358882"},"context":"","outcome_status":{"category":"Investigation complete; no suspect identified","date":"2019-06"},"persistent_id":"11e53be5d2cf76701d133d6ebbcc7918e5865f0b37465bfca554bd45c2c96035","id":74958768,"location_subtype":"","month":"2019-06"},{"category":"vehicle-crime","location_type":"Force","location":{"latitude":"53.491627","street":{"id":728261,"name":"On or near Highfield Drive"},"longitude":"-2.351640"},"context":"","outcome_status":{"category":"Status update unavailable","date":"2019-10"},"persistent_id":"c512ce531f2d197d905741ae1cd91cd9c44fbd8519f1701e1456a649938ad1c8","id":74972701,"location_subtype":"","month":"2019-06"},{"category":"vehicle-crime","location_type":"Force","location":{"latitude":"53.490697","street":{"id":728295,"name":"On or near Monton Mill Gardens"},"longitude":"-2.358882"},"context":"","outcome_status":{"category":"Investigation complete; no suspect identified","date":"2019-06"},"persistent_id":"31d9d79144a5c05ad466192ee466d651d3b17d37341b37775aa868ea5552c0c1","id":74969155,"location_subtype":"","month":"2019-06"},{"category":"vehicle-crime","location_type":"Force","location":{"latitude":"53.481960","street":{"id":726806,"name":"On or near Lincoln Street"},"longitude":"-2.362033"},"context":"","outcome_status":{"category":"Status update unavailable","date":"2019-10"},"persistent_id":"567f5fe6f4bee30a4af87c8b2d47a17a7da3c09ece49025c946409b74a8335d0","id":74977221,"location_subtype":"","month":"2019-06"},{"category":"vehicle-crime","location_type":"Force","location":{"latitude":"53.487157","street":{"id":726578,"name":"On or near Pedestrian Subway"},"longitude":"-2.330414"},"context":"","outcome_status":{"category":"Investigation complete; no suspect identified","date":"2019-06"},"persistent_id":"ec54a6865d112518b57fb4336165078588cf3ca0825b45d3639bfa7be594ffdf","id":74978241,"location_subtype":"","month":"2019-06"},{"category":"vehicle-crime","location_type":"Force","location":{"latitude":"53.489723","street":{"id":728292,"name":"On or near Nansen Avenue"},"longitude":"-2.357156"},"context":"","outcome_status":{"category":"Investigation complete; no suspect identified","date":"2019-06"},"persistent_id":"ff2ebad519bc50282cb1b062331d09354e173e11c832b183d9c4b15749431f41","id":74957918,"location_subtype":"","month":"2019-06"},{"category":"vehicle-crime","location_type":"Force","location":{"latitude":"53.483501","street":{"id":726719,"name":"On or near Othello Drive"},"longitude":"-2.351739"},"context":"","outcome_status":{"category":"Investigation complete; no suspect identified","date":"2019-06"},"persistent_id":"311b71d73fb7cd4fc94703d680edd3908137f491862011c762a95793bac11c18","id":74968162,"location_subtype":"","month":"2019-06"},{"category":"vehicle-crime","location_type":"Force","location":{"latitude":"53.476789","street":{"id":726853,"name":"On or near Parking Area"},"longitude":"-2.368890"},"context":"","outcome_status":{"category":"Investigation complete; no suspect identified","date":"2019-06"},"persistent_id":"977f3b4b8f12286f51899f27b340ad6e92f111ee404a4ad9d55b168d150f49cc","id":74978160,"location_subtype":"","month":"2019-06"},{"category":"vehicle-crime","location_type":"Force","location":{"latitude":"53.487992","street":{"id":726723,"name":"On or near Monton Avenue"},"longitude":"-2.346727"},"context":"","outcome_status":{"category":"Investigation complete; no suspect identified","date":"2019-06"},"persistent_id":"895d7e8c82cd8436742af35729f0ed5cba0110c7187be297ffb4eba35b9c7097","id":74958822,"location_subtype":"","month":"2019-06"},{"category":"vehicle-crime","location_type":"Force","location":{"latitude":"53.468126","street":{"id":723042,"name":"On or near Traders Avenue"},"longitude":"-2.343914"},"context":"","outcome_status":{"category":"Investigation complete; no suspect identified","date":"2019-06"},"persistent_id":"51694a8ab2cde510b7c1cc6351039fa465bae3349c0a7e2b7751754989ec9f98","id":74954812,"location_subtype":"","month":"2019-06"},{"category":"vehicle-crime","location_type":"Force","location":{"latitude":"53.468126","street":{"id":723042,"name":"On or near Traders Avenue"},"longitude":"-2.343914"},"context":"","outcome_status":{"category":"Investigation complete; no suspect identified","date":"2019-06"},"persistent_id":"af9580eae87a9765ad57ef673824702eca8119ef0ea9038e03c0261783ea78a3","id":74956582,"location_subtype":"","month":"2019-06"},{"category":"vehicle-crime","location_type":"Force","location":{"latitude":"53.477742","street":{"id":726730,"name":"On or near Kirkman Avenue"},"longitude":"-2.356844"},"context":"","outcome_status":{"category":"Investigation complete; no suspect identified","date":"2019-06"},"persistent_id":"f62a5a68e2b5e4a270b380260a7651d789c3c7eb58c90c45a3c4a8668c84b523","id":74977206,"location_subtype":"","month":"2019-06"},{"category":"vehicle-crime","location_type":"Force","location":{"latitude":"53.483653","street":{"id":726722,"name":"On or near Nelson Street"},"longitude":"-2.355056"},"context":"","outcome_status":{"category":"Investigation complete; no suspect identified","date":"2019-06"},