[{"category":"anti-social-behaviour","location_type":"Force","location":{"latitude":"53.485788","street":{"id":726659,"name":"On or near Kearsley Street"},"longitude":"-2.365411"},"context":"","outcome_status":null,"persistent_id":"","id":73946639,"location_subtype":"","month":"2019-05"},{"category":"anti-social-behaviour","location_type":"Force","location":{"latitude":"53.483833","street":{"id":726708,"name":"On or near Richardson Road"},"longitude":"-2.345608"},"context":"","outcome_status":null,"persistent_id":"","id":73946601,"location_subtype":"","month":"2019-05"},{"category":"anti-social-behaviour","location_type":"Force","location":{"latitude":"53.483890","street":{"id":726745,"name":"On or near Franklin Street"},"longitude":"-2.353882"},"context":"","outcome_status":null,"persistent_id":"","id":73946578,"location_subtype":"","month":"2019-05"},{"category":"anti-social-behaviour","location_type":"Force","location":{"latitude":"53.489456","street":{"id":728243,"name":"On or near Scott Avenue"},"longitude":"-2.356295"},"context":"","outcome_status":null,"persistent_id":"","id":73946570,"location_subtype":"","month":"2019-05"},{"category":"anti-social-behaviour","location_type":"Force","location":{"latitude":"53.467998","street":{"id":723046,"name":"On or near South Avenue"},"longitude":"-2.344832"},"context":"","outcome_status":null,"persistent_id":"","id":73953662,"location_subtype":"","month":"2019-05"},{"category":"anti-social-behaviour","location_type":"Force","location":{"latitude":"53.487466","street":{"id":726591,"name":"On or near Trafalgar Road"},"longitude":"-2.329030"},"context":"","outcome_status":null,"persistent_id":"","id":73946566,"location_subtype":"","month":"2019-05"},{"category":"anti-social-behaviour","location_type":"Force","location":{"latitude":"53.482884","street":{"id":726632,"name":"On or near Church Street"},"longitude":"-2.338036"},"context":"","outcome_status":null,"persistent_id":"","id":73946800,"location_subtype":"","month":"2019-05"},{"category":"anti-social-behaviour","location_type":"Force","location":{"latitude":"53.467998","street":{"id":723046,"name":"On or near South Avenue"},"longitude":"-2.344832"},"context":"","outcome_status":null,"persistent_id":"","id":73953900,"location_subtype":"","month":"2019-05"},{"category":"anti-social-behaviour","location_type":"Force","location":{"latitude":"53.474448","street":{"id":723031,"name":"On or near Higson Avenue"},"longitude":"-2.358143"},"context":"","outcome_status":null,"persistent_id":"","id":73946845,"location_subtype":"","month":"2019-05"},{"category":"anti-social-behaviour","location_type":"Force","location":{"latitude":"53.468375","street":{"id":710181,"name":"On or near Trafford Boulevard"},"longitude":"-2.354175"},"context":"","outcome_status":null,"persistent_id":"","id":73953637,"location_subtype":"","month":"2019-05"},{"category":"anti-social-behaviour","location_type":"Force","location":{"latitude":"53.482194","street":{"id":726793,"name":"On or near Sarah Street"},"longitude":"-2.364974"},"context":"","outcome_status":null,"persistent_id":"","id":73946766,"location_subtype":"","month":"2019-05"},{"category":"anti-social-behaviour","location_type":"Force","location":{"latitude":"53.484240","street":{"id":726570,"name":"On or near Canterbury Gardens"},"longitude":"-2.325524"},"context":"","outcome_status":null,"persistent_id":"","id":73946761,"location_subtype":"","month":"2019-05"},{"category":"anti-social-behaviour","location_type":"Force","location":{"latitude":"53.478082","street":{"id":726826,"name":"On or near Darwell Avenue"},"longitude":"-2.357254"},"context":"","outcome_status":null,"persistent_id":"","id":73946757,"location_subtype":"","month":"2019-05"},{"category":"anti-social-behaviour","location_type":"Force","location":{"latitude":"53.482564","street":{"id":726756,"name":"On or near Dickens Road"},"longitude":"-2.349290"},"context":"","outcome_status":null,"persistent_id":"","id":73946875,"location_subtype":"","month":"2019-05"},{"category":"anti-social-behaviour","location_type":"Force","location":{"latitude":"53.467998","street":{"id":723046,"name":"On or near South Avenue"},"longitude":"-2.344832"},"context":"","outcome_status":null,"persistent_id":"","id":73953974,"location_subtype":"","month":"2019-05"},{"category":"anti-social-behaviour","location_type":"Force","location":{"latitude":"53.483088","street":{"id":726700,"name":"On or near Vane Street"},"longitude":"-2.354388"},"context":"","outcome_status":null,"persistent_id":"","id":73946880,"location_subtype":"","month":"2019-05"},{"category":"anti-social-behaviour","location_type":"Force","location":{"latitude":"53.485866","street":{"id":726832,"name":"On or near Bromsgrove Avenue"},"longitude":"-2.363317"},"context":"","outcome_status":null,"persistent_id":"","id":73946750,"location_subtype":"","month":"2019-05"},{"category":"anti-social-behaviour","location_type":"Force","location":{"latitude":"53.485590","street":{"id":726899,"name":"On or near Colborne Avenue"},"longitude":"-2.368303"},"context":"","outcome_status":null,"persistent_id":"","id":73946742,"location_subtype":"","month":"2019-05"},{"category":"anti-social-behaviour","location_type":"Force","location":{"latitude":"53.486428","street":{"id":726897,"name":"On or near Dover Street"},"longitude":"-2.367587"},"context":"","outcome_status":null,"persistent_id":"","id":73946726,"location_subtype":"","month":"2019-05"},{"category":"anti-social-behaviour","location_type":"Force","location":{"latitude":"53.482309","street":{"id":726608,"name":"On or near Kearton Drive"},"longitude":"-2.331703"},"context":"","outcome_status":null,"persistent_id":"","id":73946680,"location_subtype":"","month":"2019-05"},{"category":"anti-social-behaviour","location_type":"Force","location":{"latitude":"53.478859","street":{"id":726810,"name":"On or near John Street"},"longitude":"-2.364930"},"context":"","outcome_status":null,"persistent_id":"","id":73946674,"location_subtype":"","month":"2019-05"},{"category":"anti-social-behaviour","location_type":"Force","location":{"latitude":"53.478360","street":{"id":726804,"name":"On or near Marchers Mews"},"longitude":"-2.363555"},"context":"","outcome_status":null,"persistent_id":"","id":73946898,"location_subtype":"","month":"2019-05"},{"category":"anti-social-behaviour","location_type":"Force","location":{"latitude":"53.476292","street":{"id":726687,"name":"On or near Fountain Street"},"longitude":"-2.351725"},"context":"","outcome_status":null,"persistent_id":"","id":73946903,"location_subtype":"","month":"2019-05"},{"category":"anti-social-behaviour","location_type":"Force","location":{"latitude":"53.467495","street":{"id":723039,"name":"On or near Parking Area"},"longitude":"-2.347630"},"context":"","outcome_status":null,"persistent_id":"","id":73953925,"location_subtype":"","month":"2019-05"},{"category":"anti-social-behaviour","location_type":"Force","location":{"latitude":"53.485590","street":{"id":726899,"name":"On or near Colborne Avenue"},"longitude":"-2.368303"},"context":"","outcome_status":null,"persistent_id":"","id":73946843,"location_subtype":"","month":"2019-05"},{"category":"anti-social-behaviour","location_type":"Force","location":{"latitude":"53.483341","street":{"id":726631,"name":"On or near Church Street"},"longitude":"-2.341732"},"context":"","outcome_status":null,"persistent_id":"","id":73946672,"location_subtype":"","month":"2019-05"},{"category":"anti-social-behaviour","location_type":"Force","location":{"latitude":"53.479160","street":{"id":726771,"name":"On or near Barlow Street"},"longitude":"-2.354400"},"context":"","outcome_status":null,"persistent_id":"","id":73946906,"location_subtype":"","month":"2019-05"},{"category":"anti-social-behaviour","location_type":"Force","location":{"latitude":"53.470267","street":{"id":723044,"name":"On or near Taylor Road"},"longitude":"-2.346583"},"context":"","outcome_status":null,"persistent_id":"","id":73953882,"location_subtype":"","month":"2019-05"},{"category":"anti-social-behaviour","location_type":"Force","location":{"latitude":"53.481884","street":{"id":726782,"name":"On or near Winifred Street"},"longitude":"-2.363314"},"context":"","outcome_status":null,"persistent_id":"","id":73946412,"location_subtype":"","month":"2019-05"},{"category":"anti-social-behaviour","location_type":"Force","location":{"latitude":"53.480734","street":{"id":726610,"name":"On or near Irwell Grove"},"longitude":"-2.338727"},"context":"","outcome_status":null,"persistent_id":"","id":73946455,"location_subtype":"","month":"2019-05"},{"category":"anti-social-behaviour","location_type":"Force","location":{"latitude":"53.484989","street":{"id":726634,"name":"On or near Church Road"},"longitude":"-2.334361"},"context":"","outcome_status":null,"persistent_id":"","id":73946461,"location_subtype":"","month":"2019-05"},{"category":"anti-social-behaviour","location_type":"Force","location":{"latitude":"53.488993","street":{"id":728306,"name":"On or near Bray Avenue"},"longitude":"-2.363661"},"context":"","outcome_status":null,"persistent_id":"","id":73946663,"location_subtype":"","month":"2019-05"},{"category":"anti-social-behaviour","location_type":"Force","location":{"latitude":"53.484212","street":{"id":726595,"name":"On or near St Mary's Road"},"longitude":"-2.332606"},"context":"","outcome_status":null,"persistent_id":"","id":73946475,"location_subtype":"","month":"2019-05"},{"category":"anti-social-behaviour","location_type":"Force","location":{"latitude":"53.474974","street":{"id":723049,"name":"On or near Redclyffe Road"},"longitude":"-2.353808"},"context":"","outcome_status":null,"persistent_id":"","id":73946479,"location_subtype":"","month":"2019-05"},{"category":"anti-social-behaviour","location_type":"Force","location":{"latitude":"53.483218","street":{"id":726599,"name":"On or near Regent Street"},"longitude":"-2.334256"},"context":"","outcome_status":null,"persistent_id":"","id":73946826,"location_subtype":"","month":"2019-05"},{"category":"anti-social-behaviour","location_type":"Force","location":{"latitude":"53.484212","street":{"id":726595,"name":"On or near St Mary's Road"},"longitude":"-2.332606"},"context":"","outcome_status":null,"persistent_id":"","id":73946481,"location_subtype":"","month":"2019-05"},{"category":"anti-social-behaviour","location_type":"Force","location":{"latitude":"53.492051","street":{"id":728248,"name":"On or near Parrin Lane"},"longitude":"-2.356995"},"context":"","outcome_status":null,"persistent_id":"","id":73946511,"location_subtype":"","month":"2019-05"},{"category":"anti-social-behaviour","location_type":"Force","location":{"latitude":"53.479329","street":{"id":726781,"name":"On or near Woodfield Grove"},"longitude":"-2.361227"},"context":"","outcome_status":null,"persistent_id":"","id":73946661,"location_subtype":"","month":"2019-05"},{"category":"anti-social-behaviour","location_type":"Force","location":{"latitude":"53.476423","street":{"id":726661,"name":"On or near Winster Road"},"longitude":"-2.364939"},"context":"","outcome_status":null,"persistent_id":"","id":73946657,"location_subtype":"","month":"2019-05"},{"category":"anti-social-behaviour","location_type":"Force","location":{"latitude":"53.483341","street":{"id":726631,"name":"On or near Church Street"},"longitude":"-2.341732"},"context":"","outcome_status":null,"persistent_id":"","id":73946651,"location_subtype":"","month":"2019-05"},{"category":"anti-social-behaviour","location_type":"Force","location":{"latitude":"53.484240","street":{"id":726570,"name":"On or near Canterbury Gardens"},"longitude":"-2.325524"},"context":"","outcome_status":null,"persistent_id":"","id":73946516,"location_subtype":"","month":"2019-05"},{"category":"anti-social-behaviour","location_type":"Force","location":{"latitude":"53.480243","street":{"id":726896,"name":"On or near Evans Road"},"longitude":"-2.370864"},"context":"","outcome_status":null,"persistent_id":"","id":73946518,"location_subtype":"","month":"2019-05"},{"category":"anti-social-behaviour","location_type":"Force","location":{"latitude":"53.483943","street":{"id":726626,"name":"On or near College Road"},"longitude":"-2.332152"},"context":"","outcome_status":null,"persistent_id":"","id":73946553,"location_subtype":"","month":"2019-05"},{"category":"anti-social-behaviour","location_type":"Force","location":{"latitude":"53.483437","street":{"id":726576,"name":"On or near Pedestrian Subway"},"longitude":"-2.336579"},"context":"","outcome_status":null,"persistent_id":"","id":73946557,"location_subtype":"","month":"2019-05"},{"category":"anti-social-behaviour","location_type":"Force","location":{"latitude":"53.467652","street":{"id":723057,"name":"On or near Petrol Station"},"longitude":"-2.352497"},"context":"","outcome_status":null,"persistent_id":"","id":73954220,"location_subtype":"","month":"2019-05"},{"category":"anti-social-behaviour","location_type":"Force","location":{"latitude":"53.475960","street":{"id":726856,"name":"On or near Thorp Street"},"longitude":"-2.369531"},"context":"","outcome_status":null,"persistent_id":"","id":73946645,"location_subtype":"","month":"2019-05"},{"category":"anti-social-behaviour","location_type":"Force","location":{"latitude":"53.480841","street":{"id":726751,"name":"On or near Ellesmere Street"},"longitude":"-2.351431"},"context":"","outcome_status":null,"persistent_id":"","id":73946824,"location_subtype":"","month":"2019-05"},{"category":"anti-social-behaviour","location_type":"Force","location":{"latitude":"53.488993","street":{"id":728306,"name":"On or near Bray Avenue"},"longitude":"-2.363661"},"context":"","outcome_status":null,"persistent_id":"","id":73946794,"location_subtype":"","month":"2019-05"},{"category":"anti-social-behaviour","location_type":"Force","location":{"latitude":"53.487992","street":{"id":726723,"name":"On or near Monton Avenue"},"longitude":"-2.346727"},"context":"","outcome_status":null,"persistent_id":"","id":73946802,"location_subtype":"","month":"2019-05"},{"category":"bicycle-theft","location_type":"Force","location":{"latitude":"53.467652","street":{"id":723057,"name":"On or near Petrol Station"},"longitude":"-2.352497"},"context":"","outcome_status":{"category":"Investigation complete; no suspect identified","date":"2019-05"},"persistent_id":"b1febee6d8b63381ea0b2d5cac74d5420b7572a53da8f65b94efd1d1723d5cf7","id":73937951,"location_subtype":"","month":"2019-05"},{"category":"bicycle-theft","location_type":"Force","location":{"latitude":"53.473076","street":{"id":723030,"name":"On or near Langland Drive"},"longitude":"-2.360300"},"context":"","outcome_status":{"category":"Investigation complete; no suspect identified","date":"2019-05"},"persistent_id":"1c5a83b766feb2b931e845d5c77f64893dc5a18d08b3bd4c4c76e22d694e1d49","id":73925734,"location_subtype":"","month":"2019-05"},{"category":"bicycle-theft","location_type":"Force","location":{"latitude":"53.468375","street":{"id":710181,"name":"On or near Trafford Boulevard"},"longitude":"-2.354175"},"context":"","outcome_status":{"category":"Investigation complete; no suspect identified","date":"2019-05"},"persistent_id":"ce8369cc79293bc1dab648171f4b7ee7315152df0d3e19ba340aaba37d0effe3","id":73916980,"location_subtype":"","month":"2019-05"},{"category":"bicycle-theft","location_type":"Force","location":{"latitude":"53.467652","street":{"id":723057,"name":"On or near Petrol Station"},"longitude":"-2.352497"},"context":"","outcome_status":{"category":"Investigation complete; no suspect identified","date":"2019-06"},"persistent_id":"7cf6fc53e08b28f0cecb8b6fb07e99a0faa5df0d41f29f567316c1f2ed088e45","id":73938770,"location_subtype":"","month":"2019-05"},{"category":"bicycle-theft","location_type":"Force","location":{"latitude":"53.482309","street":{"id":726608,"name":"On or near Kearton Drive"},"longitude":"-2.331703"},"context":"","outcome_status":{"category":"Investigation complete; no suspect identified","date":"2019-05"},"persistent_id":"ef4b211e26dbe3896e6fc452b9300de3b64fdb6746d25917aa6204f73c5ccb81","id":73926825,"location_subtype":"","month":"2019-05"},{"category":"bicycle-theft","location_type":"Force","location":{"latitude":"53.482309","street":{"id":726608,"name":"On or near Kearton Drive"},"longitude":"-2.331703"},"context":"","outcome_status":{"category":"Investigation complete; no suspect identified","date":"2019-05"},"persistent_id":"81aa2d165d8a9da1fa461a01ba89e8ce0c8f6b3e4f9e5710393b5596d8554988","id":73894165,"location_subtype":"","month":"2019-05"},{"category":"bicycle-theft","location_type":"Force","location":{"latitude":"53.493055","street":{"id":728253,"name":"On or near Monton Green"},"longitude":"-2.351893"},"context":"","outcome_status":{"category":"Investigation complete; no suspect identified","date":"2019-05"},"persistent_id":"55abcc2e999488a3d651609e749c87484abf6f338e135e0a27038e9d4477404a","id":73896570,"location_subtype":"","month":"2019-05"},{"category":"bicycle-theft","location_type":"Force","location":{"latitude":"53.482194","street":{"id":726793,"name":"On or near Sarah Street"},"longitude":"-2.364974"},"context":"","outcome_status":{"category":"Status update unavailable","date":"2019-09"},"persistent_id":"6a6808a90e00514deeeeb351d1bbc7b05fc7bd44bb5963bd533e640bcd05c555","id":73930300,"location_subtype":"","month":"2019-05"},{"category":"bicycle-theft","location_type":"Force","location":{"latitude":"53.473076","street":{"id":723030,"name":"On or near Langland Drive"},"longitude":"-2.360300"},"context":"","outcome_status":{"category":"Investigation complete; no suspect identified","date":"2019-05"},"persistent_id":"03f1dc3e3eeea693a73366d62e6e29c59d8c4c09b3dac847d541e93bbc24bdef","id":73936215,"location_subtype":"","month":"2019-05"},{"category":"bicycle-theft","location_type":"Force","location":{"latitude":"53.467652","street":{"id":723057,"name":"On or near Petrol Station"},"longitude":"-2.352497"},"context":"","outcome_status":{"category":"Investigation complete; no suspect identified","date":"2019-05"},"persistent_id":"f70dc0283f213b9e58cea59c0e317ecf7058b72fc333f883d22fb9d2893a70a9","id":73936218,"location_subtype":"","month":"2019-05"},{"category":"bicycle-theft","location_type":"Force","location":{"latitude":"53.473076","street":{"id":723030,"name":"On or near Langland Drive"},"longitude":"-2.360300"},"context":"","outcome_status":{"category":"Investigation complete; no suspect identified","date":"2019-05"},"persistent_id":"514821c7cf11a4a133398f7d874af52fc35b74ac650e7ff6c7cab0d52a623fc2","id":73936234,"location_subtype":"","month":"2019-05"},{"category":"bicycle-theft","location_type":"Force","location":{"latitude":"53.467652","street":{"id":723057,"name":"On or near Petrol Station"},"longitude":"-2.352497"},"context":"","outcome_status":{"category":"Investigation complete; no suspect identified","date":"2019-05"},"persistent_id":"b7aa10fa699b250cf9bb69b896de105c0eace5edbb36367176ccff6dc7eb4c60","id":73938756,"location_subtype":"","month":"2019-05"},{"category":"bicycle-theft","location_type":"Force","location":{"latitude":"53.483540","street":{"id":726617,"name":"On or near Fox Street"},"longitude":"-2.334877"},"context":"","outcome_status":{"category":"Investigation complete; no suspect identified","date":"2019-06"},"persistent_id":"002af349d5d281a799abfb02e92e4f00eda396494e4ffe5d129995b4aac54b44","id":73925137,"location_subtype":"","month":"2019-05"},{"category":"bicycle-theft","location_type":"Force","location":{"latitude":"53.467652","street":{"id":723057,"name":"On or near Petrol Station"},"longitude":"-2.352497"},"context":"","outcome_status":{"category":"Investigation complete; no suspect identified","date":"2019-05"},"persistent_id":"832c6f98b4a24260a9d2549b4799916386e3e9d85d820522da9b3238f2230714","id":73939624,"location_subtype":"","month":"2019-05"},{"category":"bicycle-theft","location_type":"Force","location":{"latitude":"53.482194","street":{"id":726793,"name":"On or near Sarah Street"},"longitude":"-2.364974"},"context":"","outcome_status":{"category":"Investigation complete; no suspect identified","date":"2019-05"},"persistent_id":"420e454d17c60f4730a5d4310ce14396ea642bd8866030167982b4de23a457b5","id":73930332,"location_subtype":"","month":"2019-05"},{"category":"bicycle-theft","location_type":"Force","location":{"latitude":"53.471069","street":{"id":723048,"name":"On or near Robson Avenue"},"longitude":"-2.345972"},"context":"","outcome_status":{"category":"Investigation complete; no suspect identified","date":"2019-05"},"persistent_id":"b09fd3ae6463bd0206ad5e35547d624c0c860e5d584926ccafa5f791fbd5d1ac","id":73911265,"location_subtype":"","month":"2019-05"},{"category":"burglary","location_type":"Force","location":{"latitude":"53.475620","street":{"id":726664,"name":"On or near Peardale Close"},"longitude":"-2.359900"},"context":"","outcome_status":{"category":"Investigation complete; no suspect identified","date":"2019-06"},"persistent_id":"c408ed0fadc1e76513b6c6d01fc546394ac4b8bfcbbadaacaf050ab9b27a13e1","id":73942155,"location_subtype":"","month":"2019-05"},{"category":"burglary","location_type":"Force","location":{"latitude":"53.479451","street":{"id":726606,"name":"On or near Lankro Way"},"longitude":"-2.334528"},"context":"","outcome_status":{"category":"Investigation complete; no suspect identified","date":"2019-05"},"persistent_id":"de05fb751cb86d813dcd3d6566c0d81592414d29701833088a16a744de87836b","id":73929300,"location_subtype":"","month":"2019-05"},{"category":"burglary","location_type":"Force","location":{"latitude":"53.481219","street":{"id":726797,"name":"On or near Owen Street"},"longitude":"-2.363293"},"context":"","outcome_status":{"category":"Investigation complete; no suspect identified","date":"2019-06"},"persistent_id":"ac294c4cb3c43b64b86e48ff8fcbdd4130e85c7f7abc06b97fef13eef4745027","id":73938409,"location_subtype":"","month":"2019-05"},{"category":"burglary","location_type":"Force","location":{"latitude":"53.489497","street":{"id":728258,"name":"On or near Lansdowne Road"},"longitude":"-2.351382"},"context":"","outcome_status":{"category":"Investigation complete; no suspect identified","date":"2019-05"},"persistent_id":"9f228aa61b7f53868202e7bce38e9ae5ecdc45c683a00e05874ad4c41fb6927c","id":73938453,"location_subtype":"","month":"2019-05"},{"category":"burglary","location_type":"Force","location":{"latitude":"53.483134","street":{"id":726564,"name":"On or near Pilgrims Way"},"longitude":"-2.325726"},"context":"","outcome_status":{"category":"Investigation complete; no suspect identified","date":"2019-06"},"persistent_id":"a3fd78ed02f5542a65e9bcf7965fb80045a61e39b2442aef167551bf10965efb","id":73898744,"location_subtype":"","month":"2019-05"},{"category":"burglary","location_type":"Force","location":{"latitude":"53.491587","street":{"id":728266,"name":"On or near Gordon Road"},"longitude":"-2.349877"},"context":"","outcome_status":{"category":"Investigation complete; no suspect identified","date":"2019-05"},"persistent_id":"4eea8edde06253cfce1960fda5d4f2b704aee14231e4759b5dd29fb3798366bb","id":73938402,"location_subtype":"","month":"2019-05"},{"category":"burglary","location_type":"Force","location":{"latitude":"53.468375","street":{"id":710181,"name":"On or near Trafford Boulevard"},"longitude":"-2.354175"},"context":"","outcome_status":{"category":"Investigation complete; no suspect identified","date":"2019-06"},"persistent_id":"b8e20c3eb146d6388880ab2bad76c43b1f65271bf19a3def2aeda841b30f66b9","id":73942948,"location_subtype":"","month":"2019-05"},{"category":"burglary","location_type":"Force","location":{"latitude":"53.480569","street":{"id":726721,"name":"On or near Oak Street"},"longitude":"-2.355241"},"context":"","outcome_status":{"category":"Investigation complete; no suspect identified","date":"2019-05"},"persistent_id":"662e5e1b69f409ee3b4d0ec6a96a9761a348436dd06cf06f7ca2514cf87967a7","id":73894284,"location_subtype":"","month":"2019-05"},{"category":"burglary","location_type":"Force","location":{"latitude":"53.486861","street":{"id":726603,"name":"On or near Monks Hall Grove"},"longitude":"-2.339921"},"context":"","outcome_status":{"category":"Investigation complete; no suspect identified","date":"2019-06"},"persistent_id":"b31a7f86f3aec7072be27e951e6555cc9abcbab56c016ef8267f92e1a2e5c794","id":73939224,"location_subtype":"","month":"2019-05"},{"category":"burglary","location_type":"Force","location":{"latitude":"53.487992","street":{"id":726723,"name":"On or near Monton Avenue"},"longitude":"-2.346727"},"context":"","outcome_status":{"category":"Investigation complete; no suspect identified","date":"2019-06"},"persistent_id":"813b6f4d07f797f3565ac6707ff6bdf0f0e9da0fee6b771dbf627dc89f16063a","id":73935851,"location_subtype":"","month":"2019-05"},{"category":"burglary","location_type":"Force","location":{"latitude":"53.491438","street":{"id":728262,"name":"On or near Hawthorn Avenue"},"longitude":"-2.348594"},"context":"","outcome_status":{"category":"Investigation complete; no suspect identified","date":"2019-05"},"persistent_id":"7bca3fb78344d5d39d470e86ace0ffc568d42e0e9716cfa0b12544782d8ac7e5","id":73926795,"location_subtype":"","month":"2019-05"},{"category":"burglary","location_type":"Force","location":{"latitude":"53.482848","street":{"id":726611,"name":"On or near Hunterston Avenue"},"longitude":"-2.331692"},"context":"","outcome_status":{"category":"Investigation complete; no suspect identified","date":"2019-05"},"persistent_id":"4ceb3a8e9649ecf270f3573a41438534b43e3ff2de44cd5d2d5168d18c6c0b26","id":73917479,"location_subtype":"","month":"2019-05"},{"category":"burglary","location_type":"Force","location":{"latitude":"53.492067","street":{"id":728254,"name":"On or near Monton Green"},"longitude":"-2.354749"},"context":"","outcome_status":{"category":"Investigation complete; no suspect identified","date":"2019-06"},"persistent_id":"fa432348f7b4c3a0f99b7e812e36d2c09bc38acf0e002f3a17d5c5c470927a56","id":73915832,"location_subtype":"","month":"2019-05"},{"category":"burglary","location_type":"Force","location":{"latitude":"53.470892","street":{"id":723068,"name":"On or near Clarence Avenue"},"longitude":"-2.335365"},"context":"","outcome_status":{"category":"Investigation complete; no suspect identified","date":"2019-06"},"persistent_id":"a01a27ab6db9ad6b272fad40b2ae0971fd60524e55da40d71316f33fdd88d036","id":73925817,"location_subtype":"","month":"2019-05"},{"category":"burglary","location_type":"Force","location":{"latitude":"53.486614","street":{"id":726643,"name":"On or near Albert Road"},"longitude":"-2.338262"},"context":"","outcome_status":{"category":"Investigation complete; no suspect identified","date":"2019-05"},"persistent_id":"f143e54d565d687983bdeeb491129a886f1c439aaea67a713afbbd78a5775712","id":73940458,"location_subtype":"","month":"2019-05"},{"category":"burglary","location_type":"Force","location":{"latitude":"53.483961","street":{"id":726814,"name":"On or near Hall Bank"},"longitude":"-2.360332"},"context":"","outcome_status":{"category":"Investigation complete; no suspect identified","date":"2019-05"},"persistent_id":"21a81d3b4609cef19a30d2533ba9dca08599a3d2822f872aed2b5367ec933f31","id":73940521,"location_subtype":"","month":"2019-05"},{"category":"burglary","location_type":"Force","location":{"latitude":"53.466179","street":{"id":723058,"name":"On or near Shopping Area"},"longitude":"-2.349020"},"context":"","outcome_status":{"category":"Investigation complete; no suspect identified","date":"2019-05"},"persistent_id":"99ef0ec886deb4df01948f573dba1ad2ee408c521421ba9236248e83c09eede3","id":73929319,"location_subtype":"","month":"2019-05"},{"category":"burglary","location_type":"Force","location":{"latitude":"53.481884","street":{"id":726782,"name":"On or near Winifred Street"},"longitude":"-2.363314"},"context":"","outcome_status":{"category":"Investigation complete; no suspect identified","date":"2019-05"},"persistent_id":"2538d2583f27ff9a637ed638c05c2c96beaf5eb23d290689580e14d0151a7396","id":73925197,"location_subtype":"","month":"2019-05"},{"category":"burglary","location_type":"Force","location":{"latitude":"53.479865","street":{"id":726735,"name":"On or near Ivy Street"},"longitude":"-2.353216"},"context":"","outcome_status":{"category":"Unable to prosecute suspect","date":"2019-06"},"persistent_id":"8f012e57c3641d3b8fe082f8ebe3b46eb1ba75ca47832c8642c95b26ef8d4d1a","id":73939263,"location_subtype":"","month":"2019-05"},{"category":"burglary","location_type":"Force","location":{"latitude":"53.486886","street":{"id":726588,"name":"On or near Vicars Street"},"longitude":"-2.334104"},"context":"","outcome_status":{"category":"Investigation complete; no suspect identified","date":"2019-05"},"persistent_id":"17d44916ed45bd8f80bbe3ad72e93641fda4d7650a936f39df0c833aade889c1","id":73915824,"location_subtype":"","month":"2019-05"},{"category":"burglary","location_type":"Force","location":{"latitude":"53.483437","street":{"id":726576,"name":"On or near Pedestrian Subway"},"longitude":"-2.336579"},"context":"","outcome_status":{"category":"Investigation complete; no suspect identified","date":"2019-06"},"persistent_id":"da57d3b2e15e73fa8a183402f1f4a50550dc9bae88ff50a60f028acacdc69d00","id":73932103,"location_subtype":"","month":"2019-05"},{"category":"burglary","location_type":"Force","location":{"latitude":"53.484370","street":{"id":726836,"name":"On or near Barlow Lane"},"longitude":"-2.361677"},"context":"","outcome_status":{"category":"Investigation complete; no suspect identified","date":"2019-05"},"persistent_id":"00de40a0a5c766ba51626e33f755ff2ae21ac98be4047be637647a33a2b24880","id":73910229,"location_subtype":"","month":"2019-05"},{"category":"burglary","location_type":"Force","location":{"latitude":"53.478609","street":{"id":726748,"name":"On or near Fairless Road"},"longitude":"-2.349212"},"context":"","outcome_status":{"category":"Investigation complete; no suspect identified","date":"2019-06"},"persistent_id":"24394edc2c25706ac4527eb19a55bdb6a5fa0b8e2a4bdce9b9276fbb191fd13e","id":73926827,"location_subtype":"","month":"2019-05"},{"category":"criminal-damage-arson","location_type":"Force","location":{"latitude":"53.484778","street":{"id":726620,"name":"On or near Eccles Fold"},"longitude":"-2.342075"},"context":"","outcome_status":{"category":"Status update unavailable","date":"2019-09"},"persistent_id":"0daf47875b640e5c7273feac0cc33d9abb67bb9e84172012e2adcbe119b19ac0","id":73932156,"location_subtype":"","month":"2019-05"},{"category":"criminal-damage-arson","location_type":"Force","location":{"latitude":"53.476559","street":{"id":726671,"name":"On or near Bell Terrace"},"longitude":"-2.358718"},"context":"","outcome_status":{"category":"Investigation complete; no suspect identified","date":"2019-05"},"persistent_id":"10adc78e912b078138e5be55b615e80cffe2beaffc347deda1869a69bf85f259","id":73915816,"location_subtype":"","month":"2019-05"},{"category":"criminal-damage-arson","location_type":"Force","location":{"latitude":"53.475217","street":{"id":723007,"name":"On or near Tindall Street"},"longitude":"-2.368334"},"context":"","outcome_status":{"category":"Investigation complete; no suspect identified","date":"2019-05"},"persistent_id":"2d75a2b4cfd6f54af4dc5344507609748498ea5b6d21fc359056c7a197add566","id":73907724,"location_subtype":"","month":"2019-05"},{"category":"criminal-damage-arson","location_type":"Force","location":{"latitude":"53.474439","street":{"id":723028,"name":"On or near Peel Green Road"},"longitude":"-2.361367"},"context":"","outcome_status":{"category":"Investigation complete; no suspect identified","date":"2019-06"},"persistent_id":"da38e9d51a1b8ea249c9b537e6980f35485776bcac730c756d0cf49161604633","id":73921423,"location_subtype":"","month":"2019-05"},{"category":"criminal-damage-arson","location_type":"Force","location":{"latitude":"53.478859","street":{"id":726810,"name":"On or near John Street"},"longitude":"-2.364930"},"context":"","outcome_status":{"category":"Unable to prosecute suspect","date":"2019-05"},"persistent_id":"44b0b9e58a054c67501e40f8309e8f44646de4212c54ed3aef5237dd1dd522ca","id":73896518,"location_subtype":"","month":"2019-05"},{"category":"criminal-damage-arson","location_type":"Force","location":{"latitude":"53.477122","street":{"id":726864,"name":"On or near Liverpool Road"},"longitude":"-2.368682"},"context":"","outcome_status":{"category":"Investigation complete; no suspect identified","date":"2019-05"},"persistent_id":"b0a0058f6d309bfa99146b2e960af63cfc302e7195c70bcb451d6a17359c83b0","id":73912531,"location_subtype":"","month":"2019-05"},{"category":"criminal-damage-arson","location_type":"Force","location":{"latitude":"53.484721","street":{"id":726618,"name":"On or near Ennismore Avenue"},"longitude":"-2.330561"},"context":"","outcome_status":{"category":"Unable to prosecute suspect","date":"2019-05"},"persistent_id":"2930cb811994e3bde283781998fe60a28f999aebb07d09733d378f703d9dc2de","id":73921492,"location_subtype":"","month":"2019-05"},{"category":"criminal-damage-arson","location_type":"Force","location":{"latitude":"53.483371","street":{"id":726627,"name":"On or near College Croft"},"longitude":"-2.334288"},"context":"","outcome_status":{"category":"Investigation complete; no suspect identified","date":"2019-05"},"persistent_id":"46e59ebcef10dc72d0cb4e6688309f8cddd9a3eb66f4f0b70d8d1f921283e639","id":73928630,"location_subtype":"","month":"2019-05"},{"category":"criminal-damage-arson","location_type":"Force","location":{"latitude":"53.489918","street":{"id":728272,"name":"On or near Crawford Street"},"longitude":"-2.352063"},"context":"","outcome_status":{"category":"Investigation complete; no suspect identified","date":"2019-05"},"persistent_id":"6a840a42371cb93dc256582f2247f51d52b632d1cf975ce4950c2964c2df58df","id":73928494,"location_subtype":"","month":"2019-05"},{"category":"criminal-damage-arson","location_type":"Force","location":{"latitude":"53.484989","street":{"id":726634,"name":"On or near Church Road"},"longitude":"-2.334361"},"context":"","outcome_status":{"category":"Investigation complete; no suspect identified","date":"2019-05"},"persistent_id":"2cde23c5503e16ac757849bbacf077d5d9e0ee6c129f390b4d68ba9adb07ee55","id":73926797,"location_subtype":"","month":"2019-05"},{"category":"criminal-damage-arson","location_type":"Force","location":{"latitude":"53.482564","street":{"id":726756,"name":"On or near Dickens Road"},"longitude":"-2.349290"},"context":"","outcome_status":{"category":"Investigation complete; no suspect identified","date":"2019-05"},"persistent_id":"9c2f73f5125fc573058983efe80fbdcc4cbe844d1e5703d8dbf3c32bddd59ecb","id":73926739,"location_subtype":"","month":"2019-05"},{"category":"criminal-damage-arson","location_type":"Force","location":{"latitude":"53.477222","street":{"id":726666,"name":"On or near Holt Street"},"longitude":"-2.362324"},"context":"","outcome_status":{"category":"Status update unavailable","date":"2019-09"},"persistent_id":"15593f779c287419639a30f56bd677eaac2d77209844d5d620e6e73c4da50b98","id":73917512,"location_subtype":"","month":"2019-05"},{"category":"criminal-damage-arson","location_type":"Force","location":{"latitude":"53.476292","street":{"id":726687,"name":"On or near Fountain Street"},"longitude":"-2.351725"},"context":"","outcome_status":{"category":"Investigation complete; no suspect identified","date":"2019-05"},"persistent_id":"e796d783db4103b206434507d822e0fc40a86377d328449da5ccd6fc6eb03a85","id":73918515,"location_subtype":"","month":"2019-05"},{"category":"criminal-damage-arson","location_type":"Force","location":{"latitude":"53.477122","street":{"id":726864,"name":"On or near Liverpool Road"},"longitude":"-2.368682"},"context":"","outcome_status":{"category":"Unable to prosecute suspect","date":"2019-05"},"persistent_id":"c95a06ca1a671c3d673a3a4fbce0987e6d52e064b7697aed5a7e7133d68a69c1","id":73937609,"location_subtype":"","month":"2019-05"},{"category":"criminal-damage-arson","location_type":"Force","location":{"latitude":"53.467652","street":{"id":723057,"name":"On or near Petrol Station"},"longitude":"-2.352497"},"context":"","outcome_status":{"category":"Investigation complete; no suspect identified","date":"2019-05"},"persistent_id":"c735d63604b44eece7f23f5cc72b5db50474a96cb8aef602e6cab9d40e761017","id":73937923,"location_subtype":"","month":"2019-05"},{"category":"criminal-damage-arson","location_type":"Force","location":{"latitude":"53.479160","street":{"id":726771,"name":"On or near Barlow Street"},"longitude":"-2.354400"},"context":"","outcome_status":{"category":"Unable to prosecute suspect","date":"2019-05"},"persistent_id":"fa8d1037dfc3b57e5fd94aca00f87839074963129f9442bd0c1671c0d1c36e64","id":73919460,"location_subtype":"","month":"2019-05"},{"category":"criminal-damage-arson","location_type":"Force","location":{"latitude":"53.483617","street":{"id":726649,"name":"On or near Supermarket"},"longitude":"-2.339624"},"context":"","outcome_status":{"category":"Investigation complete; no suspect identified","date":"2019-05"},"persistent_id":"cc58096d6b3760e7e818e4acfffb814083509391757de4239c7c1a57861e16b9","id":73904510,"location_subtype":"","month":"2019-05"},{"category":"criminal-damage-arson","location_type":"Force","location":{"latitude":"53.483406","street":{"id":726630,"name":"On or near Church Street"},"longitude":"-2.340994"},"context":"","outcome_status":{"category":"Investigation complete; no suspect identified","date":"2019-05"},"persistent_id":"44fa8cb908180caa23c9aa169586a6621402f912210f961329fc63a10dc63eef","id":73917480,"location_subtype":"","month":"2019-05"},{"category":"criminal-damage-arson","location_type":"Force","location":{"latitude":"53.483891","street":{"id":726743,"name":"On or near Gladstone Road"},"longitude":"-2.347402"},"context":"","outcome_status":{"category":"Investigation complete; no suspect identified","date":"2019-05"},"persistent_id":"e0462a8ac5c0f93abb936b0a0ece55602b5924ed29f801abbf0328303f780301","id":73939200,"location_subtype":"","month":"2019-05"},{"category":"criminal-damage-arson","location_type":"Force","location":{"latitude":"53.483650","street":{"id":726801,"name":"On or near Nameplate Close"},"longitude":"-2.364866"},"context":"","outcome_status":{"category":"Court result unavailable","date":"2019-11"},"persistent_id":"23938e15723ed043efbde64a469c460dfbce8c7e67d300940fb315ea896ab09c","id":73916675,"location_subtype":"","month":"2019-05"},{"category":"criminal-damage-arson","location_type":"Force","location":{"latitude":"53.475480","street":{"id":726861,"name":"On or near Reginald Street"},"longitude":"-2.370717"},"context":"","outcome_status":{"category":"Investigation complete; no suspect identified","date":"2019-05"},"persistent_id":"c0f9bf28e0d2da785deb768c9a12f34efcf722e2f13ec486e9e8346f87a1c078","id":73939213,"location_subtype":"","month":"2019-05"},{"category":"criminal-damage-arson","location_type":"Force","location":{"latitude":"53.474974","street":{"id":723049,"name":"On or near Redclyffe Road"},"longitude":"-2.353808"},"context":"","outcome_status":{"category":"Investigation complete; no suspect identified","date":"2019-05"},"persistent_id":"b1be751d0aaeced3ff39f3608c6b67df22db33a7443651734028740a051b677f","id":73897600,"location_subtype":"","month":"2019-05"},{"category":"criminal-damage-arson","location_type":"Force","location":{"latitude":"53.468126","street":{"id":723042,"name":"On or near Traders Avenue"},"longitude":"-2.343914"},"context":"","outcome_status":{"category":"Investigation complete; no suspect identified","date":"2019-05"},"persistent_id":"fe33360dc2a1e7ac75a098e72e7f08dfce2b91b5d2666e2ddf74ca313a9938c7","id":73920359,"location_subtype":"","month":"2019-05"},{"category":"criminal-damage-arson","location_type":"Force","location":{"latitude":"53.476559","street":{"id":726671,"name":"On or near Bell Terrace"},"longitude":"-2.358718"},"context":"","outcome_status":{"category":"Investigation complete; no suspect identified","date":"2019-05"},"persistent_id":"811a315d14ab05d9335e359e9f255cf91c1900eb1e97aad60121cdfc95d073c4","id":73915882,"location_subtype":"","month":"2019-05"},{"category":"criminal-damage-arson","location_type":"Force","location":{"latitude":"53.483437","street":{"id":726576,"name":"On or near Pedestrian Subway"},"longitude":"-2.336579"},"context":"","outcome_status":{"category":"Investigation complete; no suspect identified","date":"2019-05"},"persistent_id":"27ddf2179b9362480ad51c40d528215d182145dff9245f9c6e7eb436bda8f3b4","id":73943842,"location_subtype":"","month":"2019-05"},{"category":"criminal-damage-arson","location_type":"Force","location":{"latitude":"53.485866","street":{"id":726832,"name":"On or near Bromsgrove Avenue"},"longitude":"-2.363317"},"context":"","outcome_status":{"category":"Status update unavailable","date":"2019-09"},"persistent_id":"b392ac0fa3a3b16dcbee611cddcb65165613c8b2c9de1c0b8127c5ef84195d73","id":73904543,"location_subtype":"","month":"2019-05"},{"category":"criminal-damage-arson","location_type":"Force","location":{"latitude":"53.484518","street":{"id":726647,"name":"On or near Shopping Area"},"longitude":"-2.335698"},"context":"","outcome_status":{"category":"Investigation complete; no suspect identified","date":"2019-05"},"persistent_id":"426c37682bb5443d96dce9ca9d710998c0909d40020315c56d61cbe1ba6fc263","id":73904657,"location_subtype":"","month":"2019-05"},{"category":"criminal-damage-arson","location_type":"Force","location":{"latitude":"53.482848","street":{"id":726611,"name":"On or near Hunterston Avenue"},"longitude":"-2.331692"},"context":"","outcome_status":{"category":"Unable to prosecute suspect","date":"2019-05"},"persistent_id":"dffe6c5463f151164abbc43b8bec4a1ca1f1ea8b5c60e4cef3dfcec6aaaa518a","id":73934068,"location_subtype":"","month":"2019-05"},{"category":"criminal-damage-arson","location_type":"Force","location":{"latitude":"53.486554","street":{"id":726558,"name":"On or near Dukes Court"},"longitude":"-2.343415"},"context":"","outcome_status":{"category":"Investigation complete; no suspect identified","date":"2019-06"},"persistent_id":"07faa3fc54670482ec968e24f34656023fd14fb22cc92a6ca95596d8d6aec9e3","id":73943885,"location_subtype":"","month":"2019-05"},{"category":"drugs","location_type":"Force","location":{"latitude":"53.472142","street":{"id":723073,"name":"On or near Ashburton Road West"},"longitude":"-2.338372"},"context":"","outcome_status":{"category":"Court result unavailable","date":"2019-12"},"persistent_id":"9aff09062043eff91ec7f6b5c4aa55609ede78e387579aa5bb669727afc4028a","id":73925819,"location_subtype":"","month":"2019-05"},{"category":"drugs","location_type":"Force","location":{"latitude":"53.482309","street":{"id":726608,"name":"On or near Kearton Drive"},"longitude":"-2.331703"},"context":"","outcome_status":{"category":"Status update unavailable","date":"2019-09"},"persistent_id":"8d802e143a7cc0f12c0326636820332cb974568214a025b172125541b9c3600d","id":73942114,"location_subtype":"","month":"2019-05"},{"category":"drugs","location_type":"Force","location":{"latitude":"53.483088","street":{"id":726700,"name":"On or near Vane Street"},"longitude":"-2.354388"},"context":"","outcome_status":{"category":"Status update unavailable","date":"2019-09"},"persistent_id":"9e90367f4c75a7ae06e75d61127219301be893bf1ddf059acf31884a10c0dacc","id":73939251,"location_subtype":"","month":"2019-05"},{"category":"drugs","location_type":"Force","location":{"latitude":"53.482884","street":{"id":726632,"name":"On or near Church Street"},"longitude":"-2.338036"},"context":"","outcome_status":{"category":"Offender given a caution","date":"2019-05"},"persistent_id":"2d98f5d2ede5add8d8db909205ffc43135e6e2f537a60576f1bf64d2233235e4","id":73932095,"location_subtype":"","month":"2019-05"},{"category":"drugs","location_type":"Force","location":{"latitude":"53.483088","street":{"id":726700,"name":"On or near Vane Street"},"longitude":"-2.354388"},"context":"","outcome_status":{"category":"Court result unavailable","date":"2019-11"},"persistent_id":"f87431ee96882a029342c717683dcac5ad35bb4512624331bdc0c45efe23ca7a","id":73896506,"location_subtype":"","month":"2019-05"},{"category":"drugs","location_type":"Force","location":{"latitude":"53.487727","street":{"id":726737,"name":"On or near Hopwood Avenue"},"longitude":"-2.347946"},"context":"","outcome_status":{"category":"Unable to prosecute suspect","date":"2019-06"},"persistent_id":"edf92c83baa58ea69fa8139234dca04b0d311de1ce85cf9180188c9915d326ac","id":73917517,"location_subtype":"","month":"2019-05"},{"category":"other-theft","location_type":"Force","location":{"latitude":"53.466179","street":{"id":723059,"name":"On or near Shopping Area"},"longitude":"-2.349005"},"context":"","outcome_status":{"category":"Investigation complete; no suspect identified","date":"2019-05"},"persistent_id":"66262f7905104b252eb5117dba71ab3f5394b61746df585671d25e8fe7827b6b","id":73938765,"location_subtype":"","month":"2019-05"},{"category":"other-theft","location_type":"Force","location":{"latitude":"53.484101","street":{"id":726581,"name":"On or near Parking Area"},"longitude":"-2.336795"},"context":"","outcome_status":{"category":"Investigation complete; no suspect identified","date":"2019-06"},"persistent_id":"dd345015b27ff74fb802adbf72a95e9e29b93f30c6cfbf001741ee1756b59e58","id":73919502,"location_subtype":"","month":"2019-05"},{"category":"other-theft","location_type":"Force","location":{"latitude":"53.489779","street":{"id":728278,"name":"On or near Belmont Street"},"longitude":"-2.350344"},"context":"","outcome_status":{"category":"Investigation complete; no suspect identified","date":"2019-05"},"persistent_id":"88f1542c9aba39ad6bf727b7c0b648fe4af89421c480f2b5581c490bb12a487b","id":73926783,"location_subtype":"","month":"2019-05"},{"category":"other-theft","location_type":"Force","location":{"latitude":"53.483088","street":{"id":726700,"name":"On or near Vane Street"},"longitude":"-2.354388"},"context":"","outcome_status":{"category":"Investigation complete; no suspect identified","date":"2019-05"},"persistent_id":"08a386845d175b8a94a180cceff5d949e4c1fe4e68036c0039992335517b5280","id":73928579,"location_subtype":"","month":"2019-05"},{"category":"other-theft","location_type":"Force","location":{"latitude":"53.487727","street":{"id":726737,"name":"On or near Hopwood Avenue"},"longitude":"-2.347946"},"context":"","outcome_status":{"category":"Status update unavailable","date":"2019-09"},"persistent_id":"f2b66f5e7eb4abceab2c4d60a040676d0dd757744752ccaa06e4df425ef81802","id":73917578,"location_subtype":"","month":"2019-05"},{"category":"other-theft","location_type":"Force","location":{"latitude":"53.467963","street":{"id":723041,"name":"On or near Trafford Boulevard"},"longitude":"-2.353493"},"context":"","outcome_status":{"category":"Investigation complete; no suspect identified","date":"2019-05"},"persistent_id":"7b8d4a9e58f767ea6bc096d3df793e49852d05fbc108d744827606469e5342bc","id":73929325,"location_subtype":"","month":"2019-05"},{"category":"other-theft","location_type":"Force","location":{"latitude":"53.480569","street":{"id":726721,"name":"On or near Oak Street"},"longitude":"-2.355241"},"context":"","outcome_status":{"category":"Investigation complete; no suspect identified","date":"2019-05"},"persistent_id":"7b8cd0fad7c2a528d81b4fde8dfa03c39bd6dd63a3507da98bde157924a3ae24","id":73923306,"location_subtype":"","month":"2019-05"},{"category":"other-theft","location_type":"Force","location":{"latitude":"53.476423","street":{"id":726559,"name":"On or near Harp Road"},"longitude":"-2.330933"},"context":"","outcome_status":{"category":"Status update unavailable","date":"2019-09"},"persistent_id":"303caac3abfc90ca2d6d806893b2ee7f923ca7b2b6be9144e615fef0be44ed30","id":73936238,"location_subtype":"","month":"2019-05"},{"category":"other-theft","location_type":"Force","location":{"latitude":"53.484989","street":{"id":726634,"name":"On or near Church Road"},"longitude":"-2.334361"},"context":"","outcome_status":{"category":"Investigation complete; no suspect identified","date":"2019-05"},"persistent_id":"24ac28476e53774cd2d2f746ed348b467444a8f82b1db0d844e9dda2d581344f","id":73912479,"location_subtype":"","month":"2019-05"},{"category":"other-theft","location_type":"Force","location":{"latitude":"53.466581","street":{"id":723061,"name":"On or near Phoenix Way"},"longitude":"-2.340543"},"context":"","outcome_status":{"category":"Investigation complete; no suspect identified","date":"2019-05"},"persistent_id":"5623050cc72513e048405da6c4f7f6424b1bccc84a90dd4a49a06645bec27c43","id":73936207,"location_subtype":"","month":"2019-05"},{"category":"other-theft","location_type":"Force","location":{"latitude":"53.485441","street":{"id":726912,"name":"On or near Blandford Road"},"longitude":"-2.367172"},"context":"","outcome_status":{"category":"Investigation complete; no suspect identified","date":"2019-05"},"persistent_id":"703161cfd6e7e5cddd58d55783de4de9a6404737a7b0c7459983e9a8662d255e","id":73936690,"location_subtype":"","month":"2019-05"},{"category":"other-theft","location_type":"Force","location":{"latitude":"53.486886","street":{"id":726588,"name":"On or near Vicars Street"},"longitude":"-2.334104"},"context":"","outcome_status":{"category":"Investigation complete; no suspect identified","date":"2019-05"},"persistent_id":"b7aa461a645cc1f40aa4bc7607d1c32e9a14fa3da6f3a01b3a3993199240def3","id":73936733,"location_subtype":"","month":"2019-05"},{"category":"other-theft","location_type":"Force","location":{"latitude":"53.481807","street":{"id":726646,"name":"On or near Petrol Station"},"longitude":"-2.337560"},"context":"","outcome_status":{"category":"Investigation complete; no suspect identified","date":"2019-05"},"persistent_id":"cf5865cd5763b36809d56894da513193cf20cfe4f222ae7bb3862f04058c637a","id":73936774,"location_subtype":"","month":"2019-05"},{"category":"other-theft","location_type":"Force","location":{"latitude":"53.481441","street":{"id":726715,"name":"On or near Philip Street"},"longitude":"-2.349025"},"context":"","outcome_status":{"category":"Unable to prosecute suspect","date":"2019-06"},"persistent_id":"25ab93f81702069f7f994318b3644cfed8924ee11a1df412a888cbb2b97a4fe5","id":73912395,"location_subtype":"","month":"2019-05"},{"category":"other-theft","location_type":"Force","location":{"latitude":"53.483341","street":{"id":726631,"name":"On or near Church Street"},"longitude":"-2.341732"},"context":"","outcome_status":{"category":"Investigation complete; no suspect identified","date":"2019-05"},"persistent_id":"b0f5be19b8c04a217839fefc41873a05a98980c118b1f31295ee85a98ce5ef72","id":73940448,"location_subtype":"","month":"2019-05"},{"category":"other-theft","location_type":"Force","location":{"latitude":"53.466179","street":{"id":723059,"name":"On or near Shopping Area"},"longitude":"-2.349005"},"context":"","outcome_status":{"category":"Investigation complete; no suspect identified","date":"2019-05"},"persistent_id":"cc0abd5ff9e9b575488a4a5bb7cf50359a360558a02e3557106b45c73132a7f7","id":73941114,"location_subtype":"","month":"2019-05"},{"category":"other-theft","location_type":"Force","location":{"latitude":"53.467998","street":{"id":723046,"name":"On or near South Avenue"},"longitude":"-2.344832"},"context":"","outcome_status":{"category":"Investigation complete; no suspect identified","date":"2019-05"},"persistent_id":"a32287a58d49675680865eb0c10ce717bc18a6e6b62b475230a691bf94ec3370","id":73927516,"location_subtype":"","month":"2019-05"},{"category":"other-theft","location_type":"Force","location":{"latitude":"53.483650","street":{"id":726801,"name":"On or near Nameplate Close"},"longitude":"-2.364866"},"context":"","outcome_status":{"category":"Investigation complete; no suspect identified","date":"2019-05"},"persistent_id":"0fdbff2d70740dd5083b3fb4971940326405f2db1c21e6f4f2e6753d9fbef7b7","id":73904634,"location_subtype":"","month":"2019-05"},{"category":"other-theft","location_type":"Force","location":{"latitude":"53.467652","street":{"id":723057,"name":"On or near Petrol Station"},"longitude":"-2.352497"},"context":"","outcome_status":{"category":"Investigation complete; no suspect identified","date":"2019-06"},"persistent_id":"8e2b8cd06c6f086cfd82fedbb781c55be28fbadf4e39cdc3602b8f6fd9bc8c20","id":73939654,"location_subtype":"","month":"2019-05"},{"category":"other-theft","location_type":"Force","location":{"latitude":"53.484682","street":{"id":726642,"name":"On or near Albert Street"},"longitude":"-2.338096"},"context":"","outcome_status":{"category":"Investigation complete; no suspect identified","date":"2019-05"},"persistent_id":"03b94922adbd2a496cbffadd1ffe78318c3e976a92b1967f4b631676fd64a943","id":73914952,"location_subtype":"","month":"2019-05"},{"category":"other-theft","location_type":"Force","location":{"latitude":"53.467495","street":{"id":723039,"name":"On or near Parking Area"},"longitude":"-2.347630"},"context":"","outcome_status":{"category":"Investigation complete; no suspect identified","date":"2019-05"},"persistent_id":"f54a506156db5d489ef7c74691153a9dd6994f2cb31b3083cbdfcd21c31f9665","id":73917022,"location_subtype":"","month":"2019-05"},{"category":"other-theft","location_type":"Force","location":{"latitude":"53.483762","street":{"id":726727,"name":"On or near Lynwood Avenue"},"longitude":"-2.348351"},"context":"","outcome_status":{"category":"Investigation complete; no suspect identified","date":"2019-05"},"persistent_id":"848d09c2c7a3a463e1489060671fc6c95161d1b2807ba5f845a9e7de7a4be321","id":73919554,"location_subtype":"","month":"2019-05"},{"category":"other-theft","location_type":"Force","location":{"latitude":"53.479451","street":{"id":726606,"name":"On or near Lankro Way"},"longitude":"-2.334528"},"context":"","outcome_status":{"category":"Investigation complete; no suspect identified","date":"2019-06"},"persistent_id":"de5d043419ef24b6c97247b821c3d2db949558a855c03191e7607849671d6acb","id":73931118,"location_subtype":"","month":"2019-05"},{"category":"other-theft","location_type":"Force","location":{"latitude":"53.483943","street":{"id":726626,"name":"On or near College Road"},"longitude":"-2.332152"},"context":"","outcome_status":{"category":"Investigation complete; no suspect identified","date":"2019-06"},"persistent_id":"92fa4c7d39073cf21af25c4f48c4d5703feda4072eb1d4d60786bc4c8852851b","id":73939261,"location_subtype":"","month":"2019-05"},{"category":"other-theft","location_type":"Force","location":{"latitude":"53.483540","street":{"id":726617,"name":"On or near Fox Street"},"longitude":"-2.334877"},"context":"","outcome_status":{"category":"Investigation complete; no suspect identified","date":"2019-05"},"persistent_id":"597857286447f6ced55d27c39b43b71124a0bff89e4d18c94cf425df82cdfb44","id":73914921,"location_subtype":"","month":"2019-05"},{"category":"other-theft","location_type":"Force","location":{"latitude":"53.475362","street":{"id":723066,"name":"On or near Guinness Road"},"longitude":"-2.331196"},"context":"","outcome_status":{"category":"Investigation complete; no suspect identified","date":"2019-06"},"persistent_id":"47b1aeeaab2e2f40e7bd5061467ccdf292753bf8223e655829a428dc8f9f59e0","id":73944720,"location_subtype":"","month":"2019-05"},{"category":"other-theft","location_type":"Force","location":{"latitude":"53.467998","street":{"id":723046,"name":"On or near South Avenue"},"longitude":"-2.344832"},"context":"","outcome_status":{"category":"Investigation complete; no suspect identified","date":"2019-05"},"persistent_id":"bddd8b9f800b06630e960a1d4316b2fa1746258083f9d9530b1e199ed213ad52","id":73911294,"location_subtype":"","month":"2019-05"},{"category":"other-theft","location_type":"Force","location":{"latitude":"53.489256","street":{"id":728395,"name":"On or near Half Edge Lane"},"longitude":"-2.331832"},"context":"","outcome_status":{"category":"Unable to prosecute suspect","date":"2019-06"},"persistent_id":"296c5c0b07b85fda933c9b25be2425965a93bedc2bc9f5e6f29e5159202bb5d2","id":73921406,"location_subtype":"","month":"2019-05"},{"category":"other-theft","location_type":"Force","location":{"latitude":"53.467652","street":{"id":723057,"name":"On or near Petrol Station"},"longitude":"-2.352497"},"context":"","outcome_status":{"category":"Investigation complete; no suspect identified","date":"2019-05"},"persistent_id":"7ae93d933a149230e529317881eae474fe58f1699f35ece1d86d71c48efaf29d","id":73911289,"location_subtype":"","month":"2019-05"},{"category":"other-theft","location_type":"Force","location":{"latitude":"53.466179","street":{"id":723059,"name":"On or near Shopping Area"},"longitude":"-2.349005"},"context":"","outcome_status":{"category":"Investigation complete; no suspect identified","date":"2019-05"},"persistent_id":"79dc92e27281aef1a10cf4d6c7316688b751b6a6baf93fbae40a008a452a09fc","id":73911267,"location_subtype":"","month":"2019-05"},{"category":"other-theft","location_type":"Force","location":{"latitude":"53.472514","street":{"id":723077,"name":"On or near Lyons Road"},"longitude":"-2.327558"},"context":"","outcome_status":{"category":"Investigation complete; no suspect identified","date":"2019-05"},"persistent_id":"b5ff2b746542d591e67be1386f153ed953d6350d178927f50e945ed54de2e54f","id":73920423,"location_subtype":"","month":"2019-05"},{"category":"possession-of-weapons","location_type":"Force","location":{"latitude":"53.483088","street":{"id":726700,"name":"On or near Vane Street"},"longitude":"-2.354388"},"context":"","outcome_status":{"category":"Investigation complete; no suspect identified","date":"2019-06"},"persistent_id":"2f56842c9677fe847e925b93a940037658868c7c2e3a388ac03cff3933f593a8","id":73939264,"location_subtype":"","month":"2019-05"},{"category":"possession-of-weapons","location_type":"Force","location":{"latitude":"53.483341","street":{"id":726631,"name":"On or near Church Street"},"longitude":"-2.341732"},"context":"","outcome_status":{"category":"Unable to prosecute suspect","date":"2019-05"},"persistent_id":"1cc567ca470330c617e3beeab0b4d328ceba68a70ac9f7b3191db832b7639fa6","id":73915815,"location_subtype":"","month":"2019-05"},{"category":"possession-of-weapons","location_type":"Force","location":{"latitude":"53.480288","street":{"id":726760,"name":"On or near Charlton Avenue"},"longitude":"-2.349964"},"context":"","outcome_status":{"category":"Further investigation is not in the public interest","date":"2019-05"},"persistent_id":"8aa47495f93716898423110d793eabc33516ad69e4e2fa2a621484b2064c5f5b","id":73914949,"location_subtype":"","month":"2019-05"},{"category":"public-order","location_type":"Force","location":{"latitude":"53.476983","street":{"id":726682,"name":"On or near Mee's Square"},"longitude":"-2.355090"},"context":"","outcome_status":{"category":"Investigation complete; no suspect identified","date":"2019-05"},"persistent_id":"96e3dd69b957c3c789cd7bb37e4f6a7f12f77804373e3eeab2cbd1d5a90dd67a","id":73934058,"location_subtype":"","month":"2019-05"},{"category":"public-order","location_type":"Force","location":{"latitude":"53.482727","street":{"id":726607,"name":"On or near Lane End"},"longitude":"-2.333243"},"context":"","outcome_status":{"category":"Investigation complete; no suspect identified","date":"2019-05"},"persistent_id":"4207f48c99d143a6d6e127c5f189722b2ee8fcbf166952b106c1d6a1da2bdfae","id":73923233,"location_subtype":"","month":"2019-05"},{"category":"public-order","location_type":"Force","location":{"latitude":"53.493086","street":{"id":728250,"name":"On or near Park Drive"},"longitude":"-2.350371"},"context":"","outcome_status":{"category":"Unable to prosecute suspect","date":"2019-06"},"persistent_id":"802d83feebb4d4503da71bb3ec801aea5261abfd016c6da5a787dc1f4ae19ee2","id":73936683,"location_subtype":"","month":"2019-05"},{"category":"public-order","location_type":"Force","location":{"latitude":"53.479450","street":{"id":726710,"name":"On or near Renshaw Avenue"},"longitude":"-2.350847"},"context":"","outcome_status":{"category":"Unable to prosecute suspect","date":"2019-05"},"persistent_id":"85e014faf0504272635e13c05e5fa3be5dc44d2b5cfea7e276121ee578b3b697","id":73933999,"location_subtype":"","month":"2019-05"},{"category":"public-order","location_type":"Force","location":{"latitude":"53.489723","street":{"id":728292,"name":"On or near Nansen Avenue"},"longitude":"-2.357156"},"context":"","outcome_status":{"category":"Status update unavailable","date":"2019-09"},"persistent_id":"da3c7e40d6a2928d66849c4ac43597a946e35212eccc450685c8aa6ee298a38e","id":73904458,"location_subtype":"","month":"2019-05"},{"category":"public-order","location_type":"Force","location":{"latitude":"53.485866","street":{"id":726832,"name":"On or near Bromsgrove Avenue"},"longitude":"-2.363317"},"context":"","outcome_status":{"category":"Status update unavailable","date":"2019-09"},"persistent_id":"d6105bac8f225d5cd0bb90c31ff1b12e6caaf2c5208a8b7fc323302100ab5913","id":73904426,"location_subtype":"","month":"2019-05"},{"category":"public-order","location_type":"Force","location":{"latitude":"53.482564","street":{"id":726756,"name":"On or near Dickens Road"},"longitude":"-2.349290"},"context":"","outcome_status":{"category":"Unable to prosecute suspect","date":"2019-05"},"persistent_id":"e04e65bebfa2546f226d6a522780909709463422b9fb8a927f940d4bce147e63","id":73921508,"location_subtype":"","month":"2019-05"},{"category":"public-order","location_type":"Force","location":{"latitude":"53.482549","street":{"id":710492,"name":"On or near Andoc Avenue"},"longitude":"-2.332699"},"context":"","outcome_status":{"category":"Investigation complete; no suspect identified","date":"2019-06"},"persistent_id":"5903ea2796cebab13bb06bf154082783609ee2b53fb5a6310586e80bea233daa","id":73901303,"location_subtype":"","month":"2019-05"},{"category":"public-order","location_type":"Force","location":{"latitude":"53.481073","street":{"id":726843,"name":"On or near Aldred Street"},"longitude":"-2.361061"},"context":"","outcome_status":{"category":"Investigation complete; no suspect identified","date":"2019-05"},"persistent_id":"3d9fea1cceaa9d5df72729e1c2b8876e93180a56e1256b918f65d1dd947aa245","id":73914925,"location_subtype":"","month":"2019-05"},{"category":"public-order","location_type":"Force","location":{"latitude":"53.485566","street":{"id":726614,"name":"On or near Gilda Brook Road"},"longitude":"-2.330342"},"context":"","outcome_status":{"category":"Investigation complete; no suspect identified","date":"2019-05"},"persistent_id":"661deac5fbb97b9de3c9ff507d6c01eab5bb962a7ff8e007c61c24c8f65beb3b","id":73907720,"location_subtype":"","month":"2019-05"},{"category":"public-order","location_type":"Force","location":{"latitude":"53.480945","street":{"id":726641,"name":"On or near Alma Street"},"longitude":"-2.340266"},"context":"","outcome_status":{"category":"Unable to prosecute suspect","date":"2019-06"},"persistent_id":"19f1eed84aa6400ec694400fb0c60288ea51cdf9bf9832e12abec18758bdaba3","id":73940443,"location_subtype":"","month":"2019-05"},{"category":"public-order","location_type":"Force","location":{"latitude":"53.474691","street":{"id":723043,"name":"On or near Thistledown Close"},"longitude":"-2.355177"},"context":"","outcome_status":{"category":"Investigation complete; no suspect identified","date":"2019-05"},"persistent_id":"43835b37871b0f0727b9f0c8a9b49e25cd44a1e380f1b0335097771939c8a480","id":73923304,"location_subtype":"","month":"2019-05"},{"category":"public-order","location_type":"Force","location":{"latitude":"53.475480","street":{"id":726861,"name":"On or near Reginald Street"},"longitude":"-2.370717"},"context":"","outcome_status":{"category":"Offender given community sentence","date":"2019-05"},"persistent_id":"3b8374b057f4d23b7a7cd600f3ad37b18621d9606b48ef4b56a9775545095e60","id":73918500,"location_subtype":"","month":"2019-05"},{"category":"public-order","location_type":"Force","location":{"latitude":"53.480486","street":{"id":726729,"name":"On or near Lewis Street"},"longitude":"-2.353040"},"context":"","outcome_status":{"category":"Status update unavailable","date":"2019-09"},"persistent_id":"880070fc8ff1d7df1b07ce21a92b1dbf02a6506a1dc4ed191b661ecb4a6b05d3","id":73898783,"location_subtype":"","month":"2019-05"},{"category":"public-order","location_type":"Force","location":{"latitude":"53.483341","street":{"id":726631,"name":"On or near Church Street"},"longitude":"-2.341732"},"context":"","outcome_status":{"category":"Unable to prosecute suspect","date":"2019-05"},"persistent_id":"5389abc9bb106c13d0775cc959794d044a89bb84daf49c8caf41bb0051d6c596","id":73894198,"location_subtype":"","month":"2019-05"},{"category":"public-order","location_type":"Force","location":{"latitude":"53.483057","street":{"id":726783,"name":"On or near Waterslea"},"longitude":"-2.358938"},"context":"","outcome_status":{"category":"Unable to prosecute suspect","date":"2019-06"},"persistent_id":"484b97fd7d445db2a666dbfe06a6f43fc583057bd7f510b044efa59fb3cd0b84","id":73926832,"location_subtype":"","month":"2019-05"},{"category":"public-order","location_type":"Force","location":{"latitude":"53.483437","street":{"id":726576,"name":"On or near Pedestrian Subway"},"longitude":"-2.336579"},"context":"","outcome_status":{"category":"Status update unavailable","date":"2019-09"},"persistent_id":"957366607ff2ca457701ddc3eb282eb5dc849c285aa8ee19f10f41c53e48a449","id":73894064,"location_subtype":"","month":"2019-05"},{"category":"public-order","location_type":"Force","location":{"latitude":"53.489883","street":{"id":728277,"name":"On or near Bledlow Close"},"longitude":"-2.345567"},"context":"","outcome_status":{"category":"Unable to prosecute suspect","date":"2019-05"},"persistent_id":"c76cc90c15267418753bc016b15a4f659e51612c572ab68cb96aecad15ac6c7e","id":73921474,"location_subtype":"","month":"2019-05"},{"category":"public-order","location_type":"Force","location":{"latitude":"53.482194","street":{"id":726793,"name":"On or near Sarah Street"},"longitude":"-2.364974"},"context":"","outcome_status":{"category":"Local resolution","date":"2019-05"},"persistent_id":"0efe683c1170b37c41f6261d073654e0f72b2e65ecffccafc8acd656be69d861","id":73914972,"location_subtype":"","month":"2019-05"},{"category":"public-order","location_type":"Force","location":{"latitude":"53.484212","street":{"id":726595,"name":"On or near St Mary's Road"},"longitude":"-2.332606"},"context":"","outcome_status":{"category":"Court result unavailable","date":"2019-11"},"persistent_id":"c8dbd135d07d2375dafe79b1d2ab6858a0f05ab26a4924c119e4124c66770731","id":73913973,"location_subtype":"","month":"2019-05"},{"category":"public-order","location_type":"Force","location":{"latitude":"53.481609","street":{"id":726811,"name":"On or near Henry Street"},"longitude":"-2.359077"},"context":"","outcome_status":{"category":"Investigation complete; no suspect identified","date":"2019-06"},"persistent_id":"37bd8a12948be16978dd747ef57f7072ea898f0bca1d6cff7081f60080291050","id":73944002,"location_subtype":"","month":"2019-05"},{"category":"public-order","location_type":"Force","location":{"latitude":"53.483437","street":{"id":726576,"name":"On or near Pedestrian Subway"},"longitude":"-2.336579"},"context":"","outcome_status":{"category":"Status update unavailable","date":"2019-09"},"persistent_id":"16e61f5b6084c748d60715b23e6ec463a7c64ab010810c0538052055728efbda","id":73894138,"location_subtype":"","month":"2019-05"},{"category":"public-order","location_type":"Force","location":{"latitude":"53.467652","street":{"id":723057,"name":"On or near Petrol Station"},"longitude":"-2.352497"},"context":"","outcome_status":{"category":"Unable to prosecute suspect","date":"2019-06"},"persistent_id":"cdd004b2aa149d090de32d8982a983df61b5ab061b4aecf9705f7a24fa12a238","id":73939658,"location_subtype":"","month":"2019-05"},{"category":"public-order","location_type":"Force","location":{"latitude":"53.482461","street":{"id":726648,"name":"On or near Supermarket"},"longitude":"-2.335079"},"context":"","outcome_status":{"category":"Status update unavailable","date":"2019-09"},"persistent_id":"cefa32455009b533047e880dfd46bdc0db9f4376a1570f9209c596cfa0e4602a","id":73926767,"location_subtype":"","month":"2019-05"},{"category":"public-order","location_type":"Force","location":{"latitude":"53.483762","street":{"id":726727,"name":"On or near Lynwood Avenue"},"longitude":"-2.348351"},"context":"","outcome_status":{"category":"Status update unavailable","date":"2019-09"},"persistent_id":"441e9f3e81cd0ef6c7cd14734ad809b473aef4d90e2f465feedb7d9d5e218e2b","id":73940508,"location_subtype":"","month":"2019-05"},{"category":"public-order","location_type":"Force","location":{"latitude":"53.480190","street":{"id":726812,"name":"On or near Hampson Street"},"longitude":"-2.364610"},"context":"","outcome_status":{"category":"Investigation complete; no suspect identified","date":"2019-05"},"persistent_id":"b9f842b7a68b352d691ad92481b0c2d7e664118d1e223f2aaad2022a12bf15fb","id":73919498,"location_subtype":"","month":"2019-05"},{"category":"public-order","location_type":"Force","location":{"latitude":"53.481572","street":{"id":726777,"name":"On or near Sports/recreation Area"},"longitude":"-2.344189"},"context":"","outcome_status":{"category":"Investigation complete; no suspect identified","date":"2019-06"},"persistent_id":"27a307f4793c125bb047ae89d33847e1fbecee8939ce5d138a7bc0c3bca55c10","id":73940433,"location_subtype":"","month":"2019-05"},{"category":"public-order","location_type":"Force","location":{"latitude":"53.483341","street":{"id":726631,"name":"On or near Church Street"},"longitude":"-2.341732"},"context":"","outcome_status":{"category":"Status update unavailable","date":"2019-09"},"persistent_id":"aa4ee9378491062b519926849423522a8e516c40688d07c9b4835891d53112e2","id":73918534,"location_subtype":"","month":"2019-05"},{"category":"public-order","location_type":"Force","location":{"latitude":"53.484212","street":{"id":726595,"name":"On or near St Mary's Road"},"longitude":"-2.332606"},"context":"","outcome_status":{"category":"Court result unavailable","date":"2019-11"},"persistent_id":"98e07be98b4c502338c8e528572f8c8a603e0722611327054581e0b2045360c4","id":73913972,"location_subtype":"","month":"2019-05"},{"category":"public-order","location_type":"Force","location":{"latitude":"53.474691","street":{"id":723043,"name":"On or near Thistledown Close"},"longitude":"-2.355177"},"context":"","outcome_status":{"category":"Investigation complete; no suspect identified","date":"2019-05"},"persistent_id":"1d2cb8225f2b20e261e8d9e13233c4e193741045e9f7a60997c910d4be9d6f7f","id":73923338,"location_subtype":"","month":"2019-05"},{"category":"public-order","location_type":"Force","location":{"latitude":"53.467652","street":{"id":723057,"name":"On or near Petrol Station"},"longitude":"-2.352497"},"context":"","outcome_status":{"category":"Investigation complete; no suspect identified","date":"2019-05"},"persistent_id":"5260ec483e259a38fb55c6a9bc3facd84e59603a5f0f4cbe22de2ec59c7f982c","id":73913496,"location_subtype":"","month":"2019-05"},{"category":"public-order","location_type":"Force","location":{"latitude":"53.481814","street":{"id":726850,"name":"On or near St John Street"},"longitude":"-2.353729"},"context":"","outcome_status":{"category":"Investigation complete; no suspect identified","date":"2019-05"},"persistent_id":"c8f566e0d3d76ec40380b39c081a700d1c792b0fa98cb385288b02d6135a49f3","id":73918490,"location_subtype":"","month":"2019-05"},{"category":"public-order","location_type":"Force","location":{"latitude":"53.483406","street":{"id":726630,"name":"On or near Church Street"},"longitude":"-2.340994"},"context":"","outcome_status":{"category":"Further investigation is not in the public interest","date":"2019-06"},"persistent_id":"89823a4b40f3dbd8b10f07fd4f0ddc6b2f6bbd0915e5ae5c84f8adeca8f0925a","id":73942106,"location_subtype":"","month":"2019-05"},{"category":"public-order","location_type":"Force","location":{"latitude":"53.483406","street":{"id":726630,"name":"On or near Church Street"},"longitude":"-2.340994"},"context":"","outcome_status":{"category":"Further investigation is not in the public interest","date":"2019-06"},"persistent_id":"3d8f03eef5bb9bb38054ae7e646a5fa8940148648b92882c28b41efc11ac16ed","id":73942071,"location_subtype":"","month":"2019-05"},{"category":"public-order","location_type":"Force","location":{"latitude":"53.482671","street":{"id":726625,"name":"On or near Corporation Road"},"longitude":"-2.340385"},"context":"","outcome_status":{"category":"Investigation complete; no suspect identified","date":"2019-06"},"persistent_id":"525bd163a9353921a07251e94390ddfffc1bf37f760dbb5e0b110d0dc04ef7a2","id":73942067,"location_subtype":"","month":"2019-05"},{"category":"public-order","location_type":"Force","location":{"latitude":"53.482549","street":{"id":710492,"name":"On or near Andoc Avenue"},"longitude":"-2.332699"},"context":"","outcome_status":{"category":"Investigation complete; no suspect identified","date":"2019-06"},"persistent_id":"9fc866e8e771a4c016895f289016fb4856fb90e0978c9a8f265b7c2223246160","id":73907655,"location_subtype":"","month":"2019-05"},{"category":"public-order","location_type":"Force","location":{"latitude":"53.483134","street":{"id":726564,"name":"On or near Pilgrims Way"},"longitude":"-2.325726"},"context":"","outcome_status":{"category":"Investigation complete; no suspect identified","date":"2019-05"},"persistent_id":"f196560b1e78e255b01b396f33836e9926fb53c794cdc95ddf150a8281e8c786","id":73918480,"location_subtype":"","month":"2019-05"},{"category":"public-order","location_type":"Force","location":{"latitude":"53.481572","street":{"id":726777,"name":"On or near Sports/recreation Area"},"longitude":"-2.344189"},"context":"","outcome_status":{"category":"Status update unavailable","date":"2019-09"},"persistent_id":"e6e63cccb5c05cb674a935b0e9724460e72bb7e8eb65b07842e082ef2f29c2e0","id":73907743,"location_subtype":"","month":"2019-05"},{"category":"public-order","location_type":"Force","location":{"latitude":"53.467652","street":{"id":723057,"name":"On or near Petrol Station"},"longitude":"-2.352497"},"context":"","outcome_status":{"category":"Investigation complete; no suspect identified","date":"2019-05"},"persistent_id":"535eb687e9b1e8518914380749792a3d2fed96da1f003177dfb9d4bd64fb14a4","id":73913533,"location_subtype":"","month":"2019-05"},{"category":"public-order","location_type":"Force","location":{"latitude":"53.483437","street":{"id":726576,"name":"On or near Pedestrian Subway"},"longitude":"-2.336579"},"context":"","outcome_status":{"category":"Investigation complete; no suspect identified","date":"2019-05"},"persistent_id":"240ba5ae13932b05d5869b7b8b790e485a5664962f3be7df2ff77d4950346c58","id":73914024,"location_subtype":"","month":"2019-05"},{"category":"public-order","location_type":"Force","location":{"latitude":"53.484682","street":{"id":726642,"name":"On or near Albert Street"},"longitude":"-2.338096"},"context":"","outcome_status":{"category":"Court result unavailable","date":"2019-11"},"persistent_id":"08b07838bddbbffc008ab8b8f8ab78ad45a234160dc6bb5287c347f3f2824ce5","id":73928498,"location_subtype":"","month":"2019-05"},{"category":"public-order","location_type":"Force","location":{"latitude":"53.483540","street":{"id":726617,"name":"On or near Fox Street"},"longitude":"-2.334877"},"context":"","outcome_status":{"category":"Status update unavailable","date":"2019-09"},"persistent_id":"3784d6a3ce97645675e3b950cf1a0bb04a1cd0f7187b41ce674afc93ce8a427a","id":73934101,"location_subtype":"","month":"2019-05"},{"category":"public-order","location_type":"Force","location":{"latitude":"53.480945","street":{"id":726641,"name":"On or near Alma Street"},"longitude":"-2.340266"},"context":"","outcome_status":{"category":"Status update unavailable","date":"2019-09"},"persistent_id":"ea9db9cda646ab85c12b59b28658e44d48ef8730e46a4c341849fbabaab90b6a","id":73928626,"location_subtype":"","month":"2019-05"},{"category":"public-order","location_type":"Force","location":{"latitude":"53.485590","street":{"id":726899,"name":"On or near Colborne Avenue"},"longitude":"-2.368303"},"context":"","outcome_status":{"category":"Further investigation is not in the public interest","date":"2019-06"},"persistent_id":"a15214956817a6aa6e98c336b76637e79f4730e8107ec7979c86af0d8405a2fa","id":73937584,"location_subtype":"","month":"2019-05"},{"category":"public-order","location_type":"Force","location":{"latitude":"53.467495","street":{"id":723039,"name":"On or near Parking Area"},"longitude":"-2.347630"},"context":"","outcome_status":{"category":"Status update unavailable","date":"2019-09"},"persistent_id":"d9286c74183a06ce172bf01fbb7cad6c05529dec26691e2b2da096ec5460ec9d","id":73916993,"location_subtype":"","month":"2019-05"},{"category":"public-order","location_type":"Force","location":{"latitude":"53.477463","street":{"id":726882,"name":"On or near Moat Hall Avenue"},"longitude":"-2.371548"},"context":"","outcome_status":{"category":"Investigation complete; no suspect identified","date":"2019-05"},"persistent_id":"8f514be1e9c62adf1c083e180c1e388732b050a8b2e791667731cbc6f27fc6bf","id":73928611,"location_subtype":"","month":"2019-05"},{"category":"public-order","location_type":"Force","location":{"latitude":"53.481572","street":{"id":726777,"name":"On or near Sports/recreation Area"},"longitude":"-2.344189"},"context":"","outcome_status":{"category":"Further investigation is not in the public interest","date":"2019-05"},"persistent_id":"6c93c10f5eab146cceaf97d36c77090eff03c7a23325b00ebc5395669c696a18","id":73916660,"location_subtype":"","month":"2019-05"},{"category":"public-order","location_type":"Force","location":{"latitude":"53.467652","street":{"id":723057,"name":"On or near Petrol Station"},"longitude":"-2.352497"},"context":"","outcome_status":{"category":"Investigation complete; no suspect identified","date":"2019-05"},"persistent_id":"8d9259389d475fd3d3ee64420d355c87778c634346e473e258db5fbb3501c188","id":73937931,"location_subtype":"","month":"2019-05"},{"category":"public-order","location_type":"Force","location":{"latitude":"53.478834","street":{"id":726775,"name":"On or near Alba Close"},"longitude":"-2.355286"},"context":"","outcome_status":{"category":"Unable to prosecute suspect","date":"2019-05"},"persistent_id":"ecb22d8076bdc5d6a058167028622863b1586578c7bc6e1896fabe386a5877ef","id":73916667,"location_subtype":"","month":"2019-05"},{"category":"public-order","location_type":"Force","location":{"latitude":"53.478609","street":{"id":726748,"name":"On or near Fairless Road"},"longitude":"-2.349212"},"context":"","outcome_status":{"category":"Unable to prosecute suspect","date":"2019-05"},"persistent_id":"b1245512a24038c9fca419e7687351b5e0c9cfb3b82856cc9f3d2b8f47467abb","id":73917511,"location_subtype":"","month":"2019-05"},{"category":"public-order","location_type":"Force","location":{"latitude":"53.483341","street":{"id":726631,"name":"On or near Church Street"},"longitude":"-2.341732"},"context":"","outcome_status":{"category":"Unable to prosecute suspect","date":"2019-05"},"persistent_id":"e9368ba7464c4b7321c1ab13e8537dca2664ebac4d5abaa41364f4106b03259b","id":73937563,"location_subtype":"","month":"2019-05"},{"category":"public-order","location_type":"Force","location":{"latitude":"53.467998","street":{"id":723046,"name":"On or near South Avenue"},"longitude":"-2.344832"},"context":"","outcome_status":{"category":"Investigation complete; no suspect identified","date":"2019-05"},"persistent_id":"efd16fa8c283051304498e2c6a8b67b87e96021aaabac20a8cee3cbb444cfa87","id":73905941,"location_subtype":"","month":"2019-05"},{"category":"public-order","location_type":"Force","location":{"latitude":"53.480233","street":{"id":726746,"name":"On or near Fir Street"},"longitude":"-2.353520"},"context":"","outcome_status":{"category":"Investigation complete; no suspect identified","date":"2019-05"},"persistent_id":"2034cb218a1f879ddc04a31c8672245ca8df72f7f7da46afadbb4dfadce1cf47","id":73936735,"location_subtype":"","month":"2019-05"},{"category":"public-order","location_type":"Force","location":{"latitude":"53.475480","street":{"id":726861,"name":"On or near Reginald Street"},"longitude":"-2.370717"},"context":"","outcome_status":{"category":"Court result unavailable","date":"2019-11"},"persistent_id":"98c6302ccfe740df06e15c9e30add8c477df66937d8581c28614a76ecf990344","id":73936732,"location_subtype":"","month":"2019-05"},{"category":"public-order","location_type":"Force","location":{"latitude":"53.475480","street":{"id":726861,"name":"On or near Reginald Street"},"longitude":"-2.370717"},"context":"","outcome_status":{"category":"Court result unavailable","date":"2019-11"},"persistent_id":"70397d5c5c5c4540b7f8960b4dc89d2bc2dec5704d076c8db1c5a57b20391c72","id":73936710,"location_subtype":"","month":"2019-05"},{"category":"public-order","location_type":"Force","location":{"latitude":"53.480095","street":{"id":726728,"name":"On or near Lime Street"},"longitude":"-2.354589"},"context":"","outcome_status":{"category":"Investigation complete; no suspect identified","date":"2019-05"},"persistent_id":"6e64714397f7320ee52ef243879c6b20a78d3bd74470bac34b461d53cd04720d","id":73904416,"location_subtype":"","month":"2019-05"},{"category":"public-order","location_type":"Force","location":{"latitude":"53.480190","street":{"id":726812,"name":"On or near Hampson Street"},"longitude":"-2.364610"},"context":"","outcome_status":{"category":"Investigation complete; no suspect identified","date":"2019-05"},"persistent_id":"37eb1b29dae94a686fe35a6649fdb3eec7ba842e75f8528eaab19ec1e2a82fe6","id":73936695,"location_subtype":"","month":"2019-05"},{"category":"public-order","location_type":"Force","location":{"latitude":"53.480594","street":{"id":726622,"name":"On or near Davis Street"},"longitude":"-2.340444"},"context":"","outcome_status":{"category":"Investigation complete; no suspect identified","date":"2019-05"},"persistent_id":"ff3cd4c52a4303fe90f277c60f178afd2e2b070b31d230a6f22094677c804670","id":73935859,"location_subtype":"","month":"2019-05"},{"category":"public-order","location_type":"Force","location":{"latitude":"53.475480","street":{"id":726861,"name":"On or near Reginald Street"},"longitude":"-2.370717"},"context":"","outcome_status":{"category":"Court result unavailable","date":"2019-11"},"persistent_id":"a35c970b92ea360b9bbf42988647901b5fb9073e8728c7ec88350f3758c46062","id":73917556,"location_subtype":"","month":"2019-05"},{"category":"public-order","location_type":"Force","location":{"latitude":"53.474768","street":{"id":723029,"name":"On or near Mount Street"},"longitude":"-2.359426"},"context":"","outcome_status":{"category":"Unable to prosecute suspect","date":"2019-05"},"persistent_id":"650aebf4c872876a888a7a67da51474466781255de1befc140269b2deccc211a","id":73935846,"location_subtype":"","month":"2019-05"},{"category":"public-order","location_type":"Force","location":{"latitude":"53.476209","street":{"id":726684,"name":"On or near Keadby Close"},"longitude":"-2.349238"},"context":"","outcome_status":{"category":"Investigation complete; no suspect identified","date":"2019-05"},"persistent_id":"bf6b5eb9a2ca986ee36b5a50f264f115ca50c0ba83129992a0009265dfce8d89","id":73919497,"location_subtype":"","month":"2019-05"},{"category":"public-order","location_type":"Force","location":{"latitude":"53.488234","street":{"id":726819,"name":"On or near Gee Lane"},"longitude":"-2.364995"},"context":"","outcome_status":{"category":"Investigation complete; no suspect identified","date":"2019-05"},"persistent_id":"9ef544e686fe126be3cfbeffc51153f4b03febfff0146c67e0cfab735894d0f3","id":73930355,"location_subtype":"","month":"2019-05"},{"category":"robbery","location_type":"Force","location":{"latitude":"53.466179","street":{"id":723058,"name":"On or near Shopping Area"},"longitude":"-2.349020"},"context":"","outcome_status":{"category":"Local resolution","date":"2019-05"},"persistent_id":"32084bb2a323ea70d06c2e0c692cdce1aa651597704e514e2e03682c813a92da","id":73916201,"location_subtype":"","month":"2019-05"},{"category":"robbery","location_type":"Force","location":{"latitude":"53.466179","street":{"id":723058,"name":"On or near Shopping Area"},"longitude":"-2.349020"},"context":"","outcome_status":{"category":"Unable to prosecute suspect","date":"2019-05"},"persistent_id":"d40c0e041d4cf88d927c1aead3191cf5717bdd10e3f13e1895e73099bcf4e356","id":73917014,"location_subtype":"","month":"2019-05"},{"category":"robbery","location_type":"Force","location":{"latitude":"53.478906","street":{"id":726770,"name":"On or near Barton Lane"},"longitude":"-2.346081"},"context":"","outcome_status":{"category":"Status update unavailable","date":"2019-09"},"persistent_id":"39a63211b85284b20648b2d54889a29c744998f10e8fc30436de063478888231","id":73926813,"location_subtype":"","month":"2019-05"},{"category":"robbery","location_type":"Force","location":{"latitude":"53.482461","street":{"id":726648,"name":"On or near Supermarket"},"longitude":"-2.335079"},"context":"","outcome_status":{"category":"Status update unavailable","date":"2019-09"},"persistent_id":"bdd7f7143ea120db8d650d165a6492499f7aa0c75c1c43362cdaeec49f315c57","id":73921392,"location_subtype":"","month":"2019-05"},{"category":"robbery","location_type":"Force","location":{"latitude":"53.467495","street":{"id":723039,"name":"On or near Parking Area"},"longitude":"-2.347630"},"context":"","outcome_status":{"category":"Investigation complete; no suspect identified","date":"2019-05"},"persistent_id":"a3df3c068c96b619fa49b926ca8965e89dd880621100c183cf0ca6fb657ba77e","id":73895183,"location_subtype":"","month":"2019-05"},{"category":"robbery","location_type":"Force","location":{"latitude":"53.477742","street":{"id":726730,"name":"On or near Kirkman Avenue"},"longitude":"-2.356844"},"context":"","outcome_status":{"category":"Status update unavailable","date":"2019-09"},"persistent_id":"056734f62e00b753f854d04bec7369a90715911713db44d82f17ecc4f276f24f","id":73930380,"location_subtype":"","month":"2019-05"},{"category":"shoplifting","location_type":"Force","location":{"latitude":"53.483259","street":{"id":726597,"name":"On or near Shuttle Street"},"longitude":"-2.338943"},"context":"","outcome_status":{"category":"Investigation complete; no suspect identified","date":"2019-06"},"persistent_id":"2ab490a661449dddbbda38641edebf372d0eb8515e79c257377d465e6d734a9a","id":73938430,"location_subtype":"","month":"2019-05"},{"category":"shoplifting","location_type":"Force","location":{"latitude":"53.483437","street":{"id":726576,"name":"On or near Pedestrian Subway"},"longitude":"-2.336579"},"context":"","outcome_status":{"category":"Investigation complete; no suspect identified","date":"2019-05"},"persistent_id":"857bb694a75327f8fd7f0d04a556809b19b7273847a14273e1f35586038f1e19","id":73914905,"location_subtype":"","month":"2019-05"},{"category":"shoplifting","location_type":"Force","location":{"latitude":"53.466179","street":{"id":723059,"name":"On or near Shopping Area"},"longitude":"-2.349005"},"context":"","outcome_status":{"category":"Local resolution","date":"2019-05"},"persistent_id":"15364aa50dc4e0a82bea64ebb179153e7542105cde1c3d8a4ec896022c165e43","id":73920307,"location_subtype":"","month":"2019-05"},{"category":"shoplifting","location_type":"Force","location":{"latitude":"53.483088","street":{"id":726700,"name":"On or near Vane Street"},"longitude":"-2.354388"},"context":"","outcome_status":{"category":"Investigation complete; no suspect identified","date":"2019-05"},"persistent_id":"44957149358d6bc86f21076d9f7e887586c4dafdbce08e69f0669d99456cd48b","id":73896466,"location_subtype":"","month":"2019-05"},{"category":"shoplifting","location_type":"Force","location":{"latitude":"53.483088","street":{"id":726700,"name":"On or near Vane Street"},"longitude":"-2.354388"},"context":"","outcome_status":{"category":"Court result unavailable","date":"2019-12"},"persistent_id":"a11b75a48674b4e5db29d33e030e4b9a2bb54454064b36c7a02f1f73bc39dcf7","id":73928623,"location_subtype":"","month":"2019-05"},{"category":"shoplifting","location_type":"Force","location":{"latitude":"53.484518","street":{"id":726647,"name":"On or near Shopping Area"},"longitude":"-2.335698"},"context":"","outcome_status":{"category":"Status update unavailable","date":"2019-09"},"persistent_id":"0b3d9a28c20223d246698c4f607c0844d611fd465e2a889a5f6e7557fccae90b","id":73907688,"location_subtype":"","month":"2019-05"},{"category":"shoplifting","location_type":"Force","location":{"latitude":"53.468126","street":{"id":723042,"name":"On or near Traders Avenue"},"longitude":"-2.343914"},"context":"","outcome_status":{"category":"Investigation complete; no suspect identified","date":"2019-05"},"persistent_id":"7627b3544524d2ddaad75563583b80231e83c0dbe89f85b2ed6fff2388fcd1b5","id":73916988,"location_subtype":"","month":"2019-05"},{"category":"shoplifting","location_type":"Force","location":{"latitude":"53.467963","street":{"id":723041,"name":"On or near Trafford Boulevard"},"longitude":"-2.353493"},"context":"","outcome_status":{"category":"Investigation complete; no suspect identified","date":"2019-05"},"persistent_id":"61fec42330cfaa18df3d113faf90676b637839a21c05c3c0d26866f14c140917","id":73920311,"location_subtype":"","month":"2019-05"},{"category":"shoplifting","location_type":"Force","location":{"latitude":"53.467495","street":{"id":723039,"name":"On or near Parking Area"},"longitude":"-2.347630"},"context":"","outcome_status":{"category":"Further investigation is not in the public interest","date":"2019-06"},"persistent_id":"fced047113d1ecda9865a0f3d034e10d5dfed0515710869bc885eb145a98769e","id":73929285,"location_subtype":"","month":"2019-05"},{"category":"shoplifting","location_type":"Force","location":{"latitude":"53.483088","street":{"id":726700,"name":"On or near Vane Street"},"longitude":"-2.354388"},"context":"","outcome_status":{"category":"Investigation complete; no suspect identified","date":"2019-05"},"persistent_id":"1dde4cebfc4403de1cc43a20f429ef2713557c8d3232f0a4afcd55e64ac28af6","id":73912348,"location_subtype":"","month":"2019-05"},{"category":"shoplifting","location_type":"Force","location":{"latitude":"53.466179","street":{"id":723058,"name":"On or near Shopping Area"},"longitude":"-2.349020"},"context":"","outcome_status":{"category":"Investigation complete; no suspect identified","date":"2019-05"},"persistent_id":"b4292c88c0ee75bef271d964923264e779b06afb1fa64f85b8926b81af59161b","id":73916209,"location_subtype":"","month":"2019-05"},{"category":"shoplifting","location_type":"Force","location":{"latitude":"53.470267","street":{"id":723044,"name":"On or near Taylor Road"},"longitude":"-2.346583"},"context":"","outcome_status":{"category":"Investigation complete; no suspect identified","date":"2019-05"},"persistent_id":"8e6fc24d8448ab850f9e3a9b48cc620a5890be68fd9a0f70ada6348ada5835ed","id":73916204,"location_subtype":"","month":"2019-05"},{"category":"shoplifting","location_type":"Force","location":{"latitude":"53.486554","street":{"id":726558,"name":"On or near Dukes Court"},"longitude":"-2.343415"},"context":"","outcome_status":{"category":"Investigation complete; no suspect identified","date":"2019-05"},"persistent_id":"447b4aed14094e885b2a81199a9ad537f22f2919b1e7144f0697f7e632abf46d","id":73939232,"location_subtype":"","month":"2019-05"},{"category":"shoplifting","location_type":"Force","location":{"latitude":"53.486554","street":{"id":726558,"name":"On or near Dukes Court"},"longitude":"-2.343415"},"context":"","outcome_status":{"category":"Investigation complete; no suspect identified","date":"2019-05"},"persistent_id":"52ccea53d6d6007b7c01d918af3b88a1a931a422fe7761c84c812c613b459b35","id":73939208,"location_subtype":"","month":"2019-05"},{"category":"shoplifting","location_type":"Force","location":{"latitude":"53.487466","street":{"id":726591,"name":"On or near Trafalgar Road"},"longitude":"-2.329030"},"context":"","outcome_status":{"category":"Investigation complete; no suspect identified","date":"2019-05"},"persistent_id":"d1f4ae16154bf25f51f13807a98c143606e658f331916190a288f9d56639558b","id":73938466,"location_subtype":"","month":"2019-05"},{"category":"shoplifting","location_type":"Force","location":{"latitude":"53.480233","street":{"id":726746,"name":"On or near Fir Street"},"longitude":"-2.353520"},"context":"","outcome_status":{"category":"Investigation complete; no suspect identified","date":"2019-05"},"persistent_id":"556e772546dae64f500e198ec01620d2d54e3bd84c6ce51ffcd8e8874494972a","id":73937598,"location_subtype":"","month":"2019-05"},{"category":"shoplifting","location_type":"Force","location":{"latitude":"53.480233","street":{"id":726746,"name":"On or near Fir Street"},"longitude":"-2.353520"},"context":"","outcome_status":{"category":"Investigation complete; no suspect identified","date":"2019-05"},"persistent_id":"dfa5c701bfbbffe730a4d38009c1ba6614cc4477d4ba72668681ef9820b123a4","id":73937576,"location_subtype":"","month":"2019-05"},{"category":"shoplifting","location_type":"Force","location":{"latitude":"53.467495","street":{"id":723039,"name":"On or near Parking Area"},"longitude":"-2.347630"},"context":"","outcome_status":{"category":"Investigation complete; no suspect identified","date":"2019-05"},"persistent_id":"21c79b5026faae577ada7f96852d1a6514f07d1fbdb3fa3438fbaf44b7b70994","id":73934733,"location_subtype":"","month":"2019-05"},{"category":"shoplifting","location_type":"Force","location":{"latitude":"53.483088","street":{"id":726700,"name":"On or near Vane Street"},"longitude":"-2.354388"},"context":"","outcome_status":{"category":"Further investigation is not in the public interest","date":"2019-05"},"persistent_id":"fe7c4c0e1efc26efab81e48f1abb5598a3dde9b14e5f560cacdb04a2e541414e","id":73912463,"location_subtype":"","month":"2019-05"},{"category":"shoplifting","location_type":"Force","location":{"latitude":"53.484101","street":{"id":726581,"name":"On or near Parking Area"},"longitude":"-2.336795"},"context":"","outcome_status":{"category":"Court result unavailable","date":"2019-12"},"persistent_id":"2891c85063c59808488221c0442d8e6890e349c6027cef3b0e15b160ec960668","id":73935827,"location_subtype":"","month":"2019-05"},{"category":"shoplifting","location_type":"Force","location":{"latitude":"53.467495","street":{"id":723039,"name":"On or near Parking Area"},"longitude":"-2.347630"},"context":"","outcome_status":{"category":"Status update unavailable","date":"2019-09"},"persistent_id":"1916a775f31a121c09060d101a211fc422b173e18e05e5ac842224058a6af82f","id":73938759,"location_subtype":"","month":"2019-05"},{"category":"shoplifting","location_type":"Force","location":{"latitude":"53.482461","street":{"id":726648,"name":"On or near Supermarket"},"longitude":"-2.335079"},"context":"","outcome_status":{"category":"Unable to prosecute suspect","date":"2019-05"},"persistent_id":"33fa2e1aba7c92674ce8d0d56dfe0602374ae12e0542cf258620a9d00b5fa0b9","id":73901215,"location_subtype":"","month":"2019-05"},{"category":"shoplifting","location_type":"Force","location":{"latitude":"53.478099","street":{"id":726924,"name":"On or near Supermarket"},"longitude":"-2.366551"},"context":"","outcome_status":{"category":"Investigation complete; no suspect identified","date":"2019-05"},"persistent_id":"e4a6725c7479e31bf1006e5a216ed9a8fe45c28254175b788413b5ebd69c2639","id":73901152,"location_subtype":"","month":"2019-05"},{"category":"shoplifting","location_type":"Force","location":{"latitude":"53.482309","street":{"id":726608,"name":"On or near Kearton Drive"},"longitude":"-2.331703"},"context":"","outcome_status":{"category":"Court result unavailable","date":"2019-11"},"persistent_id":"f89dfdf2572335e35f1a2d3c496df75c7aa8369859f2fca6390696e171ae4ba0","id":73938411,"location_subtype":"","month":"2019-05"},{"category":"shoplifting","location_type":"Force","location":{"latitude":"53.467652","street":{"id":723057,"name":"On or near Petrol Station"},"longitude":"-2.352497"},"context":"","outcome_status":{"category":"Investigation complete; no suspect identified","date":"2019-05"},"persistent_id":"3540be7554e4be78a01b800067eb05c3a21906bbd081f46be2b41b06edf83162","id":73924044,"location_subtype":"","month":"2019-05"},{"category":"shoplifting","location_type":"Force","location":{"latitude":"53.466179","street":{"id":723059,"name":"On or near Shopping Area"},"longitude":"-2.349005"},"context":"","outcome_status":{"category":"Status update unavailable","date":"2019-09"},"persistent_id":"96ad952a6702c5e183653ab3458ad56a1834899356ca942a69e4de21cd4f4744","id":73902632,"location_subtype":"","month":"2019-05"},{"category":"shoplifting","location_type":"Force","location":{"latitude":"53.484101","street":{"id":726581,"name":"On or near Parking Area"},"longitude":"-2.336795"},"context":"","outcome_status":{"category":"Investigation complete; no suspect identified","date":"2019-05"},"persistent_id":"5c8bffcbfee61105e4c4b980adc8ef1709252e6547a33030a364a36c6b11d06c","id":73933950,"location_subtype":"","month":"2019-05"},{"category":"shoplifting","location_type":"Force","location":{"latitude":"53.484137","street":{"id":726579,"name":"On or near Pedestrian Subway"},"longitude":"-2.330556"},"context":"","outcome_status":{"category":"Investigation complete; no suspect identified","date":"2019-05"},"persistent_id":"470b2f195386a156bd845b973250d35e715ab0d08d2599eada7f553a35403608","id":73910359,"location_subtype":"","month":"2019-05"},{"category":"shoplifting","location_type":"Force","location":{"latitude":"53.483088","street":{"id":726700,"name":"On or near Vane Street"},"longitude":"-2.354388"},"context":"","outcome_status":{"category":"Investigation complete; no suspect identified","date":"2019-05"},"persistent_id":"07b4f3d308151494cf74082630caf241d2b32f5f92f5661e7cfc3a141e22e4b0","id":73912541,"location_subtype":"","month":"2019-05"},{"category":"shoplifting","location_type":"Force","location":{"latitude":"53.484101","street":{"id":726581,"name":"On or near Parking Area"},"longitude":"-2.336795"},"context":"","outcome_status":{"category":"Investigation complete; no suspect identified","date":"2019-05"},"persistent_id":"8ccd26550f1eadddcb522b6c39e25b073e1560775aa849e88f9a522414fbbc59","id":73933975,"location_subtype":"","month":"2019-05"},{"category":"shoplifting","location_type":"Force","location":{"latitude":"53.484101","street":{"id":726581,"name":"On or near Parking Area"},"longitude":"-2.336795"},"context":"","outcome_status":{"category":"Investigation complete; no suspect identified","date":"2019-05"},"persistent_id":"8f602440ee656608e3795031742233348c4b0ec9c5331b5ffeec0a02676c37af","id":73932134,"location_subtype":"","month":"2019-05"},{"category":"shoplifting","location_type":"Force","location":{"latitude":"53.466179","street":{"id":723059,"name":"On or near Shopping Area"},"longitude":"-2.349005"},"context":"","outcome_status":{"category":"Investigation complete; no suspect identified","date":"2019-05"},"persistent_id":"db7381c5c085c3ba98fde27c50e5f32bc01ef7b194069b323cc1bc12da942d44","id":73931172,"location_subtype":"","month":"2019-05"},{"category":"shoplifting","location_type":"Force","location":{"latitude":"53.483088","street":{"id":726700,"name":"On or near Vane Street"},"longitude":"-2.354388"},"context":"","outcome_status":{"category":"Investigation complete; no suspect identified","date":"2019-05"},"persistent_id":"a4f144ee896940eeba170d32922b3c6b9541031abf617c44a64e6e4653452061","id":73894294,"location_subtype":"","month":"2019-05"},{"category":"shoplifting","location_type":"Force","location":{"latitude":"53.484101","street":{"id":726581,"name":"On or near Parking Area"},"longitude":"-2.336795"},"context":"","outcome_status":{"category":"Investigation complete; no suspect identified","date":"2019-05"},"persistent_id":"8d47f8cff763d99fce00c9f0053d7c5e296a9f20cf37495aebd13b0beef30169","id":73894215,"location_subtype":"","month":"2019-05"},{"category":"shoplifting","location_type":"Force","location":{"latitude":"53.483088","street":{"id":726700,"name":"On or near Vane Street"},"longitude":"-2.354388"},