[{"category":"anti-social-behaviour","location_type":"Force","location":{"latitude":"53.483891","street":{"id":726743,"name":"On or near Gladstone Road"},"longitude":"-2.347402"},"context":"","outcome_status":null,"persistent_id":"","id":73153606,"location_subtype":"","month":"2019-04"},{"category":"anti-social-behaviour","location_type":"Force","location":{"latitude":"53.483341","street":{"id":726631,"name":"On or near Church Street"},"longitude":"-2.341732"},"context":"","outcome_status":null,"persistent_id":"","id":73153596,"location_subtype":"","month":"2019-04"},{"category":"anti-social-behaviour","location_type":"Force","location":{"latitude":"53.487207","street":{"id":726752,"name":"On or near Ellesmere Avenue"},"longitude":"-2.344671"},"context":"","outcome_status":null,"persistent_id":"","id":73153591,"location_subtype":"","month":"2019-04"},{"category":"anti-social-behaviour","location_type":"Force","location":{"latitude":"53.491088","street":{"id":728247,"name":"On or near Partington Street"},"longitude":"-2.351531"},"context":"","outcome_status":null,"persistent_id":"","id":73153686,"location_subtype":"","month":"2019-04"},{"category":"anti-social-behaviour","location_type":"Force","location":{"latitude":"53.482848","street":{"id":726611,"name":"On or near Hunterston Avenue"},"longitude":"-2.331692"},"context":"","outcome_status":null,"persistent_id":"","id":73153673,"location_subtype":"","month":"2019-04"},{"category":"anti-social-behaviour","location_type":"Force","location":{"latitude":"53.483341","street":{"id":726631,"name":"On or near Church Street"},"longitude":"-2.341732"},"context":"","outcome_status":null,"persistent_id":"","id":73153664,"location_subtype":"","month":"2019-04"},{"category":"anti-social-behaviour","location_type":"Force","location":{"latitude":"53.482194","street":{"id":726793,"name":"On or near Sarah Street"},"longitude":"-2.364974"},"context":"","outcome_status":null,"persistent_id":"","id":73152559,"location_subtype":"","month":"2019-04"},{"category":"anti-social-behaviour","location_type":"Force","location":{"latitude":"53.476454","street":{"id":726867,"name":"On or near Harrison Street"},"longitude":"-2.369475"},"context":"","outcome_status":null,"persistent_id":"","id":73152560,"location_subtype":"","month":"2019-04"},{"category":"anti-social-behaviour","location_type":"Force","location":{"latitude":"53.481609","street":{"id":726811,"name":"On or near Henry Street"},"longitude":"-2.359077"},"context":"","outcome_status":null,"persistent_id":"","id":73152571,"location_subtype":"","month":"2019-04"},{"category":"anti-social-behaviour","location_type":"Force","location":{"latitude":"53.484212","street":{"id":726595,"name":"On or near St Mary's Road"},"longitude":"-2.332606"},"context":"","outcome_status":null,"persistent_id":"","id":73152583,"location_subtype":"","month":"2019-04"},{"category":"anti-social-behaviour","location_type":"Force","location":{"latitude":"53.478609","street":{"id":726748,"name":"On or near Fairless Road"},"longitude":"-2.349212"},"context":"","outcome_status":null,"persistent_id":"","id":73152588,"location_subtype":"","month":"2019-04"},{"category":"anti-social-behaviour","location_type":"Force","location":{"latitude":"53.484212","street":{"id":726595,"name":"On or near St Mary's Road"},"longitude":"-2.332606"},"context":"","outcome_status":null,"persistent_id":"","id":73152604,"location_subtype":"","month":"2019-04"},{"category":"anti-social-behaviour","location_type":"Force","location":{"latitude":"53.480533","street":{"id":726736,"name":"On or near Irlam Avenue"},"longitude":"-2.349334"},"context":"","outcome_status":null,"persistent_id":"","id":73152612,"location_subtype":"","month":"2019-04"},{"category":"anti-social-behaviour","location_type":"Force","location":{"latitude":"53.477001","street":{"id":726669,"name":"On or near Edison Road"},"longitude":"-2.358134"},"context":"","outcome_status":null,"persistent_id":"","id":73152617,"location_subtype":"","month":"2019-04"},{"category":"anti-social-behaviour","location_type":"Force","location":{"latitude":"53.484212","street":{"id":726595,"name":"On or near St Mary's Road"},"longitude":"-2.332606"},"context":"","outcome_status":null,"persistent_id":"","id":73152624,"location_subtype":"","month":"2019-04"},{"category":"anti-social-behaviour","location_type":"Force","location":{"latitude":"53.476553","street":{"id":726676,"name":"On or near Wharfside Avenue"},"longitude":"-2.348683"},"context":"","outcome_status":null,"persistent_id":"","id":73152632,"location_subtype":"","month":"2019-04"},{"category":"anti-social-behaviour","location_type":"Force","location":{"latitude":"53.481373","street":{"id":726594,"name":"On or near Talbot Street"},"longitude":"-2.341595"},"context":"","outcome_status":null,"persistent_id":"","id":73152649,"location_subtype":"","month":"2019-04"},{"category":"anti-social-behaviour","location_type":"Force","location":{"latitude":"53.481373","street":{"id":726594,"name":"On or near Talbot Street"},"longitude":"-2.341595"},"context":"","outcome_status":null,"persistent_id":"","id":73152651,"location_subtype":"","month":"2019-04"},{"category":"anti-social-behaviour","location_type":"Force","location":{"latitude":"53.492067","street":{"id":728254,"name":"On or near Monton Green"},"longitude":"-2.354749"},"context":"","outcome_status":null,"persistent_id":"","id":73152652,"location_subtype":"","month":"2019-04"},{"category":"anti-social-behaviour","location_type":"Force","location":{"latitude":"53.483218","street":{"id":726599,"name":"On or near Regent Street"},"longitude":"-2.334256"},"context":"","outcome_status":null,"persistent_id":"","id":73152657,"location_subtype":"","month":"2019-04"},{"category":"anti-social-behaviour","location_type":"Force","location":{"latitude":"53.478318","street":{"id":726776,"name":"On or near Adelaide Street"},"longitude":"-2.353715"},"context":"","outcome_status":null,"persistent_id":"","id":73152594,"location_subtype":"","month":"2019-04"},{"category":"anti-social-behaviour","location_type":"Force","location":{"latitude":"53.482194","street":{"id":726793,"name":"On or near Sarah Street"},"longitude":"-2.364974"},"context":"","outcome_status":null,"persistent_id":"","id":73152601,"location_subtype":"","month":"2019-04"},{"category":"anti-social-behaviour","location_type":"Force","location":{"latitude":"53.478859","street":{"id":726810,"name":"On or near John Street"},"longitude":"-2.364930"},"context":"","outcome_status":null,"persistent_id":"","id":73153547,"location_subtype":"","month":"2019-04"},{"category":"anti-social-behaviour","location_type":"Force","location":{"latitude":"53.483259","street":{"id":726597,"name":"On or near Shuttle Street"},"longitude":"-2.338943"},"context":"","outcome_status":null,"persistent_id":"","id":73153548,"location_subtype":"","month":"2019-04"},{"category":"anti-social-behaviour","location_type":"Force","location":{"latitude":"53.484314","street":{"id":726726,"name":"On or near Mather Road"},"longitude":"-2.343940"},"context":"","outcome_status":null,"persistent_id":"","id":73153554,"location_subtype":"","month":"2019-04"},{"category":"anti-social-behaviour","location_type":"Force","location":{"latitude":"53.481373","street":{"id":726594,"name":"On or near Talbot Street"},"longitude":"-2.341595"},"context":"","outcome_status":null,"persistent_id":"","id":73153650,"location_subtype":"","month":"2019-04"},{"category":"anti-social-behaviour","location_type":"Force","location":{"latitude":"53.473076","street":{"id":723030,"name":"On or near Langland Drive"},"longitude":"-2.360300"},"context":"","outcome_status":null,"persistent_id":"","id":73153652,"location_subtype":"","month":"2019-04"},{"category":"anti-social-behaviour","location_type":"Force","location":{"latitude":"53.485566","street":{"id":726614,"name":"On or near Gilda Brook Road"},"longitude":"-2.330342"},"context":"","outcome_status":null,"persistent_id":"","id":73153662,"location_subtype":"","month":"2019-04"},{"category":"anti-social-behaviour","location_type":"Force","location":{"latitude":"53.468375","street":{"id":710181,"name":"On or near Trafford Boulevard"},"longitude":"-2.354175"},"context":"","outcome_status":null,"persistent_id":"","id":73154983,"location_subtype":"","month":"2019-04"},{"category":"anti-social-behaviour","location_type":"Force","location":{"latitude":"53.468126","street":{"id":723042,"name":"On or near Traders Avenue"},"longitude":"-2.343914"},"context":"","outcome_status":null,"persistent_id":"","id":73155104,"location_subtype":"","month":"2019-04"},{"category":"anti-social-behaviour","location_type":"Force","location":{"latitude":"53.466179","street":{"id":723059,"name":"On or near Shopping Area"},"longitude":"-2.349005"},"context":"","outcome_status":null,"persistent_id":"","id":73155097,"location_subtype":"","month":"2019-04"},{"category":"anti-social-behaviour","location_type":"Force","location":{"latitude":"53.467963","street":{"id":723041,"name":"On or near Trafford Boulevard"},"longitude":"-2.353493"},"context":"","outcome_status":null,"persistent_id":"","id":73155036,"location_subtype":"","month":"2019-04"},{"category":"anti-social-behaviour","location_type":"Force","location":{"latitude":"53.473076","street":{"id":723030,"name":"On or near Langland Drive"},"longitude":"-2.360300"},"context":"","outcome_status":null,"persistent_id":"","id":73155027,"location_subtype":"","month":"2019-04"},{"category":"anti-social-behaviour","location_type":"Force","location":{"latitude":"53.468375","street":{"id":710181,"name":"On or near Trafford Boulevard"},"longitude":"-2.354175"},"context":"","outcome_status":null,"persistent_id":"","id":73155114,"location_subtype":"","month":"2019-04"},{"category":"anti-social-behaviour","location_type":"Force","location":{"latitude":"53.468126","street":{"id":723042,"name":"On or near Traders Avenue"},"longitude":"-2.343914"},"context":"","outcome_status":null,"persistent_id":"","id":73154887,"location_subtype":"","month":"2019-04"},{"category":"anti-social-behaviour","location_type":"Force","location":{"latitude":"53.467963","street":{"id":723041,"name":"On or near Trafford Boulevard"},"longitude":"-2.353493"},"context":"","outcome_status":null,"persistent_id":"","id":73154885,"location_subtype":"","month":"2019-04"},{"category":"anti-social-behaviour","location_type":"Force","location":{"latitude":"53.467495","street":{"id":723039,"name":"On or near Parking Area"},"longitude":"-2.347630"},"context":"","outcome_status":null,"persistent_id":"","id":73154862,"location_subtype":"","month":"2019-04"},{"category":"anti-social-behaviour","location_type":"Force","location":{"latitude":"53.467998","street":{"id":723046,"name":"On or near South Avenue"},"longitude":"-2.344832"},"context":"","outcome_status":null,"persistent_id":"","id":73154868,"location_subtype":"","month":"2019-04"},{"category":"anti-social-behaviour","location_type":"Force","location":{"latitude":"53.476423","street":{"id":726559,"name":"On or near Harp Road"},"longitude":"-2.330933"},"context":"","outcome_status":null,"persistent_id":"","id":73154839,"location_subtype":"","month":"2019-04"},{"category":"anti-social-behaviour","location_type":"Force","location":{"latitude":"53.467652","street":{"id":723057,"name":"On or near Petrol Station"},"longitude":"-2.352497"},"context":"","outcome_status":null,"persistent_id":"","id":73154834,"location_subtype":"","month":"2019-04"},{"category":"anti-social-behaviour","location_type":"Force","location":{"latitude":"53.473076","street":{"id":723030,"name":"On or near Langland Drive"},"longitude":"-2.360300"},"context":"","outcome_status":null,"persistent_id":"","id":73154826,"location_subtype":"","month":"2019-04"},{"category":"anti-social-behaviour","location_type":"Force","location":{"latitude":"53.468375","street":{"id":710181,"name":"On or near Trafford Boulevard"},"longitude":"-2.354175"},"context":"","outcome_status":null,"persistent_id":"","id":73154821,"location_subtype":"","month":"2019-04"},{"category":"anti-social-behaviour","location_type":"Force","location":{"latitude":"53.473076","street":{"id":723030,"name":"On or near Langland Drive"},"longitude":"-2.360300"},"context":"","outcome_status":null,"persistent_id":"","id":73154818,"location_subtype":"","month":"2019-04"},{"category":"anti-social-behaviour","location_type":"Force","location":{"latitude":"53.482564","street":{"id":726756,"name":"On or near Dickens Road"},"longitude":"-2.349290"},"context":"","outcome_status":null,"persistent_id":"","id":73154817,"location_subtype":"","month":"2019-04"},{"category":"anti-social-behaviour","location_type":"Force","location":{"latitude":"53.480260","street":{"id":726615,"name":"On or near Garden Street"},"longitude":"-2.341059"},"context":"","outcome_status":null,"persistent_id":"","id":73154811,"location_subtype":"","month":"2019-04"},{"category":"anti-social-behaviour","location_type":"Force","location":{"latitude":"53.482564","street":{"id":726756,"name":"On or near Dickens Road"},"longitude":"-2.349290"},"context":"","outcome_status":null,"persistent_id":"","id":73154808,"location_subtype":"","month":"2019-04"},{"category":"anti-social-behaviour","location_type":"Force","location":{"latitude":"53.482065","street":{"id":726837,"name":"On or near Athol Street"},"longitude":"-2.363044"},"context":"","outcome_status":null,"persistent_id":"","id":73154803,"location_subtype":"","month":"2019-04"},{"category":"anti-social-behaviour","location_type":"Force","location":{"latitude":"53.484055","street":{"id":726557,"name":"On or near Plum Tree Close"},"longitude":"-2.343636"},"context":"","outcome_status":null,"persistent_id":"","id":73153521,"location_subtype":"","month":"2019-04"},{"category":"anti-social-behaviour","location_type":"Force","location":{"latitude":"53.484721","street":{"id":726618,"name":"On or near Ennismore Avenue"},"longitude":"-2.330561"},"context":"","outcome_status":null,"persistent_id":"","id":73153516,"location_subtype":"","month":"2019-04"},{"category":"anti-social-behaviour","location_type":"Force","location":{"latitude":"53.484212","street":{"id":726595,"name":"On or near St Mary's Road"},"longitude":"-2.332606"},"context":"","outcome_status":null,"persistent_id":"","id":73153511,"location_subtype":"","month":"2019-04"},{"category":"anti-social-behaviour","location_type":"Force","location":{"latitude":"53.483437","street":{"id":726576,"name":"On or near Pedestrian Subway"},"longitude":"-2.336579"},"context":"","outcome_status":null,"persistent_id":"","id":73153509,"location_subtype":"","month":"2019-04"},{"category":"anti-social-behaviour","location_type":"Force","location":{"latitude":"53.483833","street":{"id":726708,"name":"On or near Richardson Road"},"longitude":"-2.345608"},"context":"","outcome_status":null,"persistent_id":"","id":73153492,"location_subtype":"","month":"2019-04"},{"category":"anti-social-behaviour","location_type":"Force","location":{"latitude":"53.476292","street":{"id":726687,"name":"On or near Fountain Street"},"longitude":"-2.351725"},"context":"","outcome_status":null,"persistent_id":"","id":73153463,"location_subtype":"","month":"2019-04"},{"category":"anti-social-behaviour","location_type":"Force","location":{"latitude":"53.484212","street":{"id":726595,"name":"On or near St Mary's Road"},"longitude":"-2.332606"},"context":"","outcome_status":null,"persistent_id":"","id":73153459,"location_subtype":"","month":"2019-04"},{"category":"anti-social-behaviour","location_type":"Force","location":{"latitude":"53.480533","street":{"id":726736,"name":"On or near Irlam Avenue"},"longitude":"-2.349334"},"context":"","outcome_status":null,"persistent_id":"","id":73153453,"location_subtype":"","month":"2019-04"},{"category":"anti-social-behaviour","location_type":"Force","location":{"latitude":"53.478859","street":{"id":726810,"name":"On or near John Street"},"longitude":"-2.364930"},"context":"","outcome_status":null,"persistent_id":"","id":73153451,"location_subtype":"","month":"2019-04"},{"category":"anti-social-behaviour","location_type":"Force","location":{"latitude":"53.483961","street":{"id":726814,"name":"On or near Hall Bank"},"longitude":"-2.360332"},"context":"","outcome_status":null,"persistent_id":"","id":73153630,"location_subtype":"","month":"2019-04"},{"category":"anti-social-behaviour","location_type":"Force","location":{"latitude":"53.479676","street":{"id":726815,"name":"On or near Greenwatch Close"},"longitude":"-2.362149"},"context":"","outcome_status":null,"persistent_id":"","id":73153616,"location_subtype":"","month":"2019-04"},{"category":"anti-social-behaviour","location_type":"Force","location":{"latitude":"53.474448","street":{"id":723031,"name":"On or near Higson Avenue"},"longitude":"-2.358143"},"context":"","outcome_status":null,"persistent_id":"","id":73153615,"location_subtype":"","month":"2019-04"},{"category":"bicycle-theft","location_type":"Force","location":{"latitude":"53.481373","street":{"id":726594,"name":"On or near Talbot Street"},"longitude":"-2.341595"},"context":"","outcome_status":{"category":"Investigation complete; no suspect identified","date":"2019-04"},"persistent_id":"82bdfe1b30e209f4d25dd03cc059d962fedde5850d243d2f946a68a3d661bca6","id":73123440,"location_subtype":"","month":"2019-04"},{"category":"bicycle-theft","location_type":"Force","location":{"latitude":"53.491088","street":{"id":728247,"name":"On or near Partington Street"},"longitude":"-2.351531"},"context":"","outcome_status":{"category":"Investigation complete; no suspect identified","date":"2019-04"},"persistent_id":"0365bae0152d9882b77abdb884ff7b4dc783d1cee7188fda7c84b5fc4e3098c4","id":73131820,"location_subtype":"","month":"2019-04"},{"category":"bicycle-theft","location_type":"Force","location":{"latitude":"53.488984","street":{"id":728381,"name":"On or near Sunnybank Avenue"},"longitude":"-2.339155"},"context":"","outcome_status":{"category":"Investigation complete; no suspect identified","date":"2019-04"},"persistent_id":"7b0e0c36b0d5a2fac997d05b855ed9a06c036e4247ab69faa1a0f25152a4ad73","id":73148505,"location_subtype":"","month":"2019-04"},{"category":"bicycle-theft","location_type":"Force","location":{"latitude":"53.467998","street":{"id":723046,"name":"On or near South Avenue"},"longitude":"-2.344832"},"context":"","outcome_status":{"category":"Investigation complete; no suspect identified","date":"2019-04"},"persistent_id":"2d17f797e04f9aeb46fb91f69f356b9a24cf775d2e0664a90c890e19815a09f7","id":73148963,"location_subtype":"","month":"2019-04"},{"category":"burglary","location_type":"Force","location":{"latitude":"53.487742","street":{"id":726733,"name":"On or near Jubillee Close"},"longitude":"-2.349167"},"context":"","outcome_status":{"category":"Investigation complete; no suspect identified","date":"2019-04"},"persistent_id":"7f0038130218468d40ba24b8761eb1c300f76d5419dd8f610b178c5348366a7b","id":73126373,"location_subtype":"","month":"2019-04"},{"category":"burglary","location_type":"Force","location":{"latitude":"53.472456","street":{"id":723072,"name":"On or near Bailey Road"},"longitude":"-2.329080"},"context":"","outcome_status":{"category":"Investigation complete; no suspect identified","date":"2019-04"},"persistent_id":"23f85019c7af669036e0c299fdfcea18039b39eef05ccd386970c919f39c9ab3","id":73148066,"location_subtype":"","month":"2019-04"},{"category":"burglary","location_type":"Force","location":{"latitude":"53.482884","street":{"id":726632,"name":"On or near Church Street"},"longitude":"-2.338036"},"context":"","outcome_status":{"category":"Investigation complete; no suspect identified","date":"2019-05"},"persistent_id":"cae4543d2620300b2ab0b4daaabdf35683dac987b2ea978606ceff557872f657","id":73148499,"location_subtype":"","month":"2019-04"},{"category":"burglary","location_type":"Force","location":{"latitude":"53.489605","street":{"id":728252,"name":"On or near Monton Road"},"longitude":"-2.348474"},"context":"","outcome_status":{"category":"Investigation complete; no suspect identified","date":"2019-04"},"persistent_id":"686e5000c3185ad643e369b03491d39705ec548d1182e8518844c35755691dbf","id":73149402,"location_subtype":"","month":"2019-04"},{"category":"burglary","location_type":"Force","location":{"latitude":"53.484471","street":{"id":726600,"name":"On or near Peel Street"},"longitude":"-2.339345"},"context":"","outcome_status":{"category":"Unable to prosecute suspect","date":"2019-04"},"persistent_id":"c11173ef283855fcd52c86bf4f5f97694586802060d70828620423e51cf15120","id":73126362,"location_subtype":"","month":"2019-04"},{"category":"burglary","location_type":"Force","location":{"latitude":"53.468375","street":{"id":710181,"name":"On or near Trafford Boulevard"},"longitude":"-2.354175"},"context":"","outcome_status":{"category":"Investigation complete; no suspect identified","date":"2019-04"},"persistent_id":"b49eca32cd9a5f607381bdfae0b37645690bad5e3c145ec6a9827423f6fe34fb","id":73140838,"location_subtype":"","month":"2019-04"},{"category":"burglary","location_type":"Force","location":{"latitude":"53.474768","street":{"id":723029,"name":"On or near Mount Street"},"longitude":"-2.359426"},"context":"","outcome_status":{"category":"Investigation complete; no suspect identified","date":"2019-04"},"persistent_id":"ba38bdee118a1ab442638e9cb8fb8e7b11ea3c853cb679c0902f93dbcd255ffa","id":73141341,"location_subtype":"","month":"2019-04"},{"category":"burglary","location_type":"Force","location":{"latitude":"53.481609","street":{"id":726811,"name":"On or near Henry Street"},"longitude":"-2.359077"},"context":"","outcome_status":{"category":"Investigation complete; no suspect identified","date":"2019-05"},"persistent_id":"9abaf3656136298f2b20895f66a7f84b6d2ee1a641eb5df86230445cdea29683","id":73146882,"location_subtype":"","month":"2019-04"},{"category":"burglary","location_type":"Force","location":{"latitude":"53.475078","street":{"id":723036,"name":"On or near Ashford Avenue"},"longitude":"-2.357922"},"context":"","outcome_status":{"category":"Investigation complete; no suspect identified","date":"2019-04"},"persistent_id":"13b0a32c4ac0b45113d999808aa1e28c50476b612c177acc0daf8295ee236cc9","id":73137043,"location_subtype":"","month":"2019-04"},{"category":"burglary","location_type":"Force","location":{"latitude":"53.474768","street":{"id":723029,"name":"On or near Mount Street"},"longitude":"-2.359426"},"context":"","outcome_status":{"category":"Investigation complete; no suspect identified","date":"2019-04"},"persistent_id":"9248bacc985919d722ce0e7f2b9f0dde805171ef19fac829935c74eaa8942e89","id":73135353,"location_subtype":"","month":"2019-04"},{"category":"burglary","location_type":"Force","location":{"latitude":"53.468375","street":{"id":710181,"name":"On or near Trafford Boulevard"},"longitude":"-2.354175"},"context":"","outcome_status":{"category":"Investigation complete; no suspect identified","date":"2019-04"},"persistent_id":"b8a11ac2124e3391400f9cc69102f96debc01f0f6935fce6225da1df363abcdf","id":73133153,"location_subtype":"","month":"2019-04"},{"category":"burglary","location_type":"Force","location":{"latitude":"53.491088","street":{"id":728247,"name":"On or near Partington Street"},"longitude":"-2.351531"},"context":"","outcome_status":{"category":"Investigation complete; no suspect identified","date":"2019-06"},"persistent_id":"c60d7a5a88b93d3aa1c982e59eb3168d3e3712e0495b08f2d75b9e2e86982695","id":73142995,"location_subtype":"","month":"2019-04"},{"category":"burglary","location_type":"Force","location":{"latitude":"53.480243","street":{"id":726896,"name":"On or near Evans Road"},"longitude":"-2.370864"},"context":"","outcome_status":{"category":"Unable to prosecute suspect","date":"2019-04"},"persistent_id":"f235e2cf8e2fd3ae35ed261e9bf4407c93b47185faa68f39a1bd1c8211d4c1df","id":73129052,"location_subtype":"","month":"2019-04"},{"category":"burglary","location_type":"Force","location":{"latitude":"53.481572","street":{"id":726777,"name":"On or near Sports/recreation Area"},"longitude":"-2.344189"},"context":"","outcome_status":{"category":"Court result unavailable","date":"2019-10"},"persistent_id":"243fa382bf1dc094252bce02942f0124cf8ccab3f8dc5b16ea1082cf00ce54e7","id":73125470,"location_subtype":"","month":"2019-04"},{"category":"burglary","location_type":"Force","location":{"latitude":"53.484125","street":{"id":726758,"name":"On or near Cromwell Road"},"longitude":"-2.353537"},"context":"","outcome_status":{"category":"Court result unavailable","date":"2019-10"},"persistent_id":"617266a179480e72b45de7fdad6ae4761a2adf01b352e46be6b4443be01877f7","id":73125468,"location_subtype":"","month":"2019-04"},{"category":"burglary","location_type":"Force","location":{"latitude":"53.488994","street":{"id":728274,"name":"On or near Carlton Street"},"longitude":"-2.351242"},"context":"","outcome_status":{"category":"Investigation complete; no suspect identified","date":"2019-04"},"persistent_id":"0c5aa14c37a49e4cd459dfe8040046509d53e196b9d20c9645408b6c621a5ee0","id":73126311,"location_subtype":"","month":"2019-04"},{"category":"burglary","location_type":"Force","location":{"latitude":"53.475480","street":{"id":726861,"name":"On or near Reginald Street"},"longitude":"-2.370717"},"context":"","outcome_status":{"category":"Investigation complete; no suspect identified","date":"2019-04"},"persistent_id":"18758d4963e85eda853c2e2724cd857d771deeb49dd87c6f928c48f0b745b971","id":73137022,"location_subtype":"","month":"2019-04"},{"category":"burglary","location_type":"Force","location":{"latitude":"53.484125","street":{"id":726758,"name":"On or near Cromwell Road"},"longitude":"-2.353537"},"context":"","outcome_status":{"category":"Court result unavailable","date":"2019-10"},"persistent_id":"a299a7303bcddfd2827bf0e57caf7320cf67d7508615caac0501fa9159ba0283","id":73125390,"location_subtype":"","month":"2019-04"},{"category":"burglary","location_type":"Force","location":{"latitude":"53.480416","street":{"id":726725,"name":"On or near Mellor Street"},"longitude":"-2.352286"},"context":"","outcome_status":{"category":"Unable to prosecute suspect","date":"2019-05"},"persistent_id":"8e18def381b37429f29993b64271e58d7a56e8c52475772aa1e18591480bc833","id":73127291,"location_subtype":"","month":"2019-04"},{"category":"burglary","location_type":"Force","location":{"latitude":"53.484721","street":{"id":726618,"name":"On or near Ennismore Avenue"},"longitude":"-2.330561"},"context":"","outcome_status":{"category":"Investigation complete; no suspect identified","date":"2019-04"},"persistent_id":"3ea0500df61afaab8bba997b9526b75c38f8a0d5ecedc83ab0e3812a4efccb0f","id":73144016,"location_subtype":"","month":"2019-04"},{"category":"burglary","location_type":"Force","location":{"latitude":"53.468375","street":{"id":710181,"name":"On or near Trafford Boulevard"},"longitude":"-2.354175"},"context":"","outcome_status":{"category":"Investigation complete; no suspect identified","date":"2019-04"},"persistent_id":"ca30c745602a36fc01ee7a7f500a90391983f721dec20396e1249cbe7036a66c","id":73124820,"location_subtype":"","month":"2019-04"},{"category":"burglary","location_type":"Force","location":{"latitude":"53.481441","street":{"id":726715,"name":"On or near Philip Street"},"longitude":"-2.349025"},"context":"","outcome_status":{"category":"Investigation complete; no suspect identified","date":"2019-04"},"persistent_id":"32752297fab96af7889a579eb06aaeac157ecb9627be4cf1eed2d1bf1070ebf3","id":73137064,"location_subtype":"","month":"2019-04"},{"category":"burglary","location_type":"Force","location":{"latitude":"53.485917","street":{"id":726791,"name":"On or near Selsby Avenue"},"longitude":"-2.364222"},"context":"","outcome_status":{"category":"Investigation complete; no suspect identified","date":"2019-04"},"persistent_id":"91fddb4c90675311550348c678aef2b49e47e35350754b0c80db1d9af8812a7d","id":73133619,"location_subtype":"","month":"2019-04"},{"category":"burglary","location_type":"Force","location":{"latitude":"53.482009","street":{"id":726596,"name":"On or near St Andrews Avenue"},"longitude":"-2.342203"},"context":"","outcome_status":{"category":"Investigation complete; no suspect identified","date":"2019-04"},"persistent_id":"977a972e0ec7af90cea6914f896b6f013f50e59e9dd1dba2a76983a18f949086","id":73132776,"location_subtype":"","month":"2019-04"},{"category":"burglary","location_type":"Force","location":{"latitude":"53.479489","street":{"id":726763,"name":"On or near Cawdor Street"},"longitude":"-2.355819"},"context":"","outcome_status":{"category":"Court result unavailable","date":"2019-10"},"persistent_id":"a4027e6706ff2f86e15ceec7c18977ab953e5adfe3a8a6e29b7f1b236a3dbf8e","id":73129929,"location_subtype":"","month":"2019-04"},{"category":"burglary","location_type":"Force","location":{"latitude":"53.491972","street":{"id":728404,"name":"On or near Allington Drive"},"longitude":"-2.340957"},"context":"","outcome_status":{"category":"Investigation complete; no suspect identified","date":"2019-06"},"persistent_id":"27149207b4ac679f073fe6a83369cbc434098b8eab3e9f450ea879eec368cbd4","id":73126382,"location_subtype":"","month":"2019-04"},{"category":"burglary","location_type":"Force","location":{"latitude":"53.476210","street":{"id":726672,"name":"On or near Bakewell Road"},"longitude":"-2.360975"},"context":"","outcome_status":{"category":"Unable to prosecute suspect","date":"2019-05"},"persistent_id":"f8f520cd67cdee9bcb97dc8011a17214539bff814271e781fc8acfd4039c4590","id":73130005,"location_subtype":"","month":"2019-04"},{"category":"criminal-damage-arson","location_type":"Force","location":{"latitude":"53.480233","street":{"id":726746,"name":"On or near Fir Street"},"longitude":"-2.353520"},"context":"","outcome_status":{"category":"Investigation complete; no suspect identified","date":"2019-04"},"persistent_id":"9e381bc75ce355a3594801c682d2252a460cb58e0ccfa382b3dcd093e33fd7e5","id":73123374,"location_subtype":"","month":"2019-04"},{"category":"criminal-damage-arson","location_type":"Force","location":{"latitude":"53.482194","street":{"id":726793,"name":"On or near Sarah Street"},"longitude":"-2.364974"},"context":"","outcome_status":{"category":"Investigation complete; no suspect identified","date":"2019-04"},"persistent_id":"c9e6898d7fb17889ce0575150cdb5acb20f03bf116eb92f1e13cfcb8f1df7412","id":73127255,"location_subtype":"","month":"2019-04"},{"category":"criminal-damage-arson","location_type":"Force","location":{"latitude":"53.470267","street":{"id":723044,"name":"On or near Taylor Road"},"longitude":"-2.346583"},"context":"","outcome_status":{"category":"Investigation complete; no suspect identified","date":"2019-04"},"persistent_id":"ea38d790145c41be1efd2df746140c4e7fd503479904a18ce23a6602dc4525eb","id":73124824,"location_subtype":"","month":"2019-04"},{"category":"criminal-damage-arson","location_type":"Force","location":{"latitude":"53.481338","street":{"id":726753,"name":"On or near Eliza Ann Street"},"longitude":"-2.356649"},"context":"","outcome_status":{"category":"Investigation complete; no suspect identified","date":"2019-04"},"persistent_id":"9b41a45c5eb631850ac39df3a5c61072eb2de6935d02882014340648a12a86a3","id":73143967,"location_subtype":"","month":"2019-04"},{"category":"criminal-damage-arson","location_type":"Force","location":{"latitude":"53.488984","street":{"id":728381,"name":"On or near Sunnybank Avenue"},"longitude":"-2.339155"},"context":"","outcome_status":{"category":"Investigation complete; no suspect identified","date":"2019-04"},"persistent_id":"d2afbe1ddbc861d5264ae3677ac90f6906a6994b617140bcee42c427ee5a6a6b","id":73142174,"location_subtype":"","month":"2019-04"},{"category":"criminal-damage-arson","location_type":"Force","location":{"latitude":"53.484518","street":{"id":726647,"name":"On or near Shopping Area"},"longitude":"-2.335698"},"context":"","outcome_status":{"category":"Investigation complete; no suspect identified","date":"2019-05"},"persistent_id":"e93e68c228e787ff3d15529ddc3a2cea6de070947f1d0d658b38a6d61082fe8e","id":73132802,"location_subtype":"","month":"2019-04"},{"category":"criminal-damage-arson","location_type":"Force","location":{"latitude":"53.483437","street":{"id":726576,"name":"On or near Pedestrian Subway"},"longitude":"-2.336579"},"context":"","outcome_status":{"category":"Investigation complete; no suspect identified","date":"2019-05"},"persistent_id":"4932d1cf28a21401f0b13b81e8f5caf6485c2e94d882a4738846f91518d530bc","id":73130889,"location_subtype":"","month":"2019-04"},{"category":"criminal-damage-arson","location_type":"Force","location":{"latitude":"53.478675","street":{"id":726772,"name":"On or near Austen Road"},"longitude":"-2.348233"},"context":"","outcome_status":{"category":"Investigation complete; no suspect identified","date":"2019-06"},"persistent_id":"89f293c90b128aa69147dd17323a81bdc87ba043eeeedc8b1559290c0e676124","id":73131834,"location_subtype":"","month":"2019-04"},{"category":"criminal-damage-arson","location_type":"Force","location":{"latitude":"53.467652","street":{"id":723057,"name":"On or near Petrol Station"},"longitude":"-2.352497"},"context":"","outcome_status":{"category":"Investigation complete; no suspect identified","date":"2019-04"},"persistent_id":"3019051ebff252ae08b9d7bdaea78e31af6279a2c294a88c549bc6e6c97b2887","id":73148960,"location_subtype":"","month":"2019-04"},{"category":"criminal-damage-arson","location_type":"Force","location":{"latitude":"53.491088","street":{"id":728247,"name":"On or near Partington Street"},"longitude":"-2.351531"},"context":"","outcome_status":{"category":"Investigation complete; no suspect identified","date":"2019-04"},"persistent_id":"069c248445deb0e5bd412b4e4c5d653087a5b5e33368fc6cd3d0fce3b4517eb7","id":73146840,"location_subtype":"","month":"2019-04"},{"category":"criminal-damage-arson","location_type":"Force","location":{"latitude":"53.484989","street":{"id":726634,"name":"On or near Church Road"},"longitude":"-2.334361"},"context":"","outcome_status":{"category":"Investigation complete; no suspect identified","date":"2019-04"},"persistent_id":"1c5f63ade9dc159cbee32007196635d12e66422e92d407f24666beba554db8ab","id":73136216,"location_subtype":"","month":"2019-04"},{"category":"criminal-damage-arson","location_type":"Force","location":{"latitude":"53.483259","street":{"id":726597,"name":"On or near Shuttle Street"},"longitude":"-2.338943"},"context":"","outcome_status":{"category":"Investigation complete; no suspect identified","date":"2019-04"},"persistent_id":"76d7accf7903e6af86a47aff947feb200fcf38ebe6182edd223cc7eeeff4aa1b","id":73126389,"location_subtype":"","month":"2019-04"},{"category":"criminal-damage-arson","location_type":"Force","location":{"latitude":"53.483437","street":{"id":726576,"name":"On or near Pedestrian Subway"},"longitude":"-2.336579"},"context":"","outcome_status":{"category":"Investigation complete; no suspect identified","date":"2019-04"},"persistent_id":"246bddf210d09239a086009ebcc2f9a32869d9181eadd0ddefd2cbe829cdc7ae","id":73134558,"location_subtype":"","month":"2019-04"},{"category":"criminal-damage-arson","location_type":"Force","location":{"latitude":"53.467652","street":{"id":723057,"name":"On or near Petrol Station"},"longitude":"-2.352497"},"context":"","outcome_status":{"category":"Investigation complete; no suspect identified","date":"2019-05"},"persistent_id":"1270246eec7e20cf6ac1ef8590a32720dcbbe6b6adfbbe6edd17c269c9033ade","id":73139113,"location_subtype":"","month":"2019-04"},{"category":"criminal-damage-arson","location_type":"Force","location":{"latitude":"53.490608","street":{"id":728268,"name":"On or near Francis Street"},"longitude":"-2.352521"},"context":"","outcome_status":{"category":"Investigation complete; no suspect identified","date":"2019-05"},"persistent_id":"89e856d88d9bd05b39b49a3a53237df9a6a4f8d25ab729d5fb120bae33cb93c4","id":73147751,"location_subtype":"","month":"2019-04"},{"category":"criminal-damage-arson","location_type":"Force","location":{"latitude":"53.475184","street":{"id":723047,"name":"On or near Rockhouse Close"},"longitude":"-2.355678"},"context":"","outcome_status":{"category":"Status update unavailable","date":"2019-08"},"persistent_id":"f12b35098a3a9353970b02a9479eedd6850c5cf0e5c8eb900152bd194f0ec0c6","id":73146869,"location_subtype":"","month":"2019-04"},{"category":"criminal-damage-arson","location_type":"Force","location":{"latitude":"53.481938","street":{"id":726767,"name":"On or near Bradburn Street"},"longitude":"-2.351425"},"context":"","outcome_status":{"category":"Investigation complete; no suspect identified","date":"2019-04"},"persistent_id":"30433daaf38ad69f19128bd6811bfaf76d33131996b8f3b3e97b11e64e871c56","id":73143060,"location_subtype":"","month":"2019-04"},{"category":"criminal-damage-arson","location_type":"Force","location":{"latitude":"53.492067","street":{"id":728254,"name":"On or near Monton Green"},"longitude":"-2.354749"},"context":"","outcome_status":{"category":"Investigation complete; no suspect identified","date":"2019-05"},"persistent_id":"153615187df1d92acd9013e48912cee8d976eec04d606472edb3835b44c9a8f9","id":73142180,"location_subtype":"","month":"2019-04"},{"category":"criminal-damage-arson","location_type":"Force","location":{"latitude":"53.483371","street":{"id":726627,"name":"On or near College Croft"},"longitude":"-2.334288"},"context":"","outcome_status":{"category":"Status update unavailable","date":"2019-08"},"persistent_id":"340f1c113fe39253e30ca1049debcce40553f643399942b2b35872791482b895","id":73136151,"location_subtype":"","month":"2019-04"},{"category":"criminal-damage-arson","location_type":"Force","location":{"latitude":"53.484137","street":{"id":726579,"name":"On or near Pedestrian Subway"},"longitude":"-2.330556"},"context":"","outcome_status":{"category":"Investigation complete; no suspect identified","date":"2019-04"},"persistent_id":"8324567688ac806217cfea16d1e56f7fa894e010319b142504c9e7a2ce72c65a","id":73129075,"location_subtype":"","month":"2019-04"},{"category":"criminal-damage-arson","location_type":"Force","location":{"latitude":"53.478099","street":{"id":726924,"name":"On or near Supermarket"},"longitude":"-2.366551"},"context":"","outcome_status":{"category":"Investigation complete; no suspect identified","date":"2019-05"},"persistent_id":"4cf35a274719646979927b76ac50920873fa87ed6a9c826f51d6801eb2e24bc4","id":73137871,"location_subtype":"","month":"2019-04"},{"category":"criminal-damage-arson","location_type":"Force","location":{"latitude":"53.491972","street":{"id":728404,"name":"On or near Allington Drive"},"longitude":"-2.340957"},"context":"","outcome_status":{"category":"Investigation complete; no suspect identified","date":"2019-04"},"persistent_id":"7346d0ab6e075a86995129bf6d17023f1eb16e8a1e1c7685a46d7ba529c0ee90","id":73133635,"location_subtype":"","month":"2019-04"},{"category":"criminal-damage-arson","location_type":"Force","location":{"latitude":"53.470267","street":{"id":723044,"name":"On or near Taylor Road"},"longitude":"-2.346583"},"context":"","outcome_status":{"category":"Investigation complete; no suspect identified","date":"2019-04"},"persistent_id":"c2c421d8e97100b781f87b02bda04523e2360ca452d8ec787edcbf263d51dc80","id":73148914,"location_subtype":"","month":"2019-04"},{"category":"criminal-damage-arson","location_type":"Force","location":{"latitude":"53.472142","street":{"id":723073,"name":"On or near Ashburton Road West"},"longitude":"-2.338372"},"context":"","outcome_status":{"category":"Investigation complete; no suspect identified","date":"2019-04"},"persistent_id":"df228e628c9c0106d753ed0727be30fc926a4269d6c1d8893fab877a5b2217f0","id":73145390,"location_subtype":"","month":"2019-04"},{"category":"criminal-damage-arson","location_type":"Force","location":{"latitude":"53.475480","street":{"id":726861,"name":"On or near Reginald Street"},"longitude":"-2.370717"},"context":"","outcome_status":{"category":"Investigation complete; no suspect identified","date":"2019-04"},"persistent_id":"2c5760dd5ef957d7403b0070be5963be00b0c7a87343f0c9231ac97371bde1a1","id":73144981,"location_subtype":"","month":"2019-04"},{"category":"criminal-damage-arson","location_type":"Force","location":{"latitude":"53.482618","street":{"id":726742,"name":"On or near Gleaves Road"},"longitude":"-2.346337"},"context":"","outcome_status":{"category":"Investigation complete; no suspect identified","date":"2019-04"},"persistent_id":"26689e15362bc684e5fda4e25dbbd6e215389d0c0fb54de47239beca52bc70f2","id":73131824,"location_subtype":"","month":"2019-04"},{"category":"criminal-damage-arson","location_type":"Force","location":{"latitude":"53.484682","street":{"id":726642,"name":"On or near Albert Street"},"longitude":"-2.338096"},"context":"","outcome_status":{"category":"Investigation complete; no suspect identified","date":"2019-04"},"persistent_id":"557b405dff42916b3b3c04a57b35892006aa07750fc8813fef59b5ca34970875","id":73131806,"location_subtype":"","month":"2019-04"},{"category":"criminal-damage-arson","location_type":"Force","location":{"latitude":"53.482564","street":{"id":726756,"name":"On or near Dickens Road"},"longitude":"-2.349290"},"context":"","outcome_status":{"category":"Investigation complete; no suspect identified","date":"2019-04"},"persistent_id":"1f42a1e66729e14c9cd9b468fdacbe37b7122744ec9a75089dbf5f99dba57c8e","id":73130923,"location_subtype":"","month":"2019-04"},{"category":"criminal-damage-arson","location_type":"Force","location":{"latitude":"53.477166","street":{"id":726662,"name":"On or near School Road"},"longitude":"-2.360215"},"context":"","outcome_status":{"category":"Investigation complete; no suspect identified","date":"2019-04"},"persistent_id":"082e0b9fd23ec8bff128aca5ee0b3b899743cb2f5bdd94df06abf51fe5a064d4","id":73130887,"location_subtype":"","month":"2019-04"},{"category":"criminal-damage-arson","location_type":"Force","location":{"latitude":"53.482194","street":{"id":726793,"name":"On or near Sarah Street"},"longitude":"-2.364974"},"context":"","outcome_status":{"category":"Investigation complete; no suspect identified","date":"2019-04"},"persistent_id":"b5256f823c39cad85fc74ded8f86cc449a6ea5ea1e6b923c6f8faf77599b0b61","id":73127323,"location_subtype":"","month":"2019-04"},{"category":"criminal-damage-arson","location_type":"Force","location":{"latitude":"53.474974","street":{"id":723049,"name":"On or near Redclyffe Road"},"longitude":"-2.353808"},"context":"","outcome_status":{"category":"Investigation complete; no suspect identified","date":"2019-04"},"persistent_id":"f50b545a58766e8238a6223ba94a44f6b7c63bfa16ef22146ffbe3e3144a8cac","id":73127301,"location_subtype":"","month":"2019-04"},{"category":"criminal-damage-arson","location_type":"Force","location":{"latitude":"53.482194","street":{"id":726793,"name":"On or near Sarah Street"},"longitude":"-2.364974"},"context":"","outcome_status":{"category":"Investigation complete; no suspect identified","date":"2019-04"},"persistent_id":"c2e72df1390a2c20935c21e0a7c5a5bef6984389bbfe7c2a89a130c99d018f08","id":73126346,"location_subtype":"","month":"2019-04"},{"category":"drugs","location_type":"Force","location":{"latitude":"53.468126","street":{"id":723042,"name":"On or near Traders Avenue"},"longitude":"-2.343914"},"context":"","outcome_status":{"category":"Unable to prosecute suspect","date":"2019-04"},"persistent_id":"fcdd5e93a89be59170244898bfbc088ed4c2b7de51e44b7cf4f9c3482b75c2d0","id":73141728,"location_subtype":"","month":"2019-04"},{"category":"drugs","location_type":"Force","location":{"latitude":"53.478082","street":{"id":726826,"name":"On or near Darwell Avenue"},"longitude":"-2.357254"},"context":"","outcome_status":{"category":"Investigation complete; no suspect identified","date":"2019-04"},"persistent_id":"f51b6e6e4523d69cba046b019b30f7fa54230235c04c8fce7945c26503a80731","id":73123420,"location_subtype":"","month":"2019-04"},{"category":"drugs","location_type":"Force","location":{"latitude":"53.474768","street":{"id":723029,"name":"On or near Mount Street"},"longitude":"-2.359426"},"context":"","outcome_status":{"category":"Investigation complete; no suspect identified","date":"2019-04"},"persistent_id":"124f438111682327d8cb28a8d6705b30542ff482d36d73fba9b44890bb0680fc","id":73132756,"location_subtype":"","month":"2019-04"},{"category":"drugs","location_type":"Force","location":{"latitude":"53.482984","street":{"id":726741,"name":"On or near Hamilcar Avenue"},"longitude":"-2.346943"},"context":"","outcome_status":{"category":"Offender given a drugs possession warning","date":"2019-04"},"persistent_id":"25fc554f5fb4f09aa9bb3ee7487b3d4e9a7083d2c77f5639f92e5fc1082582ed","id":73133701,"location_subtype":"","month":"2019-04"},{"category":"drugs","location_type":"Force","location":{"latitude":"53.487466","street":{"id":726591,"name":"On or near Trafalgar Road"},"longitude":"-2.329030"},"context":"","outcome_status":{"category":"Formal action is not in the public interest","date":"2019-05"},"persistent_id":"96114becf2933aea0fa4698c2783ce611e30b89ad381e6526159a38cfb7c3f85","id":73134568,"location_subtype":"","month":"2019-04"},{"category":"drugs","location_type":"Force","location":{"latitude":"53.468126","street":{"id":723042,"name":"On or near Traders Avenue"},"longitude":"-2.343914"},"context":"","outcome_status":{"category":"Unable to prosecute suspect","date":"2019-04"},"persistent_id":"1416c614077f0d6cde84083c4605b904f4a52a4ceb28ee708726367b2c7343bd","id":73141736,"location_subtype":"","month":"2019-04"},{"category":"drugs","location_type":"Force","location":{"latitude":"53.482309","street":{"id":726608,"name":"On or near Kearton Drive"},"longitude":"-2.331703"},"context":"","outcome_status":{"category":"Investigation complete; no suspect identified","date":"2019-04"},"persistent_id":"4f09b0bc7c707102ecf32c3cf2fa95dd3feb3824b75ee1952f8833b88a74f928","id":73136206,"location_subtype":"","month":"2019-04"},{"category":"drugs","location_type":"Force","location":{"latitude":"53.478675","street":{"id":726772,"name":"On or near Austen Road"},"longitude":"-2.348233"},"context":"","outcome_status":{"category":"Investigation complete; no suspect identified","date":"2019-04"},"persistent_id":"ce815ab9e0a9478ca9e40432b41fbc6e44945cca8351d14260a0d830c49b18b6","id":73145940,"location_subtype":"","month":"2019-04"},{"category":"other-theft","location_type":"Force","location":{"latitude":"53.483259","street":{"id":726597,"name":"On or near Shuttle Street"},"longitude":"-2.338943"},"context":"","outcome_status":{"category":"Investigation complete; no suspect identified","date":"2019-04"},"persistent_id":"35ec7f65ede68b58d6fc54b6abcc2b734d5bccc50d3f8aa404100eabec1a787e","id":73127259,"location_subtype":"","month":"2019-04"},{"category":"other-theft","location_type":"Force","location":{"latitude":"53.468375","street":{"id":710181,"name":"On or near Trafford Boulevard"},"longitude":"-2.354175"},"context":"","outcome_status":{"category":"Investigation complete; no suspect identified","date":"2019-04"},"persistent_id":"c4b41017fe3ff8011a5d5576dbcb4e23046d9eebb32e6a4c759faf8329cea323","id":73124847,"location_subtype":"","month":"2019-04"},{"category":"other-theft","location_type":"Force","location":{"latitude":"53.483088","street":{"id":726700,"name":"On or near Vane Street"},"longitude":"-2.354388"},"context":"","outcome_status":{"category":"Unable to prosecute suspect","date":"2019-05"},"persistent_id":"93adcdd88182f298ac28e30d3d8f3a027a18374c9c3fa2d5f973280eae4c49c2","id":73144023,"location_subtype":"","month":"2019-04"},{"category":"other-theft","location_type":"Force","location":{"latitude":"53.467652","street":{"id":723057,"name":"On or near Petrol Station"},"longitude":"-2.352497"},"context":"","outcome_status":{"category":"Investigation complete; no suspect identified","date":"2019-04"},"persistent_id":"39185955e309c7aeb125e6622440a7b256eb3ff410711a154e033b1c2e0e48e7","id":73138217,"location_subtype":"","month":"2019-04"},{"category":"other-theft","location_type":"Force","location":{"latitude":"53.467495","street":{"id":723039,"name":"On or near Parking Area"},"longitude":"-2.347630"},"context":"","outcome_status":{"category":"Investigation complete; no suspect identified","date":"2019-04"},"persistent_id":"b1071dd439f2f7cae01662084c0c606b63439e7a26bf2f601a7d6fc002b6c677","id":73135725,"location_subtype":"","month":"2019-04"},{"category":"other-theft","location_type":"Force","location":{"latitude":"53.481807","street":{"id":726646,"name":"On or near Petrol Station"},"longitude":"-2.337560"},"context":"","outcome_status":{"category":"Investigation complete; no suspect identified","date":"2019-04"},"persistent_id":"03bd5151ed8e01dd268be1de23c9324fa8040201401ee378f85ec62a20f649b4","id":73125407,"location_subtype":"","month":"2019-04"},{"category":"other-theft","location_type":"Force","location":{"latitude":"53.466179","street":{"id":723059,"name":"On or near Shopping Area"},"longitude":"-2.349005"},"context":"","outcome_status":{"category":"Investigation complete; no suspect identified","date":"2019-04"},"persistent_id":"804b604f36440dd15cca9b74ae74dd01e06702428061b0a2d1056b8d43a8d865","id":73139104,"location_subtype":"","month":"2019-04"},{"category":"other-theft","location_type":"Force","location":{"latitude":"53.467652","street":{"id":723057,"name":"On or near Petrol Station"},"longitude":"-2.352497"},"context":"","outcome_status":{"category":"Investigation complete; no suspect identified","date":"2019-05"},"persistent_id":"99df0911a49791fe5bb7fd06bdf64e4a5910acf860fcf6d43fbe7171ea156ef1","id":73134901,"location_subtype":"","month":"2019-04"},{"category":"other-theft","location_type":"Force","location":{"latitude":"53.478045","street":{"id":726749,"name":"On or near Enfield Close"},"longitude":"-2.354662"},"context":"","outcome_status":{"category":"Investigation complete; no suspect identified","date":"2019-04"},"persistent_id":"d4f0698c4750bd36df67719c1b2d768bcb38ab8aa5d4119d745790ef14cc435c","id":73148548,"location_subtype":"","month":"2019-04"},{"category":"other-theft","location_type":"Force","location":{"latitude":"53.481152","street":{"id":726569,"name":"On or near Centenary Way"},"longitude":"-2.327354"},"context":"","outcome_status":{"category":"Investigation complete; no suspect identified","date":"2019-05"},"persistent_id":"8fec1ed3f8bb31af376c79d8e8781fcc99f396bae5063ec516347b99a90ffbca","id":73149396,"location_subtype":"","month":"2019-04"},{"category":"other-theft","location_type":"Force","location":{"latitude":"53.468126","street":{"id":723042,"name":"On or near Traders Avenue"},"longitude":"-2.343914"},"context":"","outcome_status":{"category":"Status update unavailable","date":"2019-08"},"persistent_id":"0f94c80f5682b5a0c088bfbb192daf4aed29fad71d30ec6ee92b8fd50f9f8885","id":73149790,"location_subtype":"","month":"2019-04"},{"category":"other-theft","location_type":"Force","location":{"latitude":"53.471069","street":{"id":723048,"name":"On or near Robson Avenue"},"longitude":"-2.345972"},"context":"","outcome_status":{"category":"Status update unavailable","date":"2019-08"},"persistent_id":"0ba41acf0bbe827c93979f787c4fa40d293b57912dd0a4bef4143521f4cf1a3a","id":73148928,"location_subtype":"","month":"2019-04"},{"category":"other-theft","location_type":"Force","location":{"latitude":"53.482549","street":{"id":710492,"name":"On or near Andoc Avenue"},"longitude":"-2.332699"},"context":"","outcome_status":{"category":"Unable to prosecute suspect","date":"2019-04"},"persistent_id":"8d8dda5183ebd399ca433b62ed4d3914d541e8bcd72504d6e896d49da3ccb9aa","id":73137057,"location_subtype":"","month":"2019-04"},{"category":"other-theft","location_type":"Force","location":{"latitude":"53.466179","street":{"id":723059,"name":"On or near Shopping Area"},"longitude":"-2.349005"},"context":"","outcome_status":{"category":"Investigation complete; no suspect identified","date":"2019-04"},"persistent_id":"9930f4b94bb9ffca87e5ab9867e1a2957fadb210da04f6426b0a16de4b67ae18","id":73136572,"location_subtype":"","month":"2019-04"},{"category":"other-theft","location_type":"Force","location":{"latitude":"53.487157","street":{"id":726578,"name":"On or near Pedestrian Subway"},"longitude":"-2.330414"},"context":"","outcome_status":{"category":"Investigation complete; no suspect identified","date":"2019-04"},"persistent_id":"b765eb1f74b13ac33a82d6021acc4697083c908634187cd306dcab389617e7b4","id":73146906,"location_subtype":"","month":"2019-04"},{"category":"other-theft","location_type":"Force","location":{"latitude":"53.480945","street":{"id":726641,"name":"On or near Alma Street"},"longitude":"-2.340266"},"context":"","outcome_status":{"category":"Unable to prosecute suspect","date":"2019-04"},"persistent_id":"a250d322e130e49f6fe22a9c70fc3ff6e75a527a5c22c41efe7f86548dbd1fc0","id":73130921,"location_subtype":"","month":"2019-04"},{"category":"other-theft","location_type":"Force","location":{"latitude":"53.477736","street":{"id":726738,"name":"On or near Hazelmere Close"},"longitude":"-2.346674"},"context":"","outcome_status":{"category":"Investigation complete; no suspect identified","date":"2019-04"},"persistent_id":"936cee5da4695ea5609fa53a7174111d2faad9baadb1485083cce6ddc36317ce","id":73125455,"location_subtype":"","month":"2019-04"},{"category":"other-theft","location_type":"Force","location":{"latitude":"53.478045","street":{"id":726749,"name":"On or near Enfield Close"},"longitude":"-2.354662"},"context":"","outcome_status":{"category":"Investigation complete; no suspect identified","date":"2019-04"},"persistent_id":"d5b73213ce25c21e5ca682ad786d19469b58976bbfa7708d4b1c3edb58f4e71b","id":73137863,"location_subtype":"","month":"2019-04"},{"category":"other-theft","location_type":"Force","location":{"latitude":"53.483501","street":{"id":726719,"name":"On or near Othello Drive"},"longitude":"-2.351739"},"context":"","outcome_status":{"category":"Unable to prosecute suspect","date":"2019-05"},"persistent_id":"5fd7cb7e623bcecaebcbd3a0faa4f115891580dc8ffffdb8f94dff347ea06e3f","id":73142200,"location_subtype":"","month":"2019-04"},{"category":"other-theft","location_type":"Force","location":{"latitude":"53.483437","street":{"id":726576,"name":"On or near Pedestrian Subway"},"longitude":"-2.336579"},"context":"","outcome_status":{"category":"Investigation complete; no suspect identified","date":"2019-04"},"persistent_id":"054591dd093b219dacdd3df0d959a659fe2402cdd91ad11e0e2968df2be5cab9","id":73141338,"location_subtype":"","month":"2019-04"},{"category":"other-theft","location_type":"Force","location":{"latitude":"53.478859","street":{"id":726810,"name":"On or near John Street"},"longitude":"-2.364930"},"context":"","outcome_status":{"category":"Investigation complete; no suspect identified","date":"2019-05"},"persistent_id":"d92884ccd3c7ae40b09c7dbbc0e56c28430120f885b7ed9a2578cc4efd863324","id":73146891,"location_subtype":"","month":"2019-04"},{"category":"other-theft","location_type":"Force","location":{"latitude":"53.478859","street":{"id":726810,"name":"On or near John Street"},"longitude":"-2.364930"},"context":"","outcome_status":{"category":"Investigation complete; no suspect identified","date":"2019-04"},"persistent_id":"d01902e3ab9916a1159977401d88d060d50c56ab73c5f0ef3b2c60e635550aa2","id":73144950,"location_subtype":"","month":"2019-04"},{"category":"other-theft","location_type":"Force","location":{"latitude":"53.466179","street":{"id":723059,"name":"On or near Shopping Area"},"longitude":"-2.349005"},"context":"","outcome_status":{"category":"Status update unavailable","date":"2019-08"},"persistent_id":"57062f7d47fef3b9d3cf06dd05880f66087b4dc228f6c21d9571238cce629c74","id":73146383,"location_subtype":"","month":"2019-04"},{"category":"other-theft","location_type":"Force","location":{"latitude":"53.466179","street":{"id":723059,"name":"On or near Shopping Area"},"longitude":"-2.349005"},"context":"","outcome_status":{"category":"Investigation complete; no suspect identified","date":"2019-04"},"persistent_id":"917a3479b66ea672d2487e556cc00d102120c313aade46aee532207313568c2c","id":73140861,"location_subtype":"","month":"2019-04"},{"category":"other-theft","location_type":"Force","location":{"latitude":"53.476766","street":{"id":726561,"name":"On or near Shopping Area"},"longitude":"-2.327230"},"context":"","outcome_status":{"category":"Further investigation is not in the public interest","date":"2019-04"},"persistent_id":"e45d9cb36d5b737f8ed5e0d579d91cb04d3fabb91e28bfd0a23cebf4e1033a70","id":73145356,"location_subtype":"","month":"2019-04"},{"category":"other-theft","location_type":"Force","location":{"latitude":"53.467963","street":{"id":723041,"name":"On or near Trafford Boulevard"},"longitude":"-2.353493"},"context":"","outcome_status":{"category":"Investigation complete; no suspect identified","date":"2019-04"},"persistent_id":"be12d1dca783c6c6a16c91f6da007d1237ac7d9aa1ee3b8a92b0c8a2ad0f8330","id":73147274,"location_subtype":"","month":"2019-04"},{"category":"possession-of-weapons","location_type":"Force","location":{"latitude":"53.487466","street":{"id":726591,"name":"On or near Trafalgar Road"},"longitude":"-2.329030"},"context":"","outcome_status":{"category":"Court result unavailable","date":"2019-10"},"persistent_id":"97d348305efb2416ad008bccb264fe55cd85dd041da11119f03803b0a62f5a56","id":73134555,"location_subtype":"","month":"2019-04"},{"category":"possession-of-weapons","location_type":"Force","location":{"latitude":"53.474974","street":{"id":723049,"name":"On or near Redclyffe Road"},"longitude":"-2.353808"},"context":"","outcome_status":{"category":"Investigation complete; no suspect identified","date":"2019-04"},"persistent_id":"fd447d01849551d2e3f28db4974af886969baa0af796f813cbad90789db862e9","id":73126772,"location_subtype":"","month":"2019-04"},{"category":"possession-of-weapons","location_type":"Force","location":{"latitude":"53.475412","street":{"id":723027,"name":"On or near Calver Avenue"},"longitude":"-2.360622"},"context":"","outcome_status":{"category":"Investigation complete; no suspect identified","date":"2019-04"},"persistent_id":"47684824950514c09431652119d5e0a035f640de78ba1ee116a8b2bdcfbbb8af","id":73128229,"location_subtype":"","month":"2019-04"},{"category":"possession-of-weapons","location_type":"Force","location":{"latitude":"53.475412","street":{"id":723027,"name":"On or near Calver Avenue"},"longitude":"-2.360622"},"context":"","outcome_status":{"category":"Investigation complete; no suspect identified","date":"2019-04"},"persistent_id":"3afbac937cc2accd4495893ce009046e69da8393e41d852b829d908b8c6fce8b","id":73144988,"location_subtype":"","month":"2019-04"},{"category":"possession-of-weapons","location_type":"Force","location":{"latitude":"53.478834","street":{"id":726775,"name":"On or near Alba Close"},"longitude":"-2.355286"},"context":"","outcome_status":{"category":"Investigation complete; no suspect identified","date":"2019-04"},"persistent_id":"05b2108215218615f0381e3f068ebc0d14434c58a3fa8091de0ce74e365129cd","id":73128191,"location_subtype":"","month":"2019-04"},{"category":"public-order","location_type":"Force","location":{"latitude":"53.474974","street":{"id":723049,"name":"On or near Redclyffe Road"},"longitude":"-2.353808"},"context":"","outcome_status":{"category":"Status update unavailable","date":"2019-08"},"persistent_id":"56015d1c526250a06d75400eeb2825c46354926e11d7de143f4b91a75b115782","id":73145401,"location_subtype":"","month":"2019-04"},{"category":"public-order","location_type":"Force","location":{"latitude":"53.481152","street":{"id":726569,"name":"On or near Centenary Way"},"longitude":"-2.327354"},"context":"","outcome_status":{"category":"Investigation complete; no suspect identified","date":"2019-05"},"persistent_id":"d503812dd792f1cc28b3cfe801df4fb20381e16446d6c5dccd44a01e86429d96","id":73149450,"location_subtype":"","month":"2019-04"},{"category":"public-order","location_type":"Force","location":{"latitude":"53.467998","street":{"id":723046,"name":"On or near South Avenue"},"longitude":"-2.344832"},"context":"","outcome_status":{"category":"Investigation complete; no suspect identified","date":"2019-05"},"persistent_id":"6cd611e5271c53cfc1ad5b9abf1eac4113b69e56a93e5befe89c2c3a27ee7cc5","id":73149807,"location_subtype":"","month":"2019-04"},{"category":"public-order","location_type":"Force","location":{"latitude":"53.491088","street":{"id":728247,"name":"On or near Partington Street"},"longitude":"-2.351531"},"context":"","outcome_status":{"category":"Investigation complete; no suspect identified","date":"2019-04"},"persistent_id":"6f705fbebd25b8392d334501b76aa0d979e280e2b6d81ead464c9e554696a5f2","id":73148510,"location_subtype":"","month":"2019-04"},{"category":"public-order","location_type":"Force","location":{"latitude":"53.483341","street":{"id":726631,"name":"On or near Church Street"},"longitude":"-2.341732"},"context":"","outcome_status":{"category":"Investigation complete; no suspect identified","date":"2019-04"},"persistent_id":"73d5fe8e6f5fff6bc78d27b868250c3d1484f312c3344f43cdff4bbca4be510e","id":73134544,"location_subtype":"","month":"2019-04"},{"category":"public-order","location_type":"Force","location":{"latitude":"53.483762","street":{"id":726727,"name":"On or near Lynwood Avenue"},"longitude":"-2.348351"},"context":"","outcome_status":{"category":"Unable to prosecute suspect","date":"2019-04"},"persistent_id":"968dffcc991ef1118fe55b3765691c712fcc49ed04b344501a9522a8220559a2","id":73127281,"location_subtype":"","month":"2019-04"},{"category":"public-order","location_type":"Force","location":{"latitude":"53.483341","street":{"id":726631,"name":"On or near Church Street"},"longitude":"-2.341732"},"context":"","outcome_status":{"category":"Investigation complete; no suspect identified","date":"2019-04"},"persistent_id":"6bf9924253141dfbed827ff35a5a118d04bd41120e63366f42dda4b900e40c8e","id":73123435,"location_subtype":"","month":"2019-04"},{"category":"public-order","location_type":"Force","location":{"latitude":"53.486618","street":{"id":726827,"name":"On or near Dartford Avenue"},"longitude":"-2.364288"},"context":"","outcome_status":{"category":"Status update unavailable","date":"2019-08"},"persistent_id":"0eb953f23b5eb552901dc05bfd606ac003abacbbc2baecd43caa245f0f9efaf8","id":73124416,"location_subtype":"","month":"2019-04"},{"category":"public-order","location_type":"Force","location":{"latitude":"53.482461","street":{"id":726648,"name":"On or near Supermarket"},"longitude":"-2.335079"},"context":"","outcome_status":{"category":"Investigation complete; no suspect identified","date":"2019-04"},"persistent_id":"51da144cd846d9df15b795ee35c8f1215d368313a54a3ce2471be13c1c1b00db","id":73129917,"location_subtype":"","month":"2019-04"},{"category":"public-order","location_type":"Force","location":{"latitude":"53.480533","street":{"id":726736,"name":"On or near Irlam Avenue"},"longitude":"-2.349334"},"context":"","outcome_status":{"category":"Status update unavailable","date":"2019-08"},"persistent_id":"c4afb6dac00561e27d377fb2117f885fa35d38a3b418b421f3b0c9b5750df0f0","id":73130885,"location_subtype":"","month":"2019-04"},{"category":"public-order","location_type":"Force","location":{"latitude":"53.484382","street":{"id":726879,"name":"On or near Portree Close"},"longitude":"-2.369393"},"context":"","outcome_status":{"category":"Investigation complete; no suspect identified","date":"2019-04"},"persistent_id":"5717305bc7d9fe15f53bafee9b095a66e77b38abab36c71798a607d981180a43","id":73127251,"location_subtype":"","month":"2019-04"},{"category":"public-order","location_type":"Force","location":{"latitude":"53.483890","street":{"id":726745,"name":"On or near Franklin Street"},"longitude":"-2.353882"},"context":"","outcome_status":{"category":"Further investigation is not in the public interest","date":"2019-04"},"persistent_id":"0a41442e770b9b26c4795771fce57669783b525a19c19767ab9f9537ec76a970","id":73127276,"location_subtype":"","month":"2019-04"},{"category":"public-order","location_type":"Force","location":{"latitude":"53.468375","street":{"id":710181,"name":"On or near Trafford Boulevard"},"longitude":"-2.354175"},"context":"","outcome_status":{"category":"Investigation complete; no suspect identified","date":"2019-04"},"persistent_id":"ccfd1d6fafe55db483ed4fa43903fea1ec98552f179c440ee231f2720adf9d36","id":73127660,"location_subtype":"","month":"2019-04"},{"category":"public-order","location_type":"Force","location":{"latitude":"53.476766","street":{"id":726561,"name":"On or near Shopping Area"},"longitude":"-2.327230"},"context":"","outcome_status":{"category":"Investigation complete; no suspect identified","date":"2019-04"},"persistent_id":"96a6b390f85674109f1c465cac445b240422b5b1027bcbcd2388652c329bb3e9","id":73127666,"location_subtype":"","month":"2019-04"},{"category":"public-order","location_type":"Force","location":{"latitude":"53.468375","street":{"id":710181,"name":"On or near Trafford Boulevard"},"longitude":"-2.354175"},"context":"","outcome_status":{"category":"Status update unavailable","date":"2019-08"},"persistent_id":"e28868da75f4d99c83b48b148444a915ae4f0c85a850296b559e0fd57c479527","id":73133131,"location_subtype":"","month":"2019-04"},{"category":"public-order","location_type":"Force","location":{"latitude":"53.483341","street":{"id":726631,"name":"On or near Church Street"},"longitude":"-2.341732"},"context":"","outcome_status":{"category":"Status update unavailable","date":"2019-08"},"persistent_id":"9bee7e0c5dd9381cb54e84dabd6107e502ac353c59542f72aeb81a26b201472a","id":73133621,"location_subtype":"","month":"2019-04"},{"category":"public-order","location_type":"Force","location":{"latitude":"53.474851","street":{"id":723065,"name":"On or near Kestrel Road"},"longitude":"-2.333799"},"context":"","outcome_status":{"category":"Unable to prosecute suspect","date":"2019-04"},"persistent_id":"49930f5392a35e56183598c5cd28601e2384bc41bdedbacdaca5425e3c53ba3d","id":73134895,"location_subtype":"","month":"2019-04"},{"category":"public-order","location_type":"Force","location":{"latitude":"53.481073","street":{"id":726843,"name":"On or near Aldred Street"},"longitude":"-2.361061"},"context":"","outcome_status":{"category":"Status update unavailable","date":"2019-08"},"persistent_id":"7e3054f4de674364b47a18a49cefc727b1ec465d12567a6cb1621fcbefdcea5b","id":73136144,"location_subtype":"","month":"2019-04"},{"category":"public-order","location_type":"Force","location":{"latitude":"53.483371","street":{"id":726627,"name":"On or near College Croft"},"longitude":"-2.334288"},"context":"","outcome_status":{"category":"Unable to prosecute suspect","date":"2019-05"},"persistent_id":"7d90f0dea05a437eb268670f5b4d649ea89edf13feaf90620f0ded6050dcd482","id":73137067,"location_subtype":"","month":"2019-04"},{"category":"public-order","location_type":"Force","location":{"latitude":"53.483088","street":{"id":726700,"name":"On or near Vane Street"},"longitude":"-2.354388"},"context":"","outcome_status":{"category":"Unable to prosecute suspect","date":"2019-04"},"persistent_id":"f83aaf3930a01c278a12042de6c4e74576e07eb32379345be2de43049a3a0a0d","id":73138757,"location_subtype":"","month":"2019-04"},{"category":"public-order","location_type":"Force","location":{"latitude":"53.483833","street":{"id":726708,"name":"On or near Richardson Road"},"longitude":"-2.345608"},"context":"","outcome_status":{"category":"Status update unavailable","date":"2019-08"},"persistent_id":"4cf710aa0e4d48bc59dd5d5829f85e054183353520bf1d0fd588975eaf4ab5da","id":73138706,"location_subtype":"","month":"2019-04"},{"category":"public-order","location_type":"Force","location":{"latitude":"53.480533","street":{"id":726736,"name":"On or near Irlam Avenue"},"longitude":"-2.349334"},"context":"","outcome_status":{"category":"Investigation complete; no suspect identified","date":"2019-05"},"persistent_id":"f12309025031d73513377b5cc7483531c832340bd738bc0e5f147d9a572cd197","id":73138709,"location_subtype":"","month":"2019-04"},{"category":"public-order","location_type":"Force","location":{"latitude":"53.483762","street":{"id":726727,"name":"On or near Lynwood Avenue"},"longitude":"-2.348351"},"context":"","outcome_status":{"category":"Investigation complete; no suspect identified","date":"2019-04"},"persistent_id":"64ae78acabf017997505f2fa0291657d351592bba84aa633d999a687047f7e03","id":73138786,"location_subtype":"","month":"2019-04"},{"category":"public-order","location_type":"Force","location":{"latitude":"53.482309","street":{"id":726608,"name":"On or near Kearton Drive"},"longitude":"-2.331703"},"context":"","outcome_status":{"category":"Further investigation is not in the public interest","date":"2019-04"},"persistent_id":"a387a2109f207cf0394ad9ddeef3db7e340d1698896d2b8b7d643a2d623ef52e","id":73140408,"location_subtype":"","month":"2019-04"},{"category":"public-order","location_type":"Force","location":{"latitude":"53.468126","street":{"id":723042,"name":"On or near Traders Avenue"},"longitude":"-2.343914"},"context":"","outcome_status":{"category":"Unable to prosecute suspect","date":"2019-04"},"persistent_id":"c9f27ef39fd54137cb215aace636cbbfdc0175558963d72a47a948974ab656a3","id":73141763,"location_subtype":"","month":"2019-04"},{"category":"public-order","location_type":"Force","location":{"latitude":"53.487992","street":{"id":726723,"name":"On or near Monton Avenue"},"longitude":"-2.346727"},"context":"","outcome_status":{"category":"Investigation complete; no suspect identified","date":"2019-05"},"persistent_id":"8a4968cc0b38590617457e5741ecf5023b0ed54620742770a8fe43bf208cee36","id":73142233,"location_subtype":"","month":"2019-04"},{"category":"public-order","location_type":"Force","location":{"latitude":"53.481214","street":{"id":726718,"name":"On or near Parr Street"},"longitude":"-2.353091"},"context":"","outcome_status":{"category":"Unable to prosecute suspect","date":"2019-05"},"persistent_id":"9bb6dc333320401e78e5f3e85485c3a0fc731bb4600f693eb9a47982772182cb","id":73142241,"location_subtype":"","month":"2019-04"},{"category":"public-order","location_type":"Force","location":{"latitude":"53.487992","street":{"id":726723,"name":"On or near Monton Avenue"},"longitude":"-2.346727"},"context":"","outcome_status":{"category":"Status update unavailable","date":"2019-08"},"persistent_id":"e5e373ed7a42e4ae62d00fb00dabdf5cb276bee6366f3a7de2f029f00d50f449","id":73142182,"location_subtype":"","month":"2019-04"},{"category":"public-order","location_type":"Force","location":{"latitude":"53.484316","street":{"id":726757,"name":"On or near Devonshire Road"},"longitude":"-2.346607"},"context":"","outcome_status":{"category":"Investigation complete; no suspect identified","date":"2019-04"},"persistent_id":"83d5a3832c7c1bd0c6225d87e572848e8a187616f5842891a8350383fbb79962","id":73142999,"location_subtype":"","month":"2019-04"},{"category":"public-order","location_type":"Force","location":{"latitude":"53.483437","street":{"id":726576,"name":"On or near Pedestrian Subway"},"longitude":"-2.336579"},"context":"","outcome_status":{"category":"Investigation complete; no suspect identified","date":"2019-04"},"persistent_id":"cd3d263475b61ab195244bd60e0d68e91f4ed5d679fa91adac0b6ce55372dd38","id":73147759,"location_subtype":"","month":"2019-04"},{"category":"public-order","location_type":"Force","location":{"latitude":"53.484989","street":{"id":726634,"name":"On or near Church Road"},"longitude":"-2.334361"},"context":"","outcome_status":{"category":"Local resolution","date":"2019-05"},"persistent_id":"9f3d46ed04bb6f0195ee98f9b461fcca6365eef6d6bc2301915fdf61835a301f","id":73147764,"location_subtype":"","month":"2019-04"},{"category":"public-order","location_type":"Force","location":{"latitude":"53.467495","street":{"id":723039,"name":"On or near Parking Area"},"longitude":"-2.347630"},"context":"","outcome_status":{"category":"Investigation complete; no suspect identified","date":"2019-04"},"persistent_id":"e19d0b8921ee061c00da6d6b7855b5b35c79c749c44ae58016519f669a58acda","id":73148920,"location_subtype":"","month":"2019-04"},{"category":"public-order","location_type":"Force","location":{"latitude":"53.478906","street":{"id":726770,"name":"On or near Barton Lane"},"longitude":"-2.346081"},"context":"","outcome_status":{"category":"Status update unavailable","date":"2019-08"},"persistent_id":"f05035edf4d74c18949fb73998e9aa01fbf2975cd274d22d783f3418f23e8425","id":73149445,"location_subtype":"","month":"2019-04"},{"category":"public-order","location_type":"Force","location":{"latitude":"53.484101","street":{"id":726581,"name":"On or near Parking Area"},"longitude":"-2.336795"},"context":"","outcome_status":{"category":"Investigation complete; no suspect identified","date":"2019-04"},"persistent_id":"059659fb25e124340524045f639f251e5ae8c72d38c0181587434bcde0218805","id":73148558,"location_subtype":"","month":"2019-04"},{"category":"public-order","location_type":"Force","location":{"latitude":"53.475546","street":{"id":726673,"name":"On or near Ashridge Drive"},"longitude":"-2.357835"},"context":"","outcome_status":{"category":"Court result unavailable","date":"2019-12"},"persistent_id":"292ef7a48d4a665d53ba5cdedaa717f072c0ad820000e98330420cdd50ddd5a3","id":73142168,"location_subtype":"","month":"2019-04"},{"category":"public-order","location_type":"Force","location":{"latitude":"53.482727","street":{"id":726607,"name":"On or near Lane End"},"longitude":"-2.333243"},"context":"","outcome_status":{"category":"Formal action is not in the public interest","date":"2019-04"},"persistent_id":"5ba3a2022dd176eeb60f8da1517a1746fba9457f6e9e27725227b109b730f18b","id":73133633,"location_subtype":"","month":"2019-04"},{"category":"public-order","location_type":"Force","location":{"latitude":"53.484797","street":{"id":726590,"name":"On or near Trevelyan Street"},"longitude":"-2.332099"},"context":"","outcome_status":{"category":"Investigation complete; no suspect identified","date":"2019-04"},"persistent_id":"ce55b702d987e7af67142fa5a41c395da3a8616cdbd35cd35595ff0fd47f48c7","id":73145946,"location_subtype":"","month":"2019-04"},{"category":"public-order","location_type":"Force","location":{"latitude":"53.481219","street":{"id":726797,"name":"On or near Owen Street"},"longitude":"-2.363293"},"context":"","outcome_status":{"category":"Investigation complete; no suspect identified","date":"2019-04"},"persistent_id":"362a5e0d6b6c331dc4834302a1857916ad15f681f190429fab57fabe6b030074","id":73138770,"location_subtype":"","month":"2019-04"},{"category":"public-order","location_type":"Force","location":{"latitude":"53.482194","street":{"id":726793,"name":"On or near Sarah Street"},"longitude":"-2.364974"},"context":"","outcome_status":{"category":"Investigation complete; no suspect identified","date":"2019-04"},"persistent_id":"4925e129e48557eeabc5f42d5b9d3b846abce1d1d2593ea3775486cba6b95c0f","id":73123397,"location_subtype":"","month":"2019-04"},{"category":"public-order","location_type":"Force","location":{"latitude":"53.482984","street":{"id":726741,"name":"On or near Hamilcar Avenue"},"longitude":"-2.346943"},"context":"","outcome_status":{"category":"Investigation complete; no suspect identified","date":"2019-04"},"persistent_id":"8dff021813651055371c7216c5609ec41abd6619422284a772b54b02b8af38b1","id":73130924,"location_subtype":"","month":"2019-04"},{"category":"public-order","location_type":"Force","location":{"latitude":"53.483088","street":{"id":726700,"name":"On or near Vane Street"},"longitude":"-2.354388"},"context":"","outcome_status":{"category":"Investigation complete; no suspect identified","date":"2019-04"},"persistent_id":"39ce9e807a3001ba7b5fe59e2168f09087ed14493721d5eab08211e18d864968","id":73131787,"location_subtype":"","month":"2019-04"},{"category":"public-order","location_type":"Force","location":{"latitude":"53.478675","street":{"id":726772,"name":"On or near Austen Road"},"longitude":"-2.348233"},"context":"","outcome_status":{"category":"Unable to prosecute suspect","date":"2019-04"},"persistent_id":"04ad6ddd3d6881dc7031426049da1f8f5a22c5bf23af755a477fca1847121837","id":73131800,"location_subtype":"","month":"2019-04"},{"category":"public-order","location_type":"Force","location":{"latitude":"53.487157","street":{"id":726578,"name":"On or near Pedestrian Subway"},"longitude":"-2.330414"},"context":"","outcome_status":{"category":"Offender given community sentence","date":"2019-05"},"persistent_id":"29181c5307457f8bbdebd13a90c68d4a4d8ef874601c97453ce199db6ddb63d9","id":73146881,"location_subtype":"","month":"2019-04"},{"category":"public-order","location_type":"Force","location":{"latitude":"53.484370","street":{"id":726836,"name":"On or near Barlow Lane"},"longitude":"-2.361677"},"context":"","outcome_status":{"category":"Unable to prosecute suspect","date":"2019-06"},"persistent_id":"c9603c52dfd6eb4683738602f806d7f169b0eea12a51686bbea406a444bd2358","id":73141352,"location_subtype":"","month":"2019-04"},{"category":"public-order","location_type":"Force","location":{"latitude":"53.484212","street":{"id":726595,"name":"On or near St Mary's Road"},"longitude":"-2.332606"},"context":"","outcome_status":{"category":"Investigation complete; no suspect identified","date":"2019-06"},"persistent_id":"0decd267ef6ad968182ecd6b8f82d12e5bf7281c75ac9ad5ae719706eaaf2430","id":73129914,"location_subtype":"","month":"2019-04"},{"category":"public-order","location_type":"Force","location":{"latitude":"53.484212","street":{"id":726595,"name":"On or near St Mary's Road"},"longitude":"-2.332606"},"context":"","outcome_status":{"category":"Investigation complete; no suspect identified","date":"2019-06"},"persistent_id":"0db0b5010a4555d00ec3f2c213f72adb6797a6d0085c385e2647d5d60f942219","id":73129998,"location_subtype":"","month":"2019-04"},{"category":"public-order","location_type":"Force","location":{"latitude":"53.468126","street":{"id":723042,"name":"On or near Traders Avenue"},"longitude":"-2.343914"},"context":"","outcome_status":{"category":"Investigation complete; no suspect identified","date":"2019-05"},"persistent_id":"9c61ee05e0503b02f8b57d9f17af202849c5253019c8539a0bc87ebb19154bcf","id":73127641,"location_subtype":"","month":"2019-04"},{"category":"public-order","location_type":"Force","location":{"latitude":"53.492045","street":{"id":728282,"name":"On or near B5229"},"longitude":"-2.356015"},"context":"","outcome_status":{"category":"Investigation complete; no suspect identified","date":"2019-05"},"persistent_id":"e341676f41fcd53f7bfccdc7aaadc1414cb993673a9c608b4a846c6cb22a0c23","id":73145960,"location_subtype":"","month":"2019-04"},{"category":"robbery","location_type":"Force","location":{"latitude":"53.478099","street":{"id":726924,"name":"On or near Supermarket"},"longitude":"-2.366551"},"context":"","outcome_status":{"category":"Investigation complete; no suspect identified","date":"2019-06"},"persistent_id":"a4ae2e0b8dd64deeba54782dd968f446eb9344ea1e202da8a87e8799e733736e","id":73138703,"location_subtype":"","month":"2019-04"},{"category":"robbery","location_type":"Force","location":{"latitude":"53.467495","street":{"id":723039,"name":"On or near Parking Area"},"longitude":"-2.347630"},"context":"","outcome_status":{"category":"Investigation complete; no suspect identified","date":"2019-06"},"persistent_id":"0726d52c5e33d20698a9e2a0cc4d3e7ad60bd3b5d532b2c4a4d6942a6943a270","id":73147239,"location_subtype":"","month":"2019-04"},{"category":"robbery","location_type":"Force","location":{"latitude":"53.482305","street":{"id":726800,"name":"On or near New Street"},"longitude":"-2.357817"},"context":"","outcome_status":{"category":"Investigation complete; no suspect identified","date":"2019-04"},"persistent_id":"08c0c559e0e727dac43e9f0fb29fbf521b9a0f6cdaf07227a8460e02f490f850","id":73128177,"location_subtype":"","month":"2019-04"},{"category":"robbery","location_type":"Force","location":{"latitude":"53.478282","street":{"id":726769,"name":"On or near Barton Road"},"longitude":"-2.356517"},"context":"","outcome_status":{"category":"Investigation complete; no suspect identified","date":"2019-05"},"persistent_id":"faabdcef999c5975a4a09f978e8fff7cdb798814b8576290647cadee6d10425a","id":73126308,"location_subtype":"","month":"2019-04"},{"category":"robbery","location_type":"Force","location":{"latitude":"53.486614","street":{"id":726643,"name":"On or near Albert Road"},"longitude":"-2.338262"},"context":"","outcome_status":{"category":"Investigation complete; no suspect identified","date":"2019-04"},"persistent_id":"aebe75c1ed9a548088393b6d3cd88a87c0dfecc6e36ddf2234960c85b777cfc5","id":73124405,"location_subtype":"","month":"2019-04"},{"category":"shoplifting","location_type":"Force","location":{"latitude":"53.470267","street":{"id":723044,"name":"On or near Taylor Road"},"longitude":"-2.346583"},"context":"","outcome_status":{"category":"Offender given community sentence","date":"2019-05"},"persistent_id":"f8181be80f4e38e2a0b532787ea5e47fac9eb2d9a1d52e7a3c2d10daed65d464","id":73138208,"location_subtype":"","month":"2019-04"},{"category":"shoplifting","location_type":"Force","location":{"latitude":"53.466179","street":{"id":723059,"name":"On or near Shopping Area"},"longitude":"-2.349005"},"context":"","outcome_status":{"category":"Investigation complete; no suspect identified","date":"2019-04"},"persistent_id":"bb81bd74ab2cc00a25739d24bc2884c9a48ef03675d01e454dc22b4e7e0dacdc","id":73148082,"location_subtype":"","month":"2019-04"},{"category":"shoplifting","location_type":"Force","location":{"latitude":"53.483088","street":{"id":726700,"name":"On or near Vane Street"},"longitude":"-2.354388"},"context":"","outcome_status":{"category":"Status update unavailable","date":"2019-08"},"persistent_id":"da8229b6a30118e13ba87f3b1b8c178e083c9420b3132778e48c16663fac6cf2","id":73132787,"location_subtype":"","month":"2019-04"},{"category":"shoplifting","location_type":"Force","location":{"latitude":"53.482461","street":{"id":726648,"name":"On or near Supermarket"},"longitude":"-2.335079"},"context":"","outcome_status":{"category":"Investigation complete; no suspect identified","date":"2019-05"},"persistent_id":"7bba00f0c0d3aa0ff5ef56cc8c691d914e0d6bf44f13d1bda139772846d942ed","id":73138718,"location_subtype":"","month":"2019-04"},{"category":"shoplifting","location_type":"Force","location":{"latitude":"53.483437","street":{"id":726576,"name":"On or near Pedestrian Subway"},"longitude":"-2.336579"},"context":"","outcome_status":{"category":"Further investigation is not in the public interest","date":"2019-04"},"persistent_id":"cbd434150ad26764efde613c1f1c82c3b26f8dff40c9a5303ca308f103bb91cf","id":73129990,"location_subtype":"","month":"2019-04"},{"category":"shoplifting","location_type":"Force","location":{"latitude":"53.480233","street":{"id":726746,"name":"On or near Fir Street"},"longitude":"-2.353520"},"context":"","outcome_status":{"category":"Investigation complete; no suspect identified","date":"2019-04"},"persistent_id":"bc6e759bd083710b370bede82e66d172c47b0419a04b47ea4996498f1a272cbf","id":73139626,"location_subtype":"","month":"2019-04"},{"category":"shoplifting","location_type":"Force","location":{"latitude":"53.483437","street":{"id":726576,"name":"On or near Pedestrian Subway"},"longitude":"-2.336579"},"context":"","outcome_status":{"category":"Investigation complete; no suspect identified","date":"2019-04"},"persistent_id":"76f441b406e5c7bd39ecfd71919dbec4366349447c703b04a41f0289c2cd090c","id":73144933,"location_subtype":"","month":"2019-04"},{"category":"shoplifting","location_type":"Force","location":{"latitude":"53.483437","street":{"id":726576,"name":"On or near Pedestrian Subway"},"longitude":"-2.336579"},"context":"","outcome_status":{"category":"Further investigation is not in the public interest","date":"2019-05"},"persistent_id":"865f824c1169df11dc88d0e80c8abc4e04d2d124de51978c25b77e288eb26528","id":73148539,"location_subtype":"","month":"2019-04"},{"category":"shoplifting","location_type":"Force","location":{"latitude":"53.483762","street":{"id":726727,"name":"On or near Lynwood Avenue"},"longitude":"-2.348351"},"context":"","outcome_status":{"category":"Investigation complete; no suspect identified","date":"2019-04"},"persistent_id":"bf9e9da0b041ed8b39b6605a461a1c964a71b911b862ca4b7cccfb853f0a91de","id":73143943,"location_subtype":"","month":"2019-04"},{"category":"shoplifting","location_type":"Force","location":{"latitude":"53.480233","street":{"id":726746,"name":"On or near Fir Street"},"longitude":"-2.353520"},"context":"","outcome_status":{"category":"Investigation complete; no suspect identified","date":"2019-04"},"persistent_id":"e3af4daa5ca8bc4faaaa4eb357a6504f9f7011c0fb10ceacedcad370385105d1","id":73139610,"location_subtype":"","month":"2019-04"},{"category":"shoplifting","location_type":"Force","location":{"latitude":"53.466179","street":{"id":723058,"name":"On or near Shopping Area"},"longitude":"-2.349020"},"context":"","outcome_status":{"category":"Unable to prosecute suspect","date":"2019-04"},"persistent_id":"ed6cb98eda05581c96dafb9d87bbf35f020b004ea53bf835b049228bfbb326d2","id":73132251,"location_subtype":"","month":"2019-04"},{"category":"shoplifting","location_type":"Force","location":{"latitude":"53.482309","street":{"id":726608,"name":"On or near Kearton Drive"},"longitude":"-2.331703"},"context":"","outcome_status":{"category":"Investigation complete; no suspect identified","date":"2019-04"},"persistent_id":"69d14650a5280b528748e4f556183ad3872f3eaef18849bd58934bdafa63d702","id":73126320,"location_subtype":"","month":"2019-04"},{"category":"shoplifting","location_type":"Force","location":{"latitude":"53.478099","street":{"id":726924,"name":"On or near Supermarket"},"longitude":"-2.366551"},"context":"","outcome_status":{"category":"Unable to prosecute suspect","date":"2019-06"},"persistent_id":"e04b36d3f8004ec0fbc388a07f382ea0bffc81a1298d7196ddd8947edbb4b66a","id":73123426,"location_subtype":"","month":"2019-04"},{"category":"shoplifting","location_type":"Force","location":{"latitude":"53.482461","street":{"id":726648,"name":"On or near Supermarket"},"longitude":"-2.335079"},"context":"","outcome_status":{"category":"Unable to prosecute suspect","date":"2019-04"},"persistent_id":"ec37c0734621274ca3193ef5920c78cfef2988747be83c8f5cb26ed63e339130","id":73134546,"location_subtype":"","month":"2019-04"},{"category":"shoplifting","location_type":"Force","location":{"latitude":"53.483259","street":{"id":726597,"name":"On or near Shuttle Street"},"longitude":"-2.338943"},"context":"","outcome_status":{"category":"Unable to prosecute suspect","date":"2019-04"},"persistent_id":"746d80b7144c39a889ac209a754771f5a2ebbcde74b81a78e1d211e0ccda0a02","id":73140428,"location_subtype":"","month":"2019-04"},{"category":"shoplifting","location_type":"Force","location":{"latitude":"53.470267","street":{"id":723044,"name":"On or near Taylor Road"},"longitude":"-2.346583"},"context":"","outcome_status":{"category":"Unable to prosecute suspect","date":"2019-05"},"persistent_id":"cc53b1258acd790fb93db689aba6d67b690a06de9566cbcdda5eb295f1ec58a2","id":73149808,"location_subtype":"","month":"2019-04"},{"category":"shoplifting","location_type":"Force","location":{"latitude":"53.466179","street":{"id":723059,"name":"On or near Shopping Area"},"longitude":"-2.349005"},"context":"","outcome_status":{"category":"Investigation complete; no suspect identified","date":"2019-04"},"persistent_id":"77154e72e20e5e648a100daaebaf28f0ad36451b7192aa6b655efe4aee600c8f","id":73123873,"location_subtype":"","month":"2019-04"},{"category":"shoplifting","location_type":"Force","location":{"latitude":"53.467652","street":{"id":723057,"name":"On or near Petrol Station"},"longitude":"-2.352497"},"context":"","outcome_status":{"category":"Investigation complete; no suspect identified","date":"2019-04"},"persistent_id":"a68b2a19a06be7ca9cc7ce95eb41c05ebc7f437c85a39886d525d79c0c851aa6","id":73147269,"location_subtype":"","month":"2019-04"},{"category":"shoplifting","location_type":"Force","location":{"latitude":"53.466179","street":{"id":723058,"name":"On or near Shopping Area"},"longitude":"-2.349020"},"context":"","outcome_status":{"category":"Court result unavailable","date":"2019-10"},"persistent_id":"9b0a5b7052ceb5987fea77b247233e5713821f58882f3455bb701c9457549215","id":73131328,"location_subtype":"","month":"2019-04"},{"category":"shoplifting","location_type":"Force","location":{"latitude":"53.482461","street":{"id":726648,"name":"On or near Supermarket"},"longitude":"-2.335079"},"context":"","outcome_status":{"category":"Unable to prosecute suspect","date":"2019-04"},"persistent_id":"2155ba22c523ad2c62f104c16083615492017bf2574d4bd48d0c386e46bfa8da","id":73125416,"location_subtype":"","month":"2019-04"},{"category":"shoplifting","location_type":"Force","location":{"latitude":"53.478906","street":{"id":726770,"name":"On or near Barton Lane"},"longitude":"-2.346081"},"context":"","outcome_status":{"category":"Investigation complete; no suspect identified","date":"2019-04"},"persistent_id":"86078ab71ba44cc8d894d2d63c2477135a8da507f050a9450e041ddfd62c9c02","id":73141406,"location_subtype":"","month":"2019-04"},{"category":"shoplifting","location_type":"Force","location":{"latitude":"53.468375","street":{"id":710181,"name":"On or near Trafford Boulevard"},"longitude":"-2.354175"},"context":"","outcome_status":{"category":"Unable to prosecute suspect","date":"2019-04"},"persistent_id":"83ed852eec6be1b7c8d7f66045ae5a4318435e1c5faa48d65f79343e758c3c91","id":73139949,"location_subtype":"","month":"2019-04"},{"category":"shoplifting","location_type":"Force","location":{"latitude":"53.481373","street":{"id":726594,"name":"On or near Talbot Street"},"longitude":"-2.341595"},"context":"","outcome_status":{"category":"Investigation complete; no suspect identified","date":"2019-04"},"persistent_id":"1a1f13e6510d78a807d7766fdd03d450883713f1d6420e6254c840645e4315d5","id":73141362,"location_subtype":"","month":"2019-04"},{"category":"shoplifting","location_type":"Force","location":{"latitude":"53.466179","street":{"id":723058,"name":"On or near Shopping Area"},"longitude":"-2.349020"},"context":"","outcome_status":{"category":"Further investigation is not in the public interest","date":"2019-04"},"persistent_id":"239aa1e8510500d3d47667b894c87686ae040982c4bc9abdb244506dd7f88bb1","id":73134905,"location_subtype":"","month":"2019-04"},{"category":"shoplifting","location_type":"Force","location":{"latitude":"53.482461","street":{"id":726648,"name":"On or near Supermarket"},"longitude":"-2.335079"},"context":"","outcome_status":{"category":"Investigation complete; no suspect identified","date":"2019-04"},"persistent_id":"0be76d8aa6f5f33fe4b47274ab734deeb1c79285ff2dc6084c2456905ca048b8","id":73146843,"location_subtype":"","month":"2019-04"},{"category":"shoplifting","location_type":"Force","location":{"latitude":"53.483088","street":{"id":726700,"name":"On or near Vane Street"},"longitude":"-2.354388"},"context":"","outcome_status":{"category":"Court result unavailable","date":"2019-12"},"persistent_id":"0f7813d487f5ebe6c922a40a78ad8e87b1cf3e8d8dfd525b55a2c9d8c0887371","id":73132799,"location_subtype":"","month":"2019-04"},{"category":"theft-from-the-person","location_type":"Force","location":{"latitude":"53.467652","street":{"id":723057,"name":"On or near Petrol Station"},"longitude":"-2.352497"},"context":"","outcome_status":{"category":"Investigation complete; no suspect identified","date":"2019-04"},"persistent_id":"2e2b53bb0bff3b021cc7d988e7add5466216dbac7cfdfdb68e14b5794b4e3fd6","id":73137428,"location_subtype":"","month":"2019-04"},{"category":"theft-from-the-person","location_type":"Force","location":{"latitude":"53.483052","street":{"id":726794,"name":"On or near Princess Street"},"longitude":"-2.357688"},"context":"","outcome_status":{"category":"Investigation complete; no suspect identified","date":"2019-05"},"persistent_id":"6ff1e02d7cadd80624eb1e6fcb555a1466ca997ca4e4d32cbe8a05d1f90a6fe6","id":73125445,"location_subtype":"","month":"2019-04"},{"category":"theft-from-the-person","location_type":"Force","location":{"latitude":"53.482461","street":{"id":726648,"name":"On or near Supermarket"},"longitude":"-2.335079"},"context":"","outcome_status":{"category":"Investigation complete; no suspect identified","date":"2019-04"},"persistent_id":"315fda384ebf65982028802efbc62898118f09db07b020c6a85f0192ba307f3b","id":73129041,"location_subtype":"","month":"2019-04"},{"category":"theft-from-the-person","location_type":"Force","location":{"latitude":"53.478099","street":{"id":726924,"name":"On or near Supermarket"},"longitude":"-2.366551"},"context":"","outcome_status":{"category":"Investigation complete; no suspect identified","date":"2019-04"},"persistent_id":"d0cd96aae19a58c31e2b1964c2c1306bb2492fd908979f10659b471412707d0f","id":73140458,"location_subtype":"","month":"2019-04"},{"category":"theft-from-the-person","location_type":"Force","location":{"latitude":"53.467652","street":{"id":723057,"name":"On or near Petrol Station"},"longitude":"-2.352497"},"context":"","outcome_status":{"category":"Investigation complete; no suspect identified","date":"2019-04"},"persistent_id":"1ebe3a722f5ddd6ad52debff77876e2ba99054322a84545d2f4a8e20acd6e4b7","id":73129448,"location_subtype":"","month":"2019-04"},{"category":"theft-from-the-person","location_type":"Force","location":{"latitude":"53.468375","street":{"id":710181,"name":"On or near Trafford Boulevard"},"longitude":"-2.354175"},"context":"","outcome_status":{"category":"Investigation complete; no suspect identified","date":"2019-04"},"persistent_id":"df9d9fd0e543e0be6cb3a38648e177c0ee305f690ebc1d109e7a4b3209a449a3","id":73142507,"location_subtype":"","month":"2019-04"},{"category":"vehicle-crime","location_type":"Force","location":{"latitude":"53.467652","street":{"id":723057,"name":"On or near Petrol Station"},"longitude":"-2.352497"},"context":"","outcome_status":{"category":"Investigation complete; no suspect identified","date":"2019-05"},"persistent_id":"6d5e8a4f391a6c22e5f2cf874280c9e5e3a5e12d1c9cf41f18b1e550068c1dac","id":73149780,"location_subtype":"","month":"2019-04"},{"category":"vehicle-crime","location_type":"Force","location":{"latitude":"53.485138","street":{"id":726739,"name":"On or near Hampden Grove"},"longitude":"-2.351361"},"context":"","outcome_status":{"category":"Investigation complete; no suspect identified","date":"2019-06"},"persistent_id":"77578cb4055de725383310513696d3b6805a826951a3ec63ba4a119b9c84ba88","id":73143042,"location_subtype":"","month":"2019-04"},{"category":"vehicle-crime","location_type":"Force","location":{"latitude":"53.492074","street":{"id":728256,"name":"On or near Mirfield Drive"},"longitude":"-2.352307"},"context":"","outcome_status":{"category":"Investigation complete; no suspect identified","date":"2019-04"},"persistent_id":"a6dbcc590c482808b9f24e964585fc764d704f648544d58e8d0180283c314cd0","id":73126333,"location_subtype":"","month":"2019-04"},{"category":"vehicle-crime","location_type":"Force","location":{"latitude":"53.468375","street":{"id":710181,"name":"On or near Trafford Boulevard"},"longitude":"-2.354175"},"context":"","outcome_status":{"category":"Investigation complete; no suspect identified","date":"2019-04"},"persistent_id":"9df711087bdfd545648e5cf76a1f1c6e7a9cdee73f7f321decd35814d5dd656e","id":73138253,"location_subtype":"","month":"2019-04"},{"category":"vehicle-crime","location_type":"Force","location":{"latitude":"53.476279","street":{"id":726855,"name":"On or near Unicorn Street"},"longitude":"-2.368072"},"context":"","outcome_status":{"category":"Investigation complete; no suspect identified","date":"2019-04"},"persistent_id":"16f81baa7349cd4cef3efe644447af3c7e52b8317ed1b7bb52ae71f469a9477e","id":73146865,"location_subtype":"","month":"2019-04"},{"category":"vehicle-crime","location_type":"Force","location":{"latitude":"53.487826","street":{"id":726628,"name":"On or near Claybar Drive"},"longitude":"-2.341964"},"context":"","outcome_status":{"category":"Investigation complete; no suspect identified","date":"2019-04"},"persistent_id":"af6eeaa26dae992275d3010406eb324f030b8cab283f96e768f4a77f0ede5e41","id":73144989,"location_subtype":"","month":"2019-04"},{"category":"vehicle-crime","location_type":"Force","location":{"latitude":"53.476292","street":{"id":726687,"name":"On or near Fountain Street"},"longitude":"-2.351725"},"context":"","outcome_status":{"category":"Investigation complete; no suspect identified","date":"2019-04"},"persistent_id":"b127c058dc3c0f0dc0d15ebcf1592fd4e4e483643da4915921212880bd1b2abb","id":73137885,"location_subtype":"","month":"2019-04"},{"category":"vehicle-crime","location_type":"Force","location":{"latitude":"53.481518","street":{"id":726895,"name":"On or near Finstock Close"},"longitude":"-2.368253"},"context":"","outcome_status":{"category":"Investigation complete; no suspect identified","date":"2019-04"},"persistent_id":"17fc774b9e77c3e89398547070981f25d1dd8dd1bb222cd7fce8aad1967da30c","id":73143941,"location_subtype":"","month":"2019-04"},{"category":"vehicle-crime","location_type":"Force","location":{"latitude":"53.489761","street":{"id":728380,"name":"On or near Victoria Crescent"},"longitude":"-2.334594"},"context":"","outcome_status":{"category":"Investigation complete; no suspect identified","date":"2019-04"},"persistent_id":"39d3200f5c63f1d192be16be3cf42970f74c7dae17f91438c448b0b273c905ba","id":73127330,"location_subtype":"","month":"2019-04"},{"category":"vehicle-crime","location_type":"Force","location":{"latitude":"53.467652","street":{"id":723057,"name":"On or near Petrol Station"},"longitude":"-2.352497"},"context":"","outcome_status":{"category":"Investigation complete; no suspect identified","date":"2019-04"},"persistent_id":"d7c803203542b13462195da62d217c8f0d4b4f31e4337481626323eb9a786bb8","id":73128553,"location_subtype":"","month":"2019-04"},{"category":"vehicle-crime","location_type":"Force","location":{"latitude":"53.467963","street":{"id":723041,"name":"On or near Trafford Boulevard"},"longitude":"-2.353493"},"context":"","outcome_status":{"category":"Investigation complete; no suspect identified","date":"2019-04"},"persistent_id":"1b6c75cf334da0f99459af37413efb38f2d62edb88e145a961e2063397d86433","id":73147236,"location_subtype":"","month":"2019-04"},{"category":"vehicle-crime","location_type":"Force","location":{"latitude":"53.483961","street":{"id":726814,"name":"On or near Hall Bank"},"longitude":"-2.360332"},"context":"","outcome_status":{"category":"Investigation complete; no suspect identified","date":"2019-04"},"persistent_id":"d41177c38f04b0ba19eeb4038364d081f614684a4c1a5bc71372fba8e9537825","id":73130881,"location_subtype":"","month":"2019-04"},{"category":"vehicle-crime","location_type":"Force","location":{"latitude":"53.470267","street":{"id":723044,"name":"On or near Taylor Road"},"longitude":"-2.346583"},"context":"","outcome_status":{"category":"Investigation complete; no suspect identified","date":"2019-04"},"persistent_id":"f36af4e5f59c2ed59a14ee0a6124b27ab2d2d3d73a0669fb307bbcc07e7badc1","id":73126801,"location_subtype":"","month":"2019-04"},{"category":"vehicle-crime","location_type":"Force","location":{"latitude":"53.484428","street":{"id":726566,"name":"On or near Millers Court"},"longitude":"-2.325706"},"context":"","outcome_status":{"category":"Investigation complete; no suspect identified","date":"2019-04"},"persistent_id":"4e692a329699c37a9c1ae34632aad7ec87c6a8ec18b4b560bfb0e702d20078ec","id":73130936,"location_subtype":"","month":"2019-04"},{"category":"vehicle-crime","location_type":"Force","location":{"latitude":"53.489497","street":{"id":728258,"name":"On or near Lansdowne Road"},"longitude":"-2.351382"},"context":"","outcome_status":{"category":"Investigation complete; no suspect identified","date":"2019-04"},"persistent_id":"a1e1c334b52b64a9236053611b12fead3ed854445d0a3d38a2870f222e226906","id":73140451,"location_subtype":"","month":"2019-04"},{"category":"vehicle-crime","location_type":"Force","location":{"latitude":"53.484778","street":{"id":726620,"name":"On or near Eccles Fold"},