[{"category":"anti-social-behaviour","location_type":"Force","location":{"latitude":"51.495222","street":{"id":953406,"name":"On or near Rochester Street"},"longitude":"-0.135038"},"context":"","outcome_status":null,"persistent_id":"","id":83041913,"location_subtype":"","month":"2020-04"},{"category":"anti-social-behaviour","location_type":"Force","location":{"latitude":"51.497534","street":{"id":953272,"name":"On or near Old Pye Street"},"longitude":"-0.132278"},"context":"","outcome_status":null,"persistent_id":"","id":83041347,"location_subtype":"","month":"2020-04"},{"category":"anti-social-behaviour","location_type":"Force","location":{"latitude":"51.510392","street":{"id":956545,"name":"On or near Nightclub"},"longitude":"-0.135023"},"context":"","outcome_status":null,"persistent_id":"","id":83041917,"location_subtype":"","month":"2020-04"},{"category":"anti-social-behaviour","location_type":"Force","location":{"latitude":"51.497534","street":{"id":953272,"name":"On or near Old Pye Street"},"longitude":"-0.132278"},"context":"","outcome_status":null,"persistent_id":"","id":83041354,"location_subtype":"","month":"2020-04"},{"category":"anti-social-behaviour","location_type":"Force","location":{"latitude":"51.513664","street":{"id":956513,"name":"On or near Frith Street"},"longitude":"-0.131575"},"context":"","outcome_status":null,"persistent_id":"","id":83041365,"location_subtype":"","month":"2020-04"},{"category":"anti-social-behaviour","location_type":"Force","location":{"latitude":"51.514502","street":{"id":956594,"name":"On or near Theatre/concert Hall"},"longitude":"-0.132780"},"context":"","outcome_status":null,"persistent_id":"","id":83041370,"location_subtype":"","month":"2020-04"},{"category":"anti-social-behaviour","location_type":"Force","location":{"latitude":"51.510392","street":{"id":956545,"name":"On or near Nightclub"},"longitude":"-0.135023"},"context":"","outcome_status":null,"persistent_id":"","id":83041919,"location_subtype":"","month":"2020-04"},{"category":"anti-social-behaviour","location_type":"Force","location":{"latitude":"51.511170","street":{"id":956310,"name":"On or near Warwick Street"},"longitude":"-0.138148"},"context":"","outcome_status":null,"persistent_id":"","id":83041997,"location_subtype":"","month":"2020-04"},{"category":"anti-social-behaviour","location_type":"Force","location":{"latitude":"51.499426","street":{"id":953357,"name":"On or near Conference/exhibition Centre"},"longitude":"-0.140427"},"context":"","outcome_status":null,"persistent_id":"","id":83042020,"location_subtype":"","month":"2020-04"},{"category":"anti-social-behaviour","location_type":"Force","location":{"latitude":"51.513096","street":{"id":956537,"name":"On or near Bourchier Street"},"longitude":"-0.132593"},"context":"","outcome_status":null,"persistent_id":"","id":83041848,"location_subtype":"","month":"2020-04"},{"category":"anti-social-behaviour","location_type":"Force","location":{"latitude":"51.496931","street":{"id":953293,"name":"On or near Artillery Row"},"longitude":"-0.135631"},"context":"","outcome_status":null,"persistent_id":"","id":83041909,"location_subtype":"","month":"2020-04"},{"category":"anti-social-behaviour","location_type":"Force","location":{"latitude":"51.514295","street":{"id":956531,"name":"On or near Chapone Place"},"longitude":"-0.132789"},"context":"","outcome_status":null,"persistent_id":"","id":83041864,"location_subtype":"","month":"2020-04"},{"category":"anti-social-behaviour","location_type":"Force","location":{"latitude":"51.498734","street":{"id":953301,"name":"On or near Police Station"},"longitude":"-0.133122"},"context":"","outcome_status":null,"persistent_id":"","id":83041879,"location_subtype":"","month":"2020-04"},{"category":"anti-social-behaviour","location_type":"Force","location":{"latitude":"51.490842","street":{"id":949562,"name":"On or near Petrol Station"},"longitude":"-0.111448"},"context":"","outcome_status":null,"persistent_id":"","id":83019775,"location_subtype":"","month":"2020-04"},{"category":"anti-social-behaviour","location_type":"Force","location":{"latitude":"51.494401","street":{"id":953411,"name":"On or near Maunsel Street"},"longitude":"-0.133213"},"context":"","outcome_status":null,"persistent_id":"","id":83041872,"location_subtype":"","month":"2020-04"},{"category":"anti-social-behaviour","location_type":"Force","location":{"latitude":"51.490842","street":{"id":949562,"name":"On or near Petrol Station"},"longitude":"-0.111448"},"context":"","outcome_status":null,"persistent_id":"","id":83019774,"location_subtype":"","month":"2020-04"},{"category":"anti-social-behaviour","location_type":"Force","location":{"latitude":"51.494401","street":{"id":953411,"name":"On or near Maunsel Street"},"longitude":"-0.133213"},"context":"","outcome_status":null,"persistent_id":"","id":83041873,"location_subtype":"","month":"2020-04"},{"category":"anti-social-behaviour","location_type":"Force","location":{"latitude":"51.499656","street":{"id":953495,"name":"On or near Greenham Close"},"longitude":"-0.110392"},"context":"","outcome_status":null,"persistent_id":"","id":83019771,"location_subtype":"","month":"2020-04"},{"category":"anti-social-behaviour","location_type":"Force","location":{"latitude":"51.499728","street":{"id":953745,"name":"On or near Davidge Street"},"longitude":"-0.103142"},"context":"","outcome_status":null,"persistent_id":"","id":83031444,"location_subtype":"","month":"2020-04"},{"category":"anti-social-behaviour","location_type":"Force","location":{"latitude":"51.507420","street":{"id":956134,"name":"On or near Castle Yard"},"longitude":"-0.101655"},"context":"","outcome_status":null,"persistent_id":"","id":83031440,"location_subtype":"","month":"2020-04"},{"category":"anti-social-behaviour","location_type":"Force","location":{"latitude":"51.492950","street":{"id":953780,"name":"On or near Churchyard Row"},"longitude":"-0.102732"},"context":"","outcome_status":null,"persistent_id":"","id":83031436,"location_subtype":"","month":"2020-04"},{"category":"anti-social-behaviour","location_type":"Force","location":{"latitude":"51.500270","street":{"id":953747,"name":"On or near Boyfield Street"},"longitude":"-0.102212"},"context":"","outcome_status":null,"persistent_id":"","id":83031435,"location_subtype":"","month":"2020-04"},{"category":"anti-social-behaviour","location_type":"Force","location":{"latitude":"51.507420","street":{"id":956134,"name":"On or near Castle Yard"},"longitude":"-0.101655"},"context":"","outcome_status":null,"persistent_id":"","id":83031433,"location_subtype":"","month":"2020-04"},{"category":"anti-social-behaviour","location_type":"Force","location":{"latitude":"51.507420","street":{"id":956134,"name":"On or near Castle Yard"},"longitude":"-0.101655"},"context":"","outcome_status":null,"persistent_id":"","id":83031432,"location_subtype":"","month":"2020-04"},{"category":"anti-social-behaviour","location_type":"Force","location":{"latitude":"51.495804","street":{"id":953697,"name":"On or near Princess Street"},"longitude":"-0.102383"},"context":"","outcome_status":null,"persistent_id":"","id":83031431,"location_subtype":"","month":"2020-04"},{"category":"anti-social-behaviour","location_type":"Force","location":{"latitude":"51.497050","street":{"id":953701,"name":"On or near London Road"},"longitude":"-0.102720"},"context":"","outcome_status":null,"persistent_id":"","id":83031430,"location_subtype":"","month":"2020-04"},{"category":"anti-social-behaviour","location_type":"Force","location":{"latitude":"51.497050","street":{"id":953701,"name":"On or near London Road"},"longitude":"-0.102720"},"context":"","outcome_status":null,"persistent_id":"","id":83031429,"location_subtype":"","month":"2020-04"},{"category":"anti-social-behaviour","location_type":"Force","location":{"latitude":"51.502207","street":{"id":953728,"name":"On or near Pocock Street"},"longitude":"-0.101858"},"context":"","outcome_status":null,"persistent_id":"","id":83031428,"location_subtype":"","month":"2020-04"},{"category":"anti-social-behaviour","location_type":"Force","location":{"latitude":"51.507420","street":{"id":956134,"name":"On or near Castle Yard"},"longitude":"-0.101655"},"context":"","outcome_status":null,"persistent_id":"","id":83031426,"location_subtype":"","month":"2020-04"},{"category":"anti-social-behaviour","location_type":"Force","location":{"latitude":"51.507420","street":{"id":956134,"name":"On or near Castle Yard"},"longitude":"-0.101655"},"context":"","outcome_status":null,"persistent_id":"","id":83031425,"location_subtype":"","month":"2020-04"},{"category":"anti-social-behaviour","location_type":"Force","location":{"latitude":"51.492950","street":{"id":953780,"name":"On or near Churchyard Row"},"longitude":"-0.102732"},"context":"","outcome_status":null,"persistent_id":"","id":83031422,"location_subtype":"","month":"2020-04"},{"category":"anti-social-behaviour","location_type":"Force","location":{"latitude":"51.494015","street":{"id":953558,"name":"On or near Walnut Tree Walk"},"longitude":"-0.112469"},"context":"","outcome_status":null,"persistent_id":"","id":83019857,"location_subtype":"","month":"2020-04"},{"category":"anti-social-behaviour","location_type":"Force","location":{"latitude":"51.494015","street":{"id":953558,"name":"On or near Walnut Tree Walk"},"longitude":"-0.112469"},"context":"","outcome_status":null,"persistent_id":"","id":83019858,"location_subtype":"","month":"2020-04"},{"category":"anti-social-behaviour","location_type":"Force","location":{"latitude":"51.490190","street":{"id":949540,"name":"On or near Hotspur Street"},"longitude":"-0.112800"},"context":"","outcome_status":null,"persistent_id":"","id":83019864,"location_subtype":"","month":"2020-04"},{"category":"anti-social-behaviour","location_type":"Force","location":{"latitude":"51.500019","street":{"id":953487,"name":"On or near Murphy Street"},"longitude":"-0.112265"},"context":"","outcome_status":null,"persistent_id":"","id":83019870,"location_subtype":"","month":"2020-04"},{"category":"anti-social-behaviour","location_type":"Force","location":{"latitude":"51.500019","street":{"id":953487,"name":"On or near Murphy Street"},"longitude":"-0.112265"},"context":"","outcome_status":null,"persistent_id":"","id":83019872,"location_subtype":"","month":"2020-04"},{"category":"anti-social-behaviour","location_type":"Force","location":{"latitude":"51.510392","street":{"id":956545,"name":"On or near Nightclub"},"longitude":"-0.135023"},"context":"","outcome_status":null,"persistent_id":"","id":83041920,"location_subtype":"","month":"2020-04"},{"category":"anti-social-behaviour","location_type":"Force","location":{"latitude":"51.500019","street":{"id":953487,"name":"On or near Murphy Street"},"longitude":"-0.112265"},"context":"","outcome_status":null,"persistent_id":"","id":83019873,"location_subtype":"","month":"2020-04"},{"category":"anti-social-behaviour","location_type":"Force","location":{"latitude":"51.501997","street":{"id":953479,"name":"On or near Spur Road"},"longitude":"-0.111693"},"context":"","outcome_status":null,"persistent_id":"","id":83019876,"location_subtype":"","month":"2020-04"},{"category":"anti-social-behaviour","location_type":"Force","location":{"latitude":"51.501997","street":{"id":953479,"name":"On or near Spur Road"},"longitude":"-0.111693"},"context":"","outcome_status":null,"persistent_id":"","id":83019877,"location_subtype":"","month":"2020-04"},{"category":"anti-social-behaviour","location_type":"Force","location":{"latitude":"51.500656","street":{"id":953491,"name":"On or near Launcelot Street"},"longitude":"-0.112152"},"context":"","outcome_status":null,"persistent_id":"","id":83019879,"location_subtype":"","month":"2020-04"},{"category":"anti-social-behaviour","location_type":"Force","location":{"latitude":"51.492093","street":{"id":953581,"name":"On or near Distin Street"},"longitude":"-0.112578"},"context":"","outcome_status":null,"persistent_id":"","id":83019914,"location_subtype":"","month":"2020-04"},{"category":"anti-social-behaviour","location_type":"Force","location":{"latitude":"51.496840","street":{"id":953437,"name":"On or near Morton Place"},"longitude":"-0.112554"},"context":"","outcome_status":null,"persistent_id":"","id":83019917,"location_subtype":"","month":"2020-04"},{"category":"anti-social-behaviour","location_type":"Force","location":{"latitude":"51.500076","street":{"id":953512,"name":"On or near Sports/recreation Area"},"longitude":"-0.111902"},"context":"","outcome_status":null,"persistent_id":"","id":83019823,"location_subtype":"","month":"2020-04"},{"category":"anti-social-behaviour","location_type":"Force","location":{"latitude":"51.496840","street":{"id":953437,"name":"On or near Morton Place"},"longitude":"-0.112554"},"context":"","outcome_status":null,"persistent_id":"","id":83019918,"location_subtype":"","month":"2020-04"},{"category":"anti-social-behaviour","location_type":"Force","location":{"latitude":"51.514963","street":{"id":956196,"name":"On or near Betterton Street"},"longitude":"-0.123912"},"context":"","outcome_status":null,"persistent_id":"","id":83049434,"location_subtype":"","month":"2020-04"},{"category":"anti-social-behaviour","location_type":"Force","location":{"latitude":"51.514696","street":{"id":956152,"name":"On or near Shorts Gardens"},"longitude":"-0.125234"},"context":"","outcome_status":null,"persistent_id":"","id":83049447,"location_subtype":"","month":"2020-04"},{"category":"anti-social-behaviour","location_type":"Force","location":{"latitude":"51.514976","street":{"id":956185,"name":"On or near Endell Street"},"longitude":"-0.125309"},"context":"","outcome_status":null,"persistent_id":"","id":83049450,"location_subtype":"","month":"2020-04"},{"category":"anti-social-behaviour","location_type":"Force","location":{"latitude":"51.514976","street":{"id":956185,"name":"On or near Endell Street"},"longitude":"-0.125309"},"context":"","outcome_status":null,"persistent_id":"","id":83049451,"location_subtype":"","month":"2020-04"},{"category":"anti-social-behaviour","location_type":"Force","location":{"latitude":"51.514976","street":{"id":956185,"name":"On or near Endell Street"},"longitude":"-0.125309"},"context":"","outcome_status":null,"persistent_id":"","id":83049452,"location_subtype":"","month":"2020-04"},{"category":"anti-social-behaviour","location_type":"Force","location":{"latitude":"51.516523","street":{"id":956236,"name":"On or near Remnant Street"},"longitude":"-0.119135"},"context":"","outcome_status":null,"persistent_id":"","id":83049327,"location_subtype":"","month":"2020-04"},{"category":"anti-social-behaviour","location_type":"Force","location":{"latitude":"51.516523","street":{"id":956236,"name":"On or near Remnant Street"},"longitude":"-0.119135"},"context":"","outcome_status":null,"persistent_id":"","id":83049328,"location_subtype":"","month":"2020-04"},{"category":"anti-social-behaviour","location_type":"Force","location":{"latitude":"51.516523","street":{"id":956236,"name":"On or near Remnant Street"},"longitude":"-0.119135"},"context":"","outcome_status":null,"persistent_id":"","id":83049329,"location_subtype":"","month":"2020-04"},{"category":"anti-social-behaviour","location_type":"Force","location":{"latitude":"51.516213","street":{"id":956172,"name":"On or near Kingsway"},"longitude":"-0.119450"},"context":"","outcome_status":null,"persistent_id":"","id":83049339,"location_subtype":"","month":"2020-04"},{"category":"anti-social-behaviour","location_type":"Force","location":{"latitude":"51.516213","street":{"id":956172,"name":"On or near Kingsway"},"longitude":"-0.119450"},"context":"","outcome_status":null,"persistent_id":"","id":83049341,"location_subtype":"","month":"2020-04"},{"category":"anti-social-behaviour","location_type":"Force","location":{"latitude":"51.516213","street":{"id":956172,"name":"On or near Kingsway"},"longitude":"-0.119450"},"context":"","outcome_status":null,"persistent_id":"","id":83049342,"location_subtype":"","month":"2020-04"},{"category":"anti-social-behaviour","location_type":"Force","location":{"latitude":"51.516213","street":{"id":956172,"name":"On or near Kingsway"},"longitude":"-0.119450"},"context":"","outcome_status":null,"persistent_id":"","id":83049344,"location_subtype":"","month":"2020-04"},{"category":"anti-social-behaviour","location_type":"Force","location":{"latitude":"51.516213","street":{"id":956172,"name":"On or near Kingsway"},"longitude":"-0.119450"},"context":"","outcome_status":null,"persistent_id":"","id":83049345,"location_subtype":"","month":"2020-04"},{"category":"anti-social-behaviour","location_type":"Force","location":{"latitude":"51.516213","street":{"id":956172,"name":"On or near Kingsway"},"longitude":"-0.119450"},"context":"","outcome_status":null,"persistent_id":"","id":83049348,"location_subtype":"","month":"2020-04"},{"category":"anti-social-behaviour","location_type":"Force","location":{"latitude":"51.516213","street":{"id":956172,"name":"On or near Kingsway"},"longitude":"-0.119450"},"context":"","outcome_status":null,"persistent_id":"","id":83049349,"location_subtype":"","month":"2020-04"},{"category":"anti-social-behaviour","location_type":"Force","location":{"latitude":"51.516213","street":{"id":956172,"name":"On or near Kingsway"},"longitude":"-0.119450"},"context":"","outcome_status":null,"persistent_id":"","id":83049350,"location_subtype":"","month":"2020-04"},{"category":"anti-social-behaviour","location_type":"Force","location":{"latitude":"51.516213","street":{"id":956172,"name":"On or near Kingsway"},"longitude":"-0.119450"},"context":"","outcome_status":null,"persistent_id":"","id":83049351,"location_subtype":"","month":"2020-04"},{"category":"anti-social-behaviour","location_type":"Force","location":{"latitude":"51.516213","street":{"id":956172,"name":"On or near Kingsway"},"longitude":"-0.119450"},"context":"","outcome_status":null,"persistent_id":"","id":83049352,"location_subtype":"","month":"2020-04"},{"category":"anti-social-behaviour","location_type":"Force","location":{"latitude":"51.513734","street":{"id":956189,"name":"On or near Drury Lane"},"longitude":"-0.120158"},"context":"","outcome_status":null,"persistent_id":"","id":83049358,"location_subtype":"","month":"2020-04"},{"category":"anti-social-behaviour","location_type":"Force","location":{"latitude":"51.516586","street":{"id":956237,"name":"On or near Newton Street"},"longitude":"-0.121395"},"context":"","outcome_status":null,"persistent_id":"","id":83049362,"location_subtype":"","month":"2020-04"},{"category":"anti-social-behaviour","location_type":"Force","location":{"latitude":"51.516586","street":{"id":956237,"name":"On or near Newton Street"},"longitude":"-0.121395"},"context":"","outcome_status":null,"persistent_id":"","id":83049363,"location_subtype":"","month":"2020-04"},{"category":"anti-social-behaviour","location_type":"Force","location":{"latitude":"51.516586","street":{"id":956237,"name":"On or near Newton Street"},"longitude":"-0.121395"},"context":"","outcome_status":null,"persistent_id":"","id":83049364,"location_subtype":"","month":"2020-04"},{"category":"anti-social-behaviour","location_type":"Force","location":{"latitude":"51.516586","street":{"id":956237,"name":"On or near Newton Street"},"longitude":"-0.121395"},"context":"","outcome_status":null,"persistent_id":"","id":83049365,"location_subtype":"","month":"2020-04"},{"category":"anti-social-behaviour","location_type":"Force","location":{"latitude":"51.516586","street":{"id":956237,"name":"On or near Newton Street"},"longitude":"-0.121395"},"context":"","outcome_status":null,"persistent_id":"","id":83049366,"location_subtype":"","month":"2020-04"},{"category":"anti-social-behaviour","location_type":"Force","location":{"latitude":"51.516586","street":{"id":956237,"name":"On or near Newton Street"},"longitude":"-0.121395"},"context":"","outcome_status":null,"persistent_id":"","id":83049369,"location_subtype":"","month":"2020-04"},{"category":"anti-social-behaviour","location_type":"Force","location":{"latitude":"51.515678","street":{"id":956181,"name":"On or near Great Queen Street"},"longitude":"-0.120841"},"context":"","outcome_status":null,"persistent_id":"","id":83049370,"location_subtype":"","month":"2020-04"},{"category":"anti-social-behaviour","location_type":"Force","location":{"latitude":"51.515678","street":{"id":956181,"name":"On or near Great Queen Street"},"longitude":"-0.120841"},"context":"","outcome_status":null,"persistent_id":"","id":83049371,"location_subtype":"","month":"2020-04"},{"category":"anti-social-behaviour","location_type":"Force","location":{"latitude":"51.516586","street":{"id":956237,"name":"On or near Newton Street"},"longitude":"-0.121395"},"context":"","outcome_status":null,"persistent_id":"","id":83049374,"location_subtype":"","month":"2020-04"},{"category":"anti-social-behaviour","location_type":"Force","location":{"latitude":"51.516586","street":{"id":956237,"name":"On or near Newton Street"},"longitude":"-0.121395"},"context":"","outcome_status":null,"persistent_id":"","id":83049375,"location_subtype":"","month":"2020-04"},{"category":"anti-social-behaviour","location_type":"Force","location":{"latitude":"51.516036","street":{"id":956168,"name":"On or near Macklin Street"},"longitude":"-0.122412"},"context":"","outcome_status":null,"persistent_id":"","id":83049388,"location_subtype":"","month":"2020-04"},{"category":"anti-social-behaviour","location_type":"Force","location":{"latitude":"51.493106","street":{"id":953547,"name":"On or near Lambeth High Street"},"longitude":"-0.120257"},"context":"","outcome_status":null,"persistent_id":"","id":83024757,"location_subtype":"","month":"2020-04"},{"category":"anti-social-behaviour","location_type":"Force","location":{"latitude":"51.500769","street":{"id":953527,"name":"On or near Pedestrian Subway"},"longitude":"-0.119222"},"context":"","outcome_status":null,"persistent_id":"","id":83026821,"location_subtype":"","month":"2020-04"},{"category":"anti-social-behaviour","location_type":"Force","location":{"latitude":"51.500769","street":{"id":953527,"name":"On or near Pedestrian Subway"},"longitude":"-0.119222"},"context":"","outcome_status":null,"persistent_id":"","id":83026822,"location_subtype":"","month":"2020-04"},{"category":"anti-social-behaviour","location_type":"Force","location":{"latitude":"51.513683","street":{"id":956260,"name":"On or near Fleet Street"},"longitude":"-0.111974"},"context":"","outcome_status":null,"persistent_id":"","id":83039898,"location_subtype":"","month":"2020-04"},{"category":"anti-social-behaviour","location_type":"Force","location":{"latitude":"51.512953","street":{"id":956253,"name":"On or near Strand"},"longitude":"-0.114670"},"context":"","outcome_status":null,"persistent_id":"","id":83039899,"location_subtype":"","month":"2020-04"},{"category":"anti-social-behaviour","location_type":"Force","location":{"latitude":"51.513828","street":{"id":956176,"name":"On or near Kean Street"},"longitude":"-0.118741"},"context":"","outcome_status":null,"persistent_id":"","id":83039900,"location_subtype":"","month":"2020-04"},{"category":"anti-social-behaviour","location_type":"Force","location":{"latitude":"51.513828","street":{"id":956176,"name":"On or near Kean Street"},"longitude":"-0.118741"},"context":"","outcome_status":null,"persistent_id":"","id":83039901,"location_subtype":"","month":"2020-04"},{"category":"anti-social-behaviour","location_type":"Force","location":{"latitude":"51.513828","street":{"id":956176,"name":"On or near Kean Street"},"longitude":"-0.118741"},"context":"","outcome_status":null,"persistent_id":"","id":83039902,"location_subtype":"","month":"2020-04"},{"category":"anti-social-behaviour","location_type":"Force","location":{"latitude":"51.513828","street":{"id":956176,"name":"On or near Kean Street"},"longitude":"-0.118741"},"context":"","outcome_status":null,"persistent_id":"","id":83039903,"location_subtype":"","month":"2020-04"},{"category":"anti-social-behaviour","location_type":"Force","location":{"latitude":"51.513828","street":{"id":956176,"name":"On or near Kean Street"},"longitude":"-0.118741"},"context":"","outcome_status":null,"persistent_id":"","id":83039904,"location_subtype":"","month":"2020-04"},{"category":"anti-social-behaviour","location_type":"Force","location":{"latitude":"51.511914","street":{"id":956211,"name":"On or near Theatre/concert Hall"},"longitude":"-0.119425"},"context":"","outcome_status":null,"persistent_id":"","id":83039905,"location_subtype":"","month":"2020-04"},{"category":"anti-social-behaviour","location_type":"Force","location":{"latitude":"51.501776","street":{"id":953716,"name":"On or near Trundle Street"},"longitude":"-0.096876"},"context":"","outcome_status":null,"persistent_id":"","id":83030677,"location_subtype":"","month":"2020-04"},{"category":"anti-social-behaviour","location_type":"Force","location":{"latitude":"51.503238","street":{"id":953754,"name":"On or near Supermarket"},"longitude":"-0.098890"},"context":"","outcome_status":null,"persistent_id":"","id":83031332,"location_subtype":"","month":"2020-04"},{"category":"anti-social-behaviour","location_type":"Force","location":{"latitude":"51.511315","street":{"id":956213,"name":"On or near Conference/exhibition Centre"},"longitude":"-0.118528"},"context":"","outcome_status":null,"persistent_id":"","id":83039909,"location_subtype":"","month":"2020-04"},{"category":"anti-social-behaviour","location_type":"Force","location":{"latitude":"51.516213","street":{"id":956172,"name":"On or near Kingsway"},"longitude":"-0.119450"},"context":"","outcome_status":null,"persistent_id":"","id":83039912,"location_subtype":"","month":"2020-04"},{"category":"anti-social-behaviour","location_type":"Force","location":{"latitude":"51.503238","street":{"id":953754,"name":"On or near Supermarket"},"longitude":"-0.098890"},"context":"","outcome_status":null,"persistent_id":"","id":83031331,"location_subtype":"","month":"2020-04"},{"category":"anti-social-behaviour","location_type":"Force","location":{"latitude":"51.513734","street":{"id":956189,"name":"On or near Drury Lane"},"longitude":"-0.120158"},"context":"","outcome_status":null,"persistent_id":"","id":83039915,"location_subtype":"","month":"2020-04"},{"category":"anti-social-behaviour","location_type":"Force","location":{"latitude":"51.507097","street":{"id":956648,"name":"On or near Parking Area"},"longitude":"-0.130864"},"context":"","outcome_status":null,"persistent_id":"","id":83041325,"location_subtype":"","month":"2020-04"},{"category":"anti-social-behaviour","location_type":"Force","location":{"latitude":"51.492970","street":{"id":953399,"name":"On or near Vincent Street"},"longitude":"-0.131398"},"context":"","outcome_status":null,"persistent_id":"","id":83041326,"location_subtype":"","month":"2020-04"},{"category":"anti-social-behaviour","location_type":"Force","location":{"latitude":"51.495307","street":{"id":953424,"name":"On or near Arneway Street"},"longitude":"-0.131908"},"context":"","outcome_status":null,"persistent_id":"","id":83041331,"location_subtype":"","month":"2020-04"},{"category":"anti-social-behaviour","location_type":"Force","location":{"latitude":"51.495307","street":{"id":953424,"name":"On or near Arneway Street"},"longitude":"-0.131908"},"context":"","outcome_status":null,"persistent_id":"","id":83041334,"location_subtype":"","month":"2020-04"},{"category":"anti-social-behaviour","location_type":"Force","location":{"latitude":"51.498328","street":{"id":953294,"name":"On or near Abbey Orchard Street"},"longitude":"-0.131338"},"context":"","outcome_status":null,"persistent_id":"","id":83041338,"location_subtype":"","month":"2020-04"},{"category":"anti-social-behaviour","location_type":"Force","location":{"latitude":"51.498328","street":{"id":953294,"name":"On or near Abbey Orchard Street"},"longitude":"-0.131338"},"context":"","outcome_status":null,"persistent_id":"","id":83041339,"location_subtype":"","month":"2020-04"},{"category":"anti-social-behaviour","location_type":"Force","location":{"latitude":"51.498328","street":{"id":953294,"name":"On or near Abbey Orchard Street"},"longitude":"-0.131338"},"context":"","outcome_status":null,"persistent_id":"","id":83041340,"location_subtype":"","month":"2020-04"},{"category":"anti-social-behaviour","location_type":"Force","location":{"latitude":"51.500076","street":{"id":953512,"name":"On or near Sports/recreation Area"},"longitude":"-0.111902"},"context":"","outcome_status":null,"persistent_id":"","id":83019822,"location_subtype":"","month":"2020-04"},{"category":"anti-social-behaviour","location_type":"Force","location":{"latitude":"51.498328","street":{"id":953294,"name":"On or near Abbey Orchard Street"},"longitude":"-0.131338"},"context":"","outcome_status":null,"persistent_id":"","id":83041341,"location_subtype":"","month":"2020-04"},{"category":"anti-social-behaviour","location_type":"Force","location":{"latitude":"51.498328","street":{"id":953294,"name":"On or near Abbey Orchard Street"},"longitude":"-0.131338"},"context":"","outcome_status":null,"persistent_id":"","id":83041342,"location_subtype":"","month":"2020-04"},{"category":"anti-social-behaviour","location_type":"Force","location":{"latitude":"51.498328","street":{"id":953294,"name":"On or near Abbey Orchard Street"},"longitude":"-0.131338"},"context":"","outcome_status":null,"persistent_id":"","id":83041343,"location_subtype":"","month":"2020-04"},{"category":"anti-social-behaviour","location_type":"Force","location":{"latitude":"51.499702","street":{"id":953306,"name":"On or near Tothill Street"},"longitude":"-0.131238"},"context":"","outcome_status":null,"persistent_id":"","id":83041344,"location_subtype":"","month":"2020-04"},{"category":"anti-social-behaviour","location_type":"Force","location":{"latitude":"51.500808","street":{"id":953309,"name":"On or near Old Queen Street"},"longitude":"-0.130646"},"context":"","outcome_status":null,"persistent_id":"","id":83041324,"location_subtype":"","month":"2020-04"},{"category":"anti-social-behaviour","location_type":"Force","location":{"latitude":"51.492264","street":{"id":953408,"name":"On or near Regency Street"},"longitude":"-0.132277"},"context":"","outcome_status":null,"persistent_id":"","id":83041345,"location_subtype":"","month":"2020-04"},{"category":"anti-social-behaviour","location_type":"Force","location":{"latitude":"51.500270","street":{"id":953747,"name":"On or near Boyfield Street"},"longitude":"-0.102212"},"context":"","outcome_status":null,"persistent_id":"","id":83031434,"location_subtype":"","month":"2020-04"},{"category":"anti-social-behaviour","location_type":"Force","location":{"latitude":"51.497534","street":{"id":953272,"name":"On or near Old Pye Street"},"longitude":"-0.132278"},"context":"","outcome_status":null,"persistent_id":"","id":83041349,"location_subtype":"","month":"2020-04"},{"category":"anti-social-behaviour","location_type":"Force","location":{"latitude":"51.511315","street":{"id":956213,"name":"On or near Conference/exhibition Centre"},"longitude":"-0.118528"},"context":"","outcome_status":null,"persistent_id":"","id":83039906,"location_subtype":"","month":"2020-04"},{"category":"anti-social-behaviour","location_type":"Force","location":{"latitude":"51.497534","street":{"id":953272,"name":"On or near Old Pye Street"},"longitude":"-0.132278"},"context":"","outcome_status":null,"persistent_id":"","id":83041350,"location_subtype":"","month":"2020-04"},{"category":"anti-social-behaviour","location_type":"Force","location":{"latitude":"51.497534","street":{"id":953272,"name":"On or near Old Pye Street"},"longitude":"-0.132278"},"context":"","outcome_status":null,"persistent_id":"","id":83041351,"location_subtype":"","month":"2020-04"},{"category":"anti-social-behaviour","location_type":"Force","location":{"latitude":"51.500076","street":{"id":953512,"name":"On or near Sports/recreation Area"},"longitude":"-0.111902"},"context":"","outcome_status":null,"persistent_id":"","id":83019821,"location_subtype":"","month":"2020-04"},{"category":"anti-social-behaviour","location_type":"Force","location":{"latitude":"51.516213","street":{"id":956172,"name":"On or near Kingsway"},"longitude":"-0.119450"},"context":"","outcome_status":null,"persistent_id":"","id":83049340,"location_subtype":"","month":"2020-04"},{"category":"anti-social-behaviour","location_type":"Force","location":{"latitude":"51.511315","street":{"id":956213,"name":"On or near Conference/exhibition Centre"},"longitude":"-0.118528"},"context":"","outcome_status":null,"persistent_id":"","id":83039908,"location_subtype":"","month":"2020-04"},{"category":"anti-social-behaviour","location_type":"Force","location":{"latitude":"51.497534","street":{"id":953272,"name":"On or near Old Pye Street"},"longitude":"-0.132278"},"context":"","outcome_status":null,"persistent_id":"","id":83041352,"location_subtype":"","month":"2020-04"},{"category":"anti-social-behaviour","location_type":"Force","location":{"latitude":"51.511315","street":{"id":956213,"name":"On or near Conference/exhibition Centre"},"longitude":"-0.118528"},"context":"","outcome_status":null,"persistent_id":"","id":83039910,"location_subtype":"","month":"2020-04"},{"category":"anti-social-behaviour","location_type":"Force","location":{"latitude":"51.501299","street":{"id":953478,"name":"On or near Tanswell Street"},"longitude":"-0.111333"},"context":"","outcome_status":null,"persistent_id":"","id":83019820,"location_subtype":"","month":"2020-04"},{"category":"anti-social-behaviour","location_type":"Force","location":{"latitude":"51.512427","street":{"id":956193,"name":"On or near Catherine Street"},"longitude":"-0.119966"},"context":"","outcome_status":null,"persistent_id":"","id":83039918,"location_subtype":"","month":"2020-04"},{"category":"anti-social-behaviour","location_type":"Force","location":{"latitude":"51.490842","street":{"id":949562,"name":"On or near Petrol Station"},"longitude":"-0.111448"},"context":"","outcome_status":null,"persistent_id":"","id":83019815,"location_subtype":"","month":"2020-04"},{"category":"anti-social-behaviour","location_type":"Force","location":{"latitude":"51.497534","street":{"id":953272,"name":"On or near Old Pye Street"},"longitude":"-0.132278"},"context":"","outcome_status":null,"persistent_id":"","id":83041353,"location_subtype":"","month":"2020-04"},{"category":"anti-social-behaviour","location_type":"Force","location":{"latitude":"51.516586","street":{"id":956237,"name":"On or near Newton Street"},"longitude":"-0.121395"},"context":"","outcome_status":null,"persistent_id":"","id":83049377,"location_subtype":"","month":"2020-04"},{"category":"anti-social-behaviour","location_type":"Force","location":{"latitude":"51.515957","street":{"id":956164,"name":"On or near Parker Street"},"longitude":"-0.121421"},"context":"","outcome_status":null,"persistent_id":"","id":83049376,"location_subtype":"","month":"2020-04"},{"category":"anti-social-behaviour","location_type":"Force","location":{"latitude":"51.516213","street":{"id":956172,"name":"On or near Kingsway"},"longitude":"-0.119450"},"context":"","outcome_status":null,"persistent_id":"","id":83049343,"location_subtype":"","month":"2020-04"},{"category":"anti-social-behaviour","location_type":"Force","location":{"latitude":"51.515412","street":{"id":956190,"name":"On or near Drury Lane"},"longitude":"-0.123317"},"context":"","outcome_status":null,"persistent_id":"","id":83049433,"location_subtype":"","month":"2020-04"},{"category":"anti-social-behaviour","location_type":"Force","location":{"latitude":"51.499502","street":{"id":953349,"name":"On or near Buckingham Mews"},"longitude":"-0.141245"},"context":"","outcome_status":null,"persistent_id":"","id":83042817,"location_subtype":"","month":"2020-04"},{"category":"anti-social-behaviour","location_type":"Force","location":{"latitude":"51.508581","street":{"id":956540,"name":"On or near Babmaes Street"},"longitude":"-0.134838"},"context":"","outcome_status":null,"persistent_id":"","id":83041901,"location_subtype":"","month":"2020-04"},{"category":"anti-social-behaviour","location_type":"Force","location":{"latitude":"51.514295","street":{"id":956531,"name":"On or near Chapone Place"},"longitude":"-0.132789"},"context":"","outcome_status":null,"persistent_id":"","id":83041853,"location_subtype":"","month":"2020-04"},{"category":"anti-social-behaviour","location_type":"Force","location":{"latitude":"51.499056","street":{"id":953350,"name":"On or near Buckingham Gate"},"longitude":"-0.138094"},"context":"","outcome_status":null,"persistent_id":"","id":83041978,"location_subtype":"","month":"2020-04"},{"category":"anti-social-behaviour","location_type":"Force","location":{"latitude":"51.511595","street":{"id":956536,"name":"On or near Brewer Street"},"longitude":"-0.135464"},"context":"","outcome_status":null,"persistent_id":"","id":83041935,"location_subtype":"","month":"2020-04"},{"category":"anti-social-behaviour","location_type":"Force","location":{"latitude":"51.513734","street":{"id":956189,"name":"On or near Drury Lane"},"longitude":"-0.120158"},"context":"","outcome_status":null,"persistent_id":"","id":83039913,"location_subtype":"","month":"2020-04"},{"category":"anti-social-behaviour","location_type":"Force","location":{"latitude":"51.514502","street":{"id":956594,"name":"On or near Theatre/concert Hall"},"longitude":"-0.132780"},"context":"","outcome_status":null,"persistent_id":"","id":83041374,"location_subtype":"","month":"2020-04"},{"category":"anti-social-behaviour","location_type":"Force","location":{"latitude":"51.514502","street":{"id":956594,"name":"On or near Theatre/concert Hall"},"longitude":"-0.132780"},"context":"","outcome_status":null,"persistent_id":"","id":83041369,"location_subtype":"","month":"2020-04"},{"category":"anti-social-behaviour","location_type":"Force","location":{"latitude":"51.500556","street":{"id":953307,"name":"On or near Queen Anne's Gate"},"longitude":"-0.132918"},"context":"","outcome_status":null,"persistent_id":"","id":83041368,"location_subtype":"","month":"2020-04"},{"category":"anti-social-behaviour","location_type":"Force","location":{"latitude":"51.492264","street":{"id":953408,"name":"On or near Regency Street"},"longitude":"-0.132277"},"context":"","outcome_status":null,"persistent_id":"","id":83041346,"location_subtype":"","month":"2020-04"},{"category":"anti-social-behaviour","location_type":"Force","location":{"latitude":"51.498328","street":{"id":953294,"name":"On or near Abbey Orchard Street"},"longitude":"-0.131338"},"context":"","outcome_status":null,"persistent_id":"","id":83041337,"location_subtype":"","month":"2020-04"},{"category":"anti-social-behaviour","location_type":"Force","location":{"latitude":"51.500808","street":{"id":953309,"name":"On or near Old Queen Street"},"longitude":"-0.130646"},"context":"","outcome_status":null,"persistent_id":"","id":83041321,"location_subtype":"","month":"2020-04"},{"category":"anti-social-behaviour","location_type":"Force","location":{"latitude":"51.500880","street":{"id":953729,"name":"On or near Pickwick Street"},"longitude":"-0.096553"},"context":"","outcome_status":null,"persistent_id":"","id":83030656,"location_subtype":"","month":"2020-04"},{"category":"anti-social-behaviour","location_type":"Force","location":{"latitude":"51.514639","street":{"id":956146,"name":"On or near Wild Street"},"longitude":"-0.120567"},"context":"","outcome_status":null,"persistent_id":"","id":83039923,"location_subtype":"","month":"2020-04"},{"category":"anti-social-behaviour","location_type":"Force","location":{"latitude":"51.497534","street":{"id":953272,"name":"On or near Old Pye Street"},"longitude":"-0.132278"},"context":"","outcome_status":null,"persistent_id":"","id":83041355,"location_subtype":"","month":"2020-04"},{"category":"anti-social-behaviour","location_type":"Force","location":{"latitude":"51.497534","street":{"id":953272,"name":"On or near Old Pye Street"},"longitude":"-0.132278"},"context":"","outcome_status":null,"persistent_id":"","id":83041358,"location_subtype":"","month":"2020-04"},{"category":"anti-social-behaviour","location_type":"Force","location":{"latitude":"51.497534","street":{"id":953272,"name":"On or near Old Pye Street"},"longitude":"-0.132278"},"context":"","outcome_status":null,"persistent_id":"","id":83041360,"location_subtype":"","month":"2020-04"},{"category":"anti-social-behaviour","location_type":"Force","location":{"latitude":"51.500844","street":{"id":953528,"name":"On or near Westminster Bridge Road"},"longitude":"-0.122777"},"context":"","outcome_status":null,"persistent_id":"","id":83039954,"location_subtype":"","month":"2020-04"},{"category":"anti-social-behaviour","location_type":"Force","location":{"latitude":"51.495745","street":{"id":953256,"name":"On or near Parking Area"},"longitude":"-0.132308"},"context":"","outcome_status":null,"persistent_id":"","id":83041361,"location_subtype":"","month":"2020-04"},{"category":"anti-social-behaviour","location_type":"Force","location":{"latitude":"51.495745","street":{"id":953256,"name":"On or near Parking Area"},"longitude":"-0.132308"},"context":"","outcome_status":null,"persistent_id":"","id":83041362,"location_subtype":"","month":"2020-04"},{"category":"anti-social-behaviour","location_type":"Force","location":{"latitude":"51.495745","street":{"id":953256,"name":"On or near Parking Area"},"longitude":"-0.132308"},"context":"","outcome_status":null,"persistent_id":"","id":83041363,"location_subtype":"","month":"2020-04"},{"category":"anti-social-behaviour","location_type":"Force","location":{"latitude":"51.495745","street":{"id":953256,"name":"On or near Parking Area"},"longitude":"-0.132308"},"context":"","outcome_status":null,"persistent_id":"","id":83041364,"location_subtype":"","month":"2020-04"},{"category":"anti-social-behaviour","location_type":"Force","location":{"latitude":"51.500844","street":{"id":953528,"name":"On or near Westminster Bridge Road"},"longitude":"-0.122777"},"context":"","outcome_status":null,"persistent_id":"","id":83039957,"location_subtype":"","month":"2020-04"},{"category":"anti-social-behaviour","location_type":"Force","location":{"latitude":"51.492014","street":{"id":949707,"name":"On or near Esterbrooke Street"},"longitude":"-0.132921"},"context":"","outcome_status":null,"persistent_id":"","id":83041367,"location_subtype":"","month":"2020-04"},{"category":"anti-social-behaviour","location_type":"Force","location":{"latitude":"51.514502","street":{"id":956594,"name":"On or near Theatre/concert Hall"},"longitude":"-0.132780"},"context":"","outcome_status":null,"persistent_id":"","id":83041371,"location_subtype":"","month":"2020-04"},{"category":"anti-social-behaviour","location_type":"Force","location":{"latitude":"51.514502","street":{"id":956594,"name":"On or near Theatre/concert Hall"},"longitude":"-0.132780"},"context":"","outcome_status":null,"persistent_id":"","id":83041372,"location_subtype":"","month":"2020-04"},{"category":"anti-social-behaviour","location_type":"Force","location":{"latitude":"51.490842","street":{"id":949562,"name":"On or near Petrol Station"},"longitude":"-0.111448"},"context":"","outcome_status":null,"persistent_id":"","id":83019799,"location_subtype":"","month":"2020-04"},{"category":"anti-social-behaviour","location_type":"Force","location":{"latitude":"51.500844","street":{"id":953528,"name":"On or near Westminster Bridge Road"},"longitude":"-0.122777"},"context":"","outcome_status":null,"persistent_id":"","id":83039956,"location_subtype":"","month":"2020-04"},{"category":"anti-social-behaviour","location_type":"Force","location":{"latitude":"51.500844","street":{"id":953528,"name":"On or near Westminster Bridge Road"},"longitude":"-0.122777"},"context":"","outcome_status":null,"persistent_id":"","id":83039962,"location_subtype":"","month":"2020-04"},{"category":"anti-social-behaviour","location_type":"Force","location":{"latitude":"51.514502","street":{"id":956594,"name":"On or near Theatre/concert Hall"},"longitude":"-0.132780"},"context":"","outcome_status":null,"persistent_id":"","id":83041373,"location_subtype":"","month":"2020-04"},{"category":"anti-social-behaviour","location_type":"Force","location":{"latitude":"51.491668","street":{"id":949717,"name":"On or near Chapter Street"},"longitude":"-0.133267"},"context":"","outcome_status":null,"persistent_id":"","id":83041377,"location_subtype":"","month":"2020-04"},{"category":"anti-social-behaviour","location_type":"Force","location":{"latitude":"51.495222","street":{"id":953406,"name":"On or near Rochester Street"},"longitude":"-0.135038"},"context":"","outcome_status":null,"persistent_id":"","id":83041914,"location_subtype":"","month":"2020-04"},{"category":"anti-social-behaviour","location_type":"Force","location":{"latitude":"51.491668","street":{"id":949717,"name":"On or near Chapter Street"},"longitude":"-0.133267"},"context":"","outcome_status":null,"persistent_id":"","id":83041378,"location_subtype":"","month":"2020-04"},{"category":"anti-social-behaviour","location_type":"Force","location":{"latitude":"51.501992","street":{"id":953531,"name":"On or near Derby Gate"},"longitude":"-0.125381"},"context":"","outcome_status":null,"persistent_id":"","id":83041195,"location_subtype":"","month":"2020-04"},{"category":"anti-social-behaviour","location_type":"Force","location":{"latitude":"51.500969","street":{"id":953533,"name":"On or near Bridge Street"},"longitude":"-0.124933"},"context":"","outcome_status":null,"persistent_id":"","id":83041201,"location_subtype":"","month":"2020-04"},{"category":"anti-social-behaviour","location_type":"Force","location":{"latitude":"51.495745","street":{"id":953256,"name":"On or near Parking Area"},"longitude":"-0.132308"},"context":"","outcome_status":null,"persistent_id":"","id":83041379,"location_subtype":"","month":"2020-04"},{"category":"anti-social-behaviour","location_type":"Force","location":{"latitude":"51.509902","street":{"id":956586,"name":"On or near Theatre/concert Hall"},"longitude":"-0.126310"},"context":"","outcome_status":null,"persistent_id":"","id":83041220,"location_subtype":"","month":"2020-04"},{"category":"anti-social-behaviour","location_type":"Force","location":{"latitude":"51.495745","street":{"id":953256,"name":"On or near Parking Area"},"longitude":"-0.132308"},"context":"","outcome_status":null,"persistent_id":"","id":83041380,"location_subtype":"","month":"2020-04"},{"category":"anti-social-behaviour","location_type":"Force","location":{"latitude":"51.496706","street":{"id":953276,"name":"On or near Lord North Street"},"longitude":"-0.127154"},"context":"","outcome_status":null,"persistent_id":"","id":83041234,"location_subtype":"","month":"2020-04"},{"category":"anti-social-behaviour","location_type":"Force","location":{"latitude":"51.506712","street":{"id":956659,"name":"On or near Craig's Court"},"longitude":"-0.126974"},"context":"","outcome_status":null,"persistent_id":"","id":83041242,"location_subtype":"","month":"2020-04"},{"category":"anti-social-behaviour","location_type":"Force","location":{"latitude":"51.492669","street":{"id":953413,"name":"On or near Marsham Street"},"longitude":"-0.128919"},"context":"","outcome_status":null,"persistent_id":"","id":83041247,"location_subtype":"","month":"2020-04"},{"category":"anti-social-behaviour","location_type":"Force","location":{"latitude":"51.495745","street":{"id":953256,"name":"On or near Parking Area"},"longitude":"-0.132308"},"context":"","outcome_status":null,"persistent_id":"","id":83041381,"location_subtype":"","month":"2020-04"},{"category":"anti-social-behaviour","location_type":"Force","location":{"latitude":"51.496780","street":{"id":953297,"name":"On or near Conference/exhibition Centre"},"longitude":"-0.128966"},"context":"","outcome_status":null,"persistent_id":"","id":83041256,"location_subtype":"","month":"2020-04"},{"category":"anti-social-behaviour","location_type":"Force","location":{"latitude":"51.497091","street":{"id":953262,"name":"On or near St Matthew Street"},"longitude":"-0.133261"},"context":"","outcome_status":null,"persistent_id":"","id":83041387,"location_subtype":"","month":"2020-04"},{"category":"anti-social-behaviour","location_type":"Force","location":{"latitude":"51.514295","street":{"id":956531,"name":"On or near Chapone Place"},"longitude":"-0.132789"},"context":"","outcome_status":null,"persistent_id":"","id":83041856,"location_subtype":"","month":"2020-04"},{"category":"anti-social-behaviour","location_type":"Force","location":{"latitude":"51.507309","street":{"id":956645,"name":"On or near Pedestrian Subway"},"longitude":"-0.128348"},"context":"","outcome_status":null,"persistent_id":"","id":83041258,"location_subtype":"","month":"2020-04"},{"category":"anti-social-behaviour","location_type":"Force","location":{"latitude":"51.514295","street":{"id":956531,"name":"On or near Chapone Place"},"longitude":"-0.132789"},"context":"","outcome_status":null,"persistent_id":"","id":83041857,"location_subtype":"","month":"2020-04"},{"category":"anti-social-behaviour","location_type":"Force","location":{"latitude":"51.514295","street":{"id":956531,"name":"On or near Chapone Place"},"longitude":"-0.132789"},"context":"","outcome_status":null,"persistent_id":"","id":83041858,"location_subtype":"","month":"2020-04"},{"category":"anti-social-behaviour","location_type":"Force","location":{"latitude":"51.514295","street":{"id":956531,"name":"On or near Chapone Place"},"longitude":"-0.132789"},"context":"","outcome_status":null,"persistent_id":"","id":83041859,"location_subtype":"","month":"2020-04"},{"category":"anti-social-behaviour","location_type":"Force","location":{"latitude":"51.514295","street":{"id":956531,"name":"On or near Chapone Place"},"longitude":"-0.132789"},"context":"","outcome_status":null,"persistent_id":"","id":83041860,"location_subtype":"","month":"2020-04"},{"category":"anti-social-behaviour","location_type":"Force","location":{"latitude":"51.490842","street":{"id":949562,"name":"On or near Petrol Station"},"longitude":"-0.111448"},"context":"","outcome_status":null,"persistent_id":"","id":83019798,"location_subtype":"","month":"2020-04"},{"category":"anti-social-behaviour","location_type":"Force","location":{"latitude":"51.490842","street":{"id":949562,"name":"On or near Petrol Station"},"longitude":"-0.111448"},"context":"","outcome_status":null,"persistent_id":"","id":83019797,"location_subtype":"","month":"2020-04"},{"category":"anti-social-behaviour","location_type":"Force","location":{"latitude":"51.507657","street":{"id":956660,"name":"On or near Cockspur Street"},"longitude":"-0.129890"},"context":"","outcome_status":null,"persistent_id":"","id":83041277,"location_subtype":"","month":"2020-04"},{"category":"anti-social-behaviour","location_type":"Force","location":{"latitude":"51.514295","street":{"id":956531,"name":"On or near Chapone Place"},"longitude":"-0.132789"},"context":"","outcome_status":null,"persistent_id":"","id":83041861,"location_subtype":"","month":"2020-04"},{"category":"anti-social-behaviour","location_type":"Force","location":{"latitude":"51.514295","street":{"id":956531,"name":"On or near Chapone Place"},"longitude":"-0.132789"},"context":"","outcome_status":null,"persistent_id":"","id":83041862,"location_subtype":"","month":"2020-04"},{"category":"anti-social-behaviour","location_type":"Force","location":{"latitude":"51.496909","street":{"id":953283,"name":"On or near Great Peter Street"},"longitude":"-0.129739"},"context":"","outcome_status":null,"persistent_id":"","id":83041284,"location_subtype":"","month":"2020-04"},{"category":"anti-social-behaviour","location_type":"Force","location":{"latitude":"51.514295","street":{"id":956531,"name":"On or near Chapone Place"},"longitude":"-0.132789"},"context":"","outcome_status":null,"persistent_id":"","id":83041863,"location_subtype":"","month":"2020-04"},{"category":"anti-social-behaviour","location_type":"Force","location":{"latitude":"51.514295","street":{"id":956531,"name":"On or near Chapone Place"},"longitude":"-0.132789"},"context":"","outcome_status":null,"persistent_id":"","id":83041865,"location_subtype":"","month":"2020-04"},{"category":"anti-social-behaviour","location_type":"Force","location":{"latitude":"51.514295","street":{"id":956531,"name":"On or near Chapone Place"},"longitude":"-0.132789"},"context":"","outcome_status":null,"persistent_id":"","id":83041866,"location_subtype":"","month":"2020-04"},{"category":"anti-social-behaviour","location_type":"Force","location":{"latitude":"51.514295","street":{"id":956531,"name":"On or near Chapone Place"},"longitude":"-0.132789"},"context":"","outcome_status":null,"persistent_id":"","id":83041867,"location_subtype":"","month":"2020-04"},{"category":"anti-social-behaviour","location_type":"Force","location":{"latitude":"51.498436","street":{"id":953432,"name":"On or near Westminster Bridge Road"},"longitude":"-0.111105"},"context":"","outcome_status":null,"persistent_id":"","id":83019796,"location_subtype":"","month":"2020-04"},{"category":"anti-social-behaviour","location_type":"Force","location":{"latitude":"51.514295","street":{"id":956531,"name":"On or near Chapone Place"},"longitude":"-0.132789"},"context":"","outcome_status":null,"persistent_id":"","id":83041868,"location_subtype":"","month":"2020-04"},{"category":"anti-social-behaviour","location_type":"Force","location":{"latitude":"51.514295","street":{"id":956531,"name":"On or near Chapone Place"},"longitude":"-0.132789"},"context":"","outcome_status":null,"persistent_id":"","id":83041869,"location_subtype":"","month":"2020-04"},{"category":"anti-social-behaviour","location_type":"Force","location":{"latitude":"51.500076","street":{"id":953512,"name":"On or near Sports/recreation Area"},"longitude":"-0.111902"},"context":"","outcome_status":null,"persistent_id":"","id":83019826,"location_subtype":"","month":"2020-04"},{"category":"anti-social-behaviour","location_type":"Force","location":{"latitude":"51.490842","street":{"id":949562,"name":"On or near Petrol Station"},"longitude":"-0.111448"},"context":"","outcome_status":null,"persistent_id":"","id":83019780,"location_subtype":"","month":"2020-04"},{"category":"anti-social-behaviour","location_type":"Force","location":{"latitude":"51.494401","street":{"id":953411,"name":"On or near Maunsel Street"},"longitude":"-0.133213"},"context":"","outcome_status":null,"persistent_id":"","id":83041871,"location_subtype":"","month":"2020-04"},{"category":"anti-social-behaviour","location_type":"Force","location":{"latitude":"51.498734","street":{"id":953301,"name":"On or near Police Station"},"longitude":"-0.133122"},"context":"","outcome_status":null,"persistent_id":"","id":83041874,"location_subtype":"","month":"2020-04"},{"category":"anti-social-behaviour","location_type":"Force","location":{"latitude":"51.493930","street":{"id":953410,"name":"On or near Page Street"},"longitude":"-0.129573"},"context":"","outcome_status":null,"persistent_id":"","id":83041308,"location_subtype":"","month":"2020-04"},{"category":"anti-social-behaviour","location_type":"Force","location":{"latitude":"51.495874","street":{"id":953273,"name":"On or near Monck Street"},"longitude":"-0.130819"},"context":"","outcome_status":null,"persistent_id":"","id":83041316,"location_subtype":"","month":"2020-04"},{"category":"anti-social-behaviour","location_type":"Force","location":{"latitude":"51.495307","street":{"id":953424,"name":"On or near Arneway Street"},"longitude":"-0.131908"},"context":"","outcome_status":null,"persistent_id":"","id":83041330,"location_subtype":"","month":"2020-04"},{"category":"anti-social-behaviour","location_type":"Force","location":{"latitude":"51.498734","street":{"id":953301,"name":"On or near Police Station"},"longitude":"-0.133122"},"context":"","outcome_status":null,"persistent_id":"","id":83041876,"location_subtype":"","month":"2020-04"},{"category":"anti-social-behaviour","location_type":"Force","location":{"latitude":"51.498734","street":{"id":953301,"name":"On or near Police Station"},"longitude":"-0.133122"},"context":"","outcome_status":null,"persistent_id":"","id":83041877,"location_subtype":"","month":"2020-04"},{"category":"anti-social-behaviour","location_type":"Force","location":{"latitude":"51.498734","street":{"id":953301,"name":"On or near Police Station"},"longitude":"-0.133122"},"context":"","outcome_status":null,"persistent_id":"","id":83041878,"location_subtype":"","month":"2020-04"},{"category":"anti-social-behaviour","location_type":"Force","location":{"latitude":"51.498734","street":{"id":953301,"name":"On or near Police Station"},"longitude":"-0.133122"},"context":"","outcome_status":null,"persistent_id":"","id":83041880,"location_subtype":"","month":"2020-04"},{"category":"anti-social-behaviour","location_type":"Force","location":{"latitude":"51.490842","street":{"id":949562,"name":"On or near Petrol Station"},"longitude":"-0.111448"},"context":"","outcome_status":null,"persistent_id":"","id":83019779,"location_subtype":"","month":"2020-04"},{"category":"anti-social-behaviour","location_type":"Force","location":{"latitude":"51.490842","street":{"id":949562,"name":"On or near Petrol Station"},"longitude":"-0.111448"},"context":"","outcome_status":null,"persistent_id":"","id":83019778,"location_subtype":"","month":"2020-04"},{"category":"anti-social-behaviour","location_type":"Force","location":{"latitude":"51.496304","street":{"id":953281,"name":"On or near Greycoat Place"},"longitude":"-0.134648"},"context":"","outcome_status":null,"persistent_id":"","id":83041881,"location_subtype":"","month":"2020-04"},{"category":"anti-social-behaviour","location_type":"Force","location":{"latitude":"51.497235","street":{"id":953261,"name":"On or near Strutton Ground"},"longitude":"-0.133860"},"context":"","outcome_status":null,"persistent_id":"","id":83041894,"location_subtype":"","month":"2020-04"},{"category":"anti-social-behaviour","location_type":"Force","location":{"latitude":"51.511624","street":{"id":956541,"name":"On or near Archer Street"},"longitude":"-0.133878"},"context":"","outcome_status":null,"persistent_id":"","id":83041895,"location_subtype":"","month":"2020-04"},{"category":"anti-social-behaviour","location_type":"Force","location":{"latitude":"51.499150","street":{"id":953263,"name":"On or near St Ermin's Hill"},"longitude":"-0.133797"},"context":"","outcome_status":null,"persistent_id":"","id":83041896,"location_subtype":"","month":"2020-04"},{"category":"anti-social-behaviour","location_type":"Force","location":{"latitude":"51.490842","street":{"id":949562,"name":"On or near Petrol Station"},"longitude":"-0.111448"},"context":"","outcome_status":null,"persistent_id":"","id":83019777,"location_subtype":"","month":"2020-04"},{"category":"anti-social-behaviour","location_type":"Force","location":{"latitude":"51.512720","street":{"id":956474,"name":"On or near Peter Street"},"longitude":"-0.134395"},"context":"","outcome_status":null,"persistent_id":"","id":83041897,"location_subtype":"","month":"2020-04"},{"category":"anti-social-behaviour","location_type":"Force","location":{"latitude":"51.495307","street":{"id":953424,"name":"On or near Arneway Street"},"longitude":"-0.131908"},"context":"","outcome_status":null,"persistent_id":"","id":83041335,"location_subtype":"","month":"2020-04"},{"category":"anti-social-behaviour","location_type":"Force","location":{"latitude":"51.508581","street":{"id":956540,"name":"On or near Babmaes Street"},"longitude":"-0.134838"},"context":"","outcome_status":null,"persistent_id":"","id":83041900,"location_subtype":"","month":"2020-04"},{"category":"anti-social-behaviour","location_type":"Force","location":{"latitude":"51.496931","street":{"id":953293,"name":"On or near Artillery Row"},"longitude":"-0.135631"},"context":"","outcome_status":null,"persistent_id":"","id":83041908,"location_subtype":"","month":"2020-04"},{"category":"anti-social-behaviour","location_type":"Force","location":{"latitude":"51.490842","street":{"id":949562,"name":"On or near Petrol Station"},"longitude":"-0.111448"},"context":"","outcome_status":null,"persistent_id":"","id":83019776,"location_subtype":"","month":"2020-04"},{"category":"anti-social-behaviour","location_type":"Force","location":{"latitude":"51.496931","street":{"id":953293,"name":"On or near Artillery Row"},"longitude":"-0.135631"},"context":"","outcome_status":null,"persistent_id":"","id":83041910,"location_subtype":"","month":"2020-04"},{"category":"anti-social-behaviour","location_type":"Force","location":{"latitude":"51.495222","street":{"id":953406,"name":"On or near Rochester Street"},"longitude":"-0.135038"},"context":"","outcome_status":null,"persistent_id":"","id":83041911,"location_subtype":"","month":"2020-04"},{"category":"anti-social-behaviour","location_type":"Force","location":{"latitude":"51.495424","street":{"id":953274,"name":"On or near Medway Street"},"longitude":"-0.131918"},"context":"","outcome_status":null,"persistent_id":"","id":83041336,"location_subtype":"","month":"2020-04"},{"category":"anti-social-behaviour","location_type":"Force","location":{"latitude":"51.495222","street":{"id":953406,"name":"On or near Rochester Street"},"longitude":"-0.135038"},"context":"","outcome_status":null,"persistent_id":"","id":83041912,"location_subtype":"","month":"2020-04"},{"category":"anti-social-behaviour","location_type":"Force","location":{"latitude":"51.497534","street":{"id":953272,"name":"On or near Old Pye Street"},"longitude":"-0.132278"},"context":"","outcome_status":null,"persistent_id":"","id":83041348,"location_subtype":"","month":"2020-04"},{"category":"anti-social-behaviour","location_type":"Force","location":{"latitude":"51.493930","street":{"id":953410,"name":"On or near Page Street"},"longitude":"-0.129573"},"context":"","outcome_status":null,"persistent_id":"","id":83041301,"location_subtype":"","month":"2020-04"},{"category":"anti-social-behaviour","location_type":"Force","location":{"latitude":"51.493930","street":{"id":953410,"name":"On or near Page Street"},"longitude":"-0.129573"},"context":"","outcome_status":null,"persistent_id":"","id":83041303,"location_subtype":"","month":"2020-04"},{"category":"anti-social-behaviour","location_type":"Force","location":{"latitude":"51.493930","street":{"id":953410,"name":"On or near Page Street"},"longitude":"-0.129573"},"context":"","outcome_status":null,"persistent_id":"","id":83041304,"location_subtype":"","month":"2020-04"},{"category":"anti-social-behaviour","location_type":"Force","location":{"latitude":"51.493930","street":{"id":953410,"name":"On or near Page Street"},"longitude":"-0.129573"},"context":"","outcome_status":null,"persistent_id":"","id":83041305,"location_subtype":"","month":"2020-04"},{"category":"anti-social-behaviour","location_type":"Force","location":{"latitude":"51.493930","street":{"id":953410,"name":"On or near Page Street"},"longitude":"-0.129573"},"context":"","outcome_status":null,"persistent_id":"","id":83041306,"location_subtype":"","month":"2020-04"},{"category":"anti-social-behaviour","location_type":"Force","location":{"latitude":"51.493930","street":{"id":953410,"name":"On or near Page Street"},"longitude":"-0.129573"},"context":"","outcome_status":null,"persistent_id":"","id":83041307,"location_subtype":"","month":"2020-04"},{"category":"anti-social-behaviour","location_type":"Force","location":{"latitude":"51.496909","street":{"id":953283,"name":"On or near Great Peter Street"},"longitude":"-0.129739"},"context":"","outcome_status":null,"persistent_id":"","id":83041309,"location_subtype":"","month":"2020-04"},{"category":"anti-social-behaviour","location_type":"Force","location":{"latitude":"51.495874","street":{"id":953273,"name":"On or near Monck Street"},"longitude":"-0.130819"},"context":"","outcome_status":null,"persistent_id":"","id":83041313,"location_subtype":"","month":"2020-04"},{"category":"anti-social-behaviour","location_type":"Force","location":{"latitude":"51.495874","street":{"id":953273,"name":"On or near Monck Street"},"longitude":"-0.130819"},"context":"","outcome_status":null,"persistent_id":"","id":83041314,"location_subtype":"","month":"2020-04"},{"category":"anti-social-behaviour","location_type":"Force","location":{"latitude":"51.495874","street":{"id":953273,"name":"On or near Monck Street"},"longitude":"-0.130819"},"context":"","outcome_status":null,"persistent_id":"","id":83041315,"location_subtype":"","month":"2020-04"},{"category":"anti-social-behaviour","location_type":"Force","location":{"latitude":"51.509787","street":{"id":956556,"name":"On or near Nightclub"},"longitude":"-0.129240"},"context":"","outcome_status":null,"persistent_id":"","id":83041279,"location_subtype":"","month":"2020-04"},{"category":"anti-social-behaviour","location_type":"Force","location":{"latitude":"51.501723","street":{"id":953712,"name":"On or near Weller Street"},"longitude":"-0.096403"},"context":"","outcome_status":null,"persistent_id":"","id":83030664,"location_subtype":"","month":"2020-04"},{"category":"anti-social-behaviour","location_type":"Force","location":{"latitude":"51.501723","street":{"id":953712,"name":"On or near Weller Street"},"longitude":"-0.096403"},"context":"","outcome_status":null,"persistent_id":"","id":83030665,"location_subtype":"","month":"2020-04"},{"category":"anti-social-behaviour","location_type":"Force","location":{"latitude":"51.493930","street":{"id":953410,"name":"On or near Page Street"},"longitude":"-0.129573"},"context":"","outcome_status":null,"persistent_id":"","id":83041280,"location_subtype":"","month":"2020-04"},{"category":"anti-social-behaviour","location_type":"Force","location":{"latitude":"51.493930","street":{"id":953410,"name":"On or near Page Street"},"longitude":"-0.129573"},"context":"","outcome_status":null,"persistent_id":"","id":83041281,"location_subtype":"","month":"2020-04"},{"category":"anti-social-behaviour","location_type":"Force","location":{"latitude":"51.493930","street":{"id":953410,"name":"On or near Page Street"},"longitude":"-0.129573"},"context":"","outcome_status":null,"persistent_id":"","id":83041282,"location_subtype":"","month":"2020-04"},{"category":"anti-social-behaviour","location_type":"Force","location":{"latitude":"51.495874","street":{"id":953273,"name":"On or near Monck Street"},"longitude":"-0.130819"},"context":"","outcome_status":null,"persistent_id":"","id":83041299,"location_subtype":"","month":"2020-04"},{"category":"anti-social-behaviour","location_type":"Force","location":{"latitude":"51.503248","street":{"id":953727,"name":"On or near Risborough Street"},"longitude":"-0.100042"},"context":"","outcome_status":null,"persistent_id":"","id":83031381,"location_subtype":"","month":"2020-04"},{"category":"anti-social-behaviour","location_type":"Force","location":{"latitude":"51.495874","street":{"id":953273,"name":"On or near Monck Street"},"longitude":"-0.130819"},"context":"","outcome_status":null,"persistent_id":"","id":83041300,"location_subtype":"","month":"2020-04"},{"category":"anti-social-behaviour","location_type":"Force","location":{"latitude":"51.493930","street":{"id":953410,"name":"On or near Page Street"},"longitude":"-0.129573"},"context":"","outcome_status":null,"persistent_id":"","id":83041302,"location_subtype":"","month":"2020-04"},{"category":"anti-social-behaviour","location_type":"Force","location":{"latitude":"51.495874","street":{"id":953273,"name":"On or near Monck Street"},"longitude":"-0.130819"},"context":"","outcome_status":null,"persistent_id":"","id":83041317,"location_subtype":"","month":"2020-04"},{"category":"anti-social-behaviour","location_type":"Force","location":{"latitude":"51.495874","street":{"id":953273,"name":"On or near Monck Street"},"longitude":"-0.130819"},"context":"","outcome_status":null,"persistent_id":"","id":83041318,"location_subtype":"","month":"2020-04"},{"category":"anti-social-behaviour","location_type":"Force","location":{"latitude":"51.500808","street":{"id":953309,"name":"On or near Old Queen Street"},"longitude":"-0.130646"},"context":"","outcome_status":null,"persistent_id":"","id":83041319,"location_subtype":"","month":"2020-04"},{"category":"anti-social-behaviour","location_type":"Force","location":{"latitude":"51.500808","street":{"id":953309,"name":"On or near Old Queen Street"},"longitude":"-0.130646"},"context":"","outcome_status":null,"persistent_id":"","id":83041320,"location_subtype":"","month":"2020-04"},{"category":"anti-social-behaviour","location_type":"Force","location":{"latitude":"51.500808","street":{"id":953309,"name":"On or near Old Queen Street"},"longitude":"-0.130646"},"context":"","outcome_status":null,"persistent_id":"","id":83041322,"location_subtype":"","month":"2020-04"},{"category":"anti-social-behaviour","location_type":"Force","location":{"latitude":"51.500808","street":{"id":953309,"name":"On or near Old Queen Street"},"longitude":"-0.130646"},"context":"","outcome_status":null,"persistent_id":"","id":83041323,"location_subtype":"","month":"2020-04"},{"category":"anti-social-behaviour","location_type":"Force","location":{"latitude":"51.506406","street":{"id":956680,"name":"On or near Park Place"},"longitude":"-0.139970"},"context":"","outcome_status":null,"persistent_id":"","id":83042029,"location_subtype":"","month":"2020-04"},{"category":"anti-social-behaviour","location_type":"Force","location":{"latitude":"51.503248","street":{"id":953727,"name":"On or near Risborough Street"},"longitude":"-0.100042"},"context":"","outcome_status":null,"persistent_id":"","id":83031382,"location_subtype":"","month":"2020-04"},{"category":"anti-social-behaviour","location_type":"Force","location":{"latitude":"51.500439","street":{"id":953746,"name":"On or near Collinson Street"},"longitude":"-0.098747"},"context":"","outcome_status":null,"persistent_id":"","id":83031290,"location_subtype":"","month":"2020-04"},{"category":"anti-social-behaviour","location_type":"Force","location":{"latitude":"51.500439","street":{"id":953746,"name":"On or near Collinson Street"},"longitude":"-0.098747"},"context":"","outcome_status":null,"persistent_id":"","id":83031307,"location_subtype":"","month":"2020-04"},{"category":"anti-social-behaviour","location_type":"Force","location":{"latitude":"51.500439","street":{"id":953746,"name":"On or near Collinson Street"},"longitude":"-0.098747"},"context":"","outcome_status":null,"persistent_id":"","id":83031313,"location_subtype":"","month":"2020-04"},{"category":"anti-social-behaviour","location_type":"Force","location":{"latitude":"51.500439","street":{"id":953746,"name":"On or near Collinson Street"},"longitude":"-0.098747"},"context":"","outcome_status":null,"persistent_id":"","id":83031314,"location_subtype":"","month":"2020-04"},{"category":"anti-social-behaviour","location_type":"Force","location":{"latitude":"51.498281","street":{"id":953690,"name":"On or near Parking Area"},"longitude":"-0.098750"},"context":"","outcome_status":null,"persistent_id":"","id":83031329,"location_subtype":"","month":"2020-04"},{"category":"anti-social-behaviour","location_type":"Force","location":{"latitude":"51.503238","street":{"id":953754,"name":"On or near Supermarket"},"longitude":"-0.098890"},"context":"","outcome_status":null,"persistent_id":"","id":83031333,"location_subtype":"","month":"2020-04"},{"category":"anti-social-behaviour","location_type":"Force","location":{"latitude":"51.505120","street":{"id":956278,"name":"On or near Theed Street"},"longitude":"-0.109590"},"context":"","outcome_status":null,"persistent_id":"","id":83018775,"location_subtype":"","month":"2020-04"},{"category":"anti-social-behaviour","location_type":"Force","location":{"latitude":"51.507339","street":{"id":956287,"name":"On or near Broadwall"},"longitude":"-0.108388"},"context":"","outcome_status":null,"persistent_id":"","id":83018798,"location_subtype":"","month":"2020-04"},{"category":"anti-social-behaviour","location_type":"Force","location":{"latitude":"51.506344","street":{"id":956286,"name":"On or near Coin Street"},"longitude":"-0.110216"},"context":"","outcome_status":null,"persistent_id":"","id":83018823,"location_subtype":"","month":"2020-04"},{"category":"anti-social-behaviour","location_type":"Force","location":{"latitude":"51.503350","street":{"id":953517,"name":"On or near Further/higher Educational Building"},"longitude":"-0.105830"},"context":"","outcome_status":null,"persistent_id":"","id":83017578,"location_subtype":"","month":"2020-04"},{"category":"anti-social-behaviour","location_type":"Force","location":{"latitude":"51.503637","street":{"id":953483,"name":"On or near Sandell Street"},"longitude":"-0.110804"},"context":"","outcome_status":null,"persistent_id":"","id":83019851,"location_subtype":"","month":"2020-04"},{"category":"anti-social-behaviour","location_type":"Force","location":{"latitude":"51.498436","street":{"id":953432,"name":"On or near Westminster Bridge Road"},"longitude":"-0.111105"},"context":"","outcome_status":null,"persistent_id":"","id":83019763,"location_subtype":"","month":"2020-04"},{"category":"anti-social-behaviour","location_type":"Force","location":{"latitude":"51.490842","street":{"id":949562,"name":"On or near Petrol Station"},"longitude":"-0.111448"},"context":"","outcome_status":null,"persistent_id":"","id":83019773,"location_subtype":"","month":"2020-04"},{"category":"anti-social-behaviour","location_type":"Force","location":{"latitude":"51.499656","street":{"id":953495,"name":"On or near Greenham Close"},"longitude":"-0.110392"},"context":"","outcome_status":null,"persistent_id":"","id":83019772,"location_subtype":"","month":"2020-04"},{"category":"anti-social-behaviour","location_type":"Force","location":{"latitude":"51.495756","street":{"id":953445,"name":"On or near Kennington Road"},"longitude":"-0.111115"},"context":"","outcome_status":null,"persistent_id":"","id":83019800,"location_subtype":"","month":"2020-04"},{"category":"anti-social-behaviour","location_type":"Force","location":{"latitude":"51.497580","street":{"id":953456,"name":"On or near Police Station"},"longitude":"-0.111573"},"context":"","outcome_status":null,"persistent_id":"","id":83019803,"location_subtype":"","month":"2020-04"},{"category":"anti-social-behaviour","location_type":"Force","location":{"latitude":"51.500076","street":{"id":953512,"name":"On or near Sports/recreation Area"},"longitude":"-0.111902"},"context":"","outcome_status":null,"persistent_id":"","id":83019825,"location_subtype":"","month":"2020-04"},{"category":"anti-social-behaviour","location_type":"Force","location":{"latitude":"51.500076","street":{"id":953512,"name":"On or near Sports/recreation Area"},"longitude":"-0.111902"},"context":"","outcome_status":null,"persistent_id":"","id":83019824,"location_subtype":"","month":"2020-04"},{"category":"anti-social-behaviour","location_type":"Force","location":{"latitude":"51.492512","street":{"id":953580,"name":"On or near Fitzalan Street"},"longitude":"-0.111797"},"context":"","outcome_status":null,"persistent_id":"","id":83019830,"location_subtype":"","month":"2020-04"},{"category":"anti-social-behaviour","location_type":"Force","location":{"latitude":"51.498436","street":{"id":953432,"name":"On or near Westminster Bridge Road"},"longitude":"-0.111105"},"context":"","outcome_status":null,"persistent_id":"","id":83019852,"location_subtype":"","month":"2020-04"},{"category":"anti-social-behaviour","location_type":"Force","location":{"latitude":"51.490190","street":{"id":949540,"name":"On or near Hotspur Street"},"longitude":"-0.112800"},"context":"","outcome_status":null,"persistent_id":"","id":83019863,"location_subtype":"","month":"2020-04"},{"category":"anti-social-behaviour","location_type":"Force","location":{"latitude":"51.490190","street":{"id":949540,"name":"On or near Hotspur Street"},"longitude":"-0.112800"},"context":"","outcome_status":null,"persistent_id":"","id":83019865,"location_subtype":"","month":"2020-04"},{"category":"anti-social-behaviour","location_type":"Force","location":{"latitude":"51.500019","street":{"id":953487,"name":"On or near Murphy Street"},"longitude":"-0.112265"},"context":"","outcome_status":null,"persistent_id":"","id":83019871,"location_subtype":"","month":"2020-04"},{"category":"anti-social-behaviour","location_type":"Force","location":{"latitude":"51.500656","street":{"id":953491,"name":"On or near Launcelot Street"},"longitude":"-0.112152"},"context":"","outcome_status":null,"persistent_id":"","id":83019878,"location_subtype":"","month":"2020-04"},{"category":"anti-social-behaviour","location_type":"Force","location":{"latitude":"51.498530","street":{"id":953436,"name":"On or near Newnham Terrace"},"longitude":"-0.113047"},"context":"","outcome_status":null,"persistent_id":"","id":83019880,"location_subtype":"","month":"2020-04"},{"category":"anti-social-behaviour","location_type":"Force","location":{"latitude":"51.500019","street":{"id":953487,"name":"On or near Murphy Street"},"longitude":"-0.112265"},"context":"","outcome_status":null,"persistent_id":"","id":83021083,"location_subtype":"","month":"2020-04"},{"category":"anti-social-behaviour","location_type":"Force","location":{"latitude":"51.500019","street":{"id":953487,"name":"On or near Murphy Street"},"longitude":"-0.112265"},"context":"","outcome_status":null,"persistent_id":"","id":83021084,"location_subtype":"","month":"2020-04"},{"category":"anti-social-behaviour","location_type":"Force","location":{"latitude":"51.500019","street":{"id":953487,"name":"On or near Murphy Street"},"longitude":"-0.112265"},"context":"","outcome_status":null,"persistent_id":"","id":83021085,"location_subtype":"","month":"2020-04"},{"category":"anti-social-behaviour","location_type":"Force","location":{"latitude":"51.494855","street":{"id":953573,"name":"On or near Lambeth Walk"},"longitude":"-0.113803"},"context":"","outcome_status":null,"persistent_id":"","id":83021119,"location_subtype":"","month":"2020-04"},{"category":"anti-social-behaviour","location_type":"Force","location":{"latitude":"51.501309","street":{"id":953509,"name":"On or near Addington Street"},"longitude":"-0.116419"},"context":"","outcome_status":null,"persistent_id":"","id":83021209,"location_subtype":"","month":"2020-04"},{"category":"anti-social-behaviour","location_type":"Force","location":{"latitude":"51.489256","street":{"id":949521,"name":"On or near Orsett Street"},"longitude":"-0.116267"},"context":"","outcome_status":null,"persistent_id":"","id":83021220,"location_subtype":"","month":"2020-04"},{"category":"anti-social-behaviour","location_type":"Force","location":{"latitude":"51.489256","street":{"id":949521,"name":"On or near Orsett Street"},"longitude":"-0.116267"},"context":"","outcome_status":null,"persistent_id":"","id":83021222,"location_subtype":"","month":"2020-04"},{"category":"anti-social-behaviour","location_type":"Force","location":{"latitude":"51.489256","street":{"id":949521,"name":"On or near Orsett Street"},"longitude":"-0.116267"},"context":"","outcome_status":null,"persistent_id":"","id":83021225,"location_subtype":"","month":"2020-04"},{"category":"anti-social-behaviour","location_type":"Force","location":{"latitude":"51.488812","street":{"id":949522,"name":"On or near Newburn Street"},"longitude":"-0.115493"},"context":"","outcome_status":null,"persistent_id":"","id":83021231,"location_subtype":"","month":"2020-04"},{"category":"anti-social-behaviour","location_type":"Force","location":{"latitude":"51.488812","street":{"id":949522,"name":"On or near Newburn Street"},"longitude":"-0.115493"},"context":"","outcome_status":null,"persistent_id":"","id":83021237,"location_subtype":"","month":"2020-04"},{"category":"anti-social-behaviour","location_type":"Force","location":{"latitude":"51.491377","street":{"id":949475,"name":"On or near Lilac Place"},"longitude":"-0.118412"},"context":"","outcome_status":null,"persistent_id":"","id":83023816,"location_subtype":"","month":"2020-04"},{"category":"anti-social-behaviour","location_type":"Force","location":{"latitude":"51.497899","street":{"id":953525,"name":"On or near Further/higher Educational Building"},"longitude":"-0.119685"},"context":"","outcome_status":null,"persistent_id":"","id":83024678,"location_subtype":"","month":"2020-04"},{"category":"anti-social-behaviour","location_type":"Force","location":{"latitude":"51.500439","street":{"id":953746,"name":"On or near Collinson Street"},"longitude":"-0.098747"},"context":"","outcome_status":null,"persistent_id":"","id":83031340,"location_subtype":"","month":"2020-04"},{"category":"anti-social-behaviour","location_type":"Force","location":{"latitude":"51.500439","street":{"id":953746,"name":"On or near Collinson Street"},"longitude":"-0.098747"},"context":"","outcome_status":null,"persistent_id":"","id":83031341,"location_subtype":"","month":"2020-04"},{"category":"anti-social-behaviour","location_type":"Force","location":{"latitude":"51.500439","street":{"id":953746,"name":"On or near Collinson Street"},"longitude":"-0.098747"},"context":"","outcome_status":null,"persistent_id":"","id":83031342,"location_subtype":"","month":"2020-04"},{"category":"anti-social-behaviour","location_type":"Force","location":{"latitude":"51.500439","street":{"id":953746,"name":"On or near Collinson Street"},"longitude":"-0.098747"},"context":"","outcome_status":null,"persistent_id":"","id":83031343,"location_subtype":"","month":"2020-04"},{"category":"anti-social-behaviour","location_type":"Force","location":{"latitude":"51.495928","street":{"id":953689,"name":"On or near Pedestrian Subway"},"longitude":"-0.100073"},"context":"","outcome_status":null,"persistent_id":"","id":83031365,"location_subtype":"","month":"2020-04"},{"category":"anti-social-behaviour","location_type":"Force","location":{"latitude":"51.495928","street":{"id":953689,"name":"On or near Pedestrian Subway"},"longitude":"-0.100073"},"context":"","outcome_status":null,"persistent_id":"","id":83031367,"location_subtype":"","month":"2020-04"},{"category":"anti-social-behaviour","location_type":"Force","location":{"latitude":"51.498996","street":{"id":953708,"name":"On or near Borough Road"},"longitude":"-0.100723"},"context":"","outcome_status":null,"persistent_id":"","id":83031369,"location_subtype":"","month":"2020-04"},{"category":"anti-social-behaviour","location_type":"Force","location":{"latitude":"51.498996","street":{"id":953708,"name":"On or near Borough Road"},"longitude":"-0.100723"},"context":"","outcome_status":null,"persistent_id":"","id":83031370,"location_subtype":"","month":"2020-04"},{"category":"anti-social-behaviour","location_type":"Force","location":{"latitude":"51.500317","street":{"id":953751,"name":"On or near Belvedere Buildings"},"longitude":"-0.100078"},"context":"","outcome_status":null,"persistent_id":"","id":83031371,"location_subtype":"","month":"2020-04"},{"category":"anti-social-behaviour","location_type":"Force","location":{"latitude":"51.505797","street":{"id":956285,"name":"On or near Colombo Street"},"longitude":"-0.105311"},"context":"","outcome_status":null,"persistent_id":"","id":83014368,"location_subtype":"","month":"2020-04"},{"category":"anti-social-behaviour","location_type":"Force","location":{"latitude":"51.505797","street":{"id":956285,"name":"On or near Colombo Street"},"longitude":"-0.105311"},"context":"","outcome_status":null,"persistent_id":"","id":83014369,"location_subtype":"","month":"2020-04"},{"category":"anti-social-behaviour","location_type":"Force","location":{"latitude":"51.493927","street":{"id":953583,"name":"On or near Brook Drive"},"longitude":"-0.106451"},"context":"","outcome_status":null,"persistent_id":"","id":83014370,"location_subtype":"","month":"2020-04"},{"category":"anti-social-behaviour","location_type":"Force","location":{"latitude":"51.502207","street":{"id":953728,"name":"On or near Pocock Street"},"longitude":"-0.101858"},"context":"","outcome_status":null,"persistent_id":"","id":83031399,"location_subtype":"","month":"2020-04"},{"category":"anti-social-behaviour","location_type":"Force","location":{"latitude":"51.503856","street":{"id":953467,"name":"On or near Windmill Walk"},"longitude":"-0.108763"},"context":"","outcome_status":null,"persistent_id":"","id":83018740,"location_subtype":"","month":"2020-04"},{"category":"anti-social-behaviour","location_type":"Force","location":{"latitude":"51.499880","street":{"id":953488,"name":"On or near Morley Street"},"longitude":"-0.108640"},"context":"","outcome_status":null,"persistent_id":"","id":83018747,"location_subtype":"","month":"2020-04"},{"category":"anti-social-behaviour","location_type":"Force","location":{"latitude":"51.506673","street":{"id":956284,"name":"On or near Duchy Street"},"longitude":"-0.108877"},"context":"","outcome_status":null,"persistent_id":"","id":83018751,"location_subtype":"","month":"2020-04"},{"category":"anti-social-behaviour","location_type":"Force","location":{"latitude":"51.506673","street":{"id":956284,"name":"On or near Duchy Street"},"longitude":"-0.108877"},"context":"","outcome_status":null,"persistent_id":"","id":83018752,"location_subtype":"","month":"2020-04"},{"category":"anti-social-behaviour","location_type":"Force","location":{"latitude":"51.506673","street":{"id":956284,"name":"On or near Duchy Street"},"longitude":"-0.108877"},"context":"","outcome_status":null,"persistent_id":"","id":83018753,"location_subtype":"","month":"2020-04"},{"category":"anti-social-behaviour","location_type":"Force","location":{"latitude":"51.506673","street":{"id":956284,"name":"On or near Duchy Street"},"longitude":"-0.108877"},"context":"","outcome_status":null,"persistent_id":"","id":83018754,"location_subtype":"","month":"2020-04"},{"category":"anti-social-behaviour","location_type":"Force","location":{"latitude":"51.506673","street":{"id":956284,"name":"On or near Duchy Street"},"longitude":"-0.108877"},"context":"","outcome_status":null,"persistent_id":"","id":83018756,"location_subtype":"","month":"2020-04"},{"category":"anti-social-behaviour","location_type":"Force","location":{"latitude":"51.500961","street":{"id":953500,"name":"On or near Coral Street"},"longitude":"-0.109330"},"context":"","outcome_status":null,"persistent_id":"","id":83018766,"location_subtype":"","month":"2020-04"},{"category":"anti-social-behaviour","location_type":"Force","location":{"latitude":"51.499946","street":{"id":953497,"name":"On or near Frazier Street"},"longitude":"-0.109962"},"context":"","outcome_status":null,"persistent_id":"","id":83018770,"location_subtype":"","month":"2020-04"},{"category":"anti-social-behaviour","location_type":"Force","location":{"latitude":"51.503775","street":{"id":953514,"name":"On or near Theatre/concert Hall"},"longitude":"-0.109833"},"context":"","outcome_status":null,"persistent_id":"","id":83018772,"location_subtype":"","month":"2020-04"},{"category":"anti-social-behaviour","location_type":"Force","location":{"latitude":"51.498928","street":{"id":953448,"name":"On or near Gerridge Street"},"longitude":"-0.108160"},"context":"","outcome_status":null,"persistent_id":"","id":83018663,"location_subtype":"","month":"2020-04"},{"category":"anti-social-behaviour","location_type":"Force","location":{"latitude":"51.498524","street":{"id":953431,"name":"On or near Westminster Bridge Road"},"longitude":"-0.107125"},"context":"","outcome_status":null,"persistent_id":"","id":83014371,"location_subtype":"","month":"2020-04"},{"category":"anti-social-behaviour","location_type":"Force","location":{"latitude":"51.508055","street":{"id":956265,"name":"On or near Barge House Street"},"longitude":"-0.108143"},"context":"","outcome_status":null,"persistent_id":"","id":83018682,"location_subtype":"","month":"2020-04"},{"category":"anti-social-behaviour","location_type":"Force","location":{"latitude":"51.505921","street":{"id":956288,"name":"On or near Aquinas Street"},"longitude":"-0.109067"},"context":"","outcome_status":null,"persistent_id":"","id":83018685,"location_subtype":"","month":"2020-04"},{"category":"anti-social-behaviour","location_type":"Force","location":{"latitude":"51.505921","street":{"id":956288,"name":"On or near Aquinas Street"},"longitude":"-0.109067"},"context":"","outcome_status":null,"persistent_id":"","id":83018686,"location_subtype":"","month":"2020-04"},{"category":"anti-social-behaviour","location_type":"Force","location":{"latitude":"51.492069","street":{"id":953557,"name":"On or near Wincott Street"},"longitude":"-0.109453"},"context":"","outcome_status":null,"persistent_id":"","id":83018692,"location_subtype":"","month":"2020-04"},{"category":"anti-social-behaviour","location_type":"Force","location":{"latitude":"51.507339","street":{"id":956287,"name":"On or near Broadwall"},"longitude":"-0.108388"},"context":"","outcome_status":null,"persistent_id":"","id":83018812,"location_subtype":"","month":"2020-04"},{"category":"anti-social-behaviour","location_type":"Force","location":{"latitude":"51.506344","street":{"id":956286,"name":"On or near Coin Street"},"longitude":"-0.110216"},"context":"","outcome_status":null,"persistent_id":"","id":83018821,"location_subtype":"","month":"2020-04"},{"category":"anti-social-behaviour","location_type":"Force","location":{"latitude":"51.506344","street":{"id":956286,"name":"On or near Coin Street"},"longitude":"-0.110216"},"context":"","outcome_status":null,"persistent_id":"","id":83018822,"location_subtype":"","month":"2020-04"},{"category":"anti-social-behaviour","location_type":"Force","location":{"latitude":"51.502410","street":{"id":953486,"name":"On or near Pear Place"},"longitude":"-0.110538"},"context":"","outcome_status":null,"persistent_id":"","id":83018830,"location_subtype":"","month":"2020-04"},{"category":"anti-social-behaviour","location_type":"Force","location":{"latitude":"51.502410","street":{"id":953486,"name":"On or near Pear Place"},"longitude":"-0.110538"},"context":"","outcome_status":null,"persistent_id":"","id":83018831,"location_subtype":"","month":"2020-04"},{"category":"anti-social-behaviour","location_type":"Force","location":{"latitude":"51.502410","street":{"id":953486,"name":"On or near Pear Place"},"longitude":"-0.110538"},"context":"","outcome_status":null,"persistent_id":"","id":83018832,"location_subtype":"","month":"2020-04"},{"category":"anti-social-behaviour","location_type":"Force","location":{"latitude":"51.492512","street":{"id":953580,"name":"On or near Fitzalan Street"},"longitude":"-0.111797"},"context":"","outcome_status":null,"persistent_id":"","id":83019828,"location_subtype":"","month":"2020-04"},{"category":"anti-social-behaviour","location_type":"Force","location":{"latitude":"51.492512","street":{"id":953580,"name":"On or near Fitzalan Street"},"longitude":"-0.111797"},"context":"","outcome_status":null,"persistent_id":"","id":83019829,"location_subtype":"","month":"2020-04"},{"category":"anti-social-behaviour","location_type":"Force","location":{"latitude":"51.495451","street":{"id":953446,"name":"On or near Kennington Road"},"longitude":"-0.111186"},"context":"","outcome_status":null,"persistent_id":"","id":83019950,"location_subtype":"","month":"2020-04"},{"category":"anti-social-behaviour","location_type":"Force","location":{"latitude":"51.495451","street":{"id":953446,"name":"On or near Kennington Road"},"longitude":"-0.111186"},"context":"","outcome_status":null,"persistent_id":"","id":83019951,"location_subtype":"","month":"2020-04"},{"category":"anti-social-behaviour","location_type":"Force","location":{"latitude":"51.495451","street":{"id":953446,"name":"On or near Kennington Road"},"longitude":"-0.111186"},"context":"","outcome_status":null,"persistent_id":"","id":83019952,"location_subtype":"","month":"2020-04"},{"category":"anti-social-behaviour","location_type":"Force","location":{"latitude":"51.492093","street":{"id":953581,"name":"On or near Distin Street"},"longitude":"-0.112578"},"context":"","outcome_status":null,"persistent_id":"","id":83019953,"location_subtype":"","month":"2020-04"},{"category":"anti-social-behaviour","location_type":"Force","location":{"latitude":"51.498530","street":{"id":953436,"name":"On or near Newnham Terrace"},"longitude":"-0.113047"},"context":"","outcome_status":null,"persistent_id":"","id":83019959,"location_subtype":"","month":"2020-04"},{"category":"anti-social-behaviour","location_type":"Force","location":{"latitude":"51.498436","street":{"id":953432,"name":"On or near Westminster Bridge Road"},"longitude":"-0.111105"},"context":"","outcome_status":null,"persistent_id":"","id":83019761,"location_subtype":"","month":"2020-04"},{"category":"anti-social-behaviour","location_type":"Force","location":{"latitude":"51.498928","street":{"id":953448,"name":"On or near Gerridge Street"},"longitude":"-0.108160"},"context":"","outcome_status":null,"persistent_id":"","id":83015132,"location_subtype":"","month":"2020-04"},{"category":"anti-social-behaviour","location_type":"Force","location":{"latitude":"51.498436","street":{"id":953432,"name":"On or near Westminster Bridge Road"},"longitude":"-0.111105"},"context":"","outcome_status":null,"persistent_id":"","id":83019762,"location_subtype":"","month":"2020-04"},{"category":"anti-social-behaviour","location_type":"Force","location":{"latitude":"51.495030","street":{"id":953455,"name":"On or near Brook Drive"},"longitude":"-0.109604"},"context":"","outcome_status":null,"persistent_id":"","id":83015133,"location_subtype":"","month":"2020-04"},{"category":"anti-social-behaviour","location_type":"Force","location":{"latitude":"51.493954","street":{"id":953576,"name":"On or near Ingram Close"},"longitude":"-0.116506"},"context":"","outcome_status":null,"persistent_id":"","id":83023718,"location_subtype":"","month":"2020-04"},{"category":"anti-social-behaviour","location_type":"Force","location":{"latitude":"51.501309","street":{"id":953509,"name":"On or near Addington Street"},"longitude":"-0.116419"},"context":"","outcome_status":null,"persistent_id":"","id":83023727,"location_subtype":"","month":"2020-04"},{"category":"anti-social-behaviour","location_type":"Force","location":{"latitude":"51.498685","street":{"id":923901,"name":"On or near Royal Street"},"longitude":"-0.115994"},"context":"","outcome_status":null,"persistent_id":"","id":83023742,"location_subtype":"","month":"2020-04"},{"category":"anti-social-behaviour","location_type":"Force","location":{"latitude":"51.507377","street":{"id":956289,"name":"On or near A301"},"longitude":"-0.115750"},"context":"","outcome_status":null,"persistent_id":"","id":83023749,"location_subtype":"","month":"2020-04"},{"category":"anti-social-behaviour","location_type":"Force","location":{"latitude":"51.507377","street":{"id":956289,"name":"On or near A301"},"longitude":"-0.115750"},"context":"","outcome_status":null,"persistent_id":"","id":83023750,"location_subtype":"","month":"2020-04"},{"category":"anti-social-behaviour","location_type":"Force","location":{"latitude":"51.498685","street":{"id":923901,"name":"On or near Royal Street"},"longitude":"-0.115994"},"context":"","outcome_status":null,"persistent_id":"","id":83023761,"location_subtype":"","month":"2020-04"},{"category":"anti-social-behaviour","location_type":"Force","location":{"latitude":"51.505458","street":{"id":956276,"name":"On or near Waterloo Road"},"longitude":"-0.114389"},"context":"","outcome_status":null,"persistent_id":"","id":83023767,"location_subtype":"","month":"2020-04"},{"category":"anti-social-behaviour","location_type":"Force","location":{"latitude":"51.505458","street":{"id":956276,"name":"On or near Waterloo Road"},"longitude":"-0.114389"},"context":"","outcome_status":null,"persistent_id":"","id":83023769,"location_subtype":"","month":"2020-04"},{"category":"anti-social-behaviour","location_type":"Force","location":{"latitude":"51.492692","street":{"id":953545,"name":"On or near Newport Street"},"longitude":"-0.117998"},"context":"","outcome_status":null,"persistent_id":"","id":83023770,"location_subtype":"","month":"2020-04"},{"category":"anti-social-behaviour","location_type":"Force","location":{"latitude":"51.502791","street":{"id":953521,"name":"On or near Chicheley Street"},"longitude":"-0.116905"},"context":"","outcome_status":null,"persistent_id":"","id":83023773,"location_subtype":"","month":"2020-04"},{"category":"anti-social-behaviour","location_type":"Force","location":{"latitude":"51.498685","street":{"id":923901,"name":"On or near Royal Street"},"longitude":"-0.115994"},"context":"","outcome_status":null,"persistent_id":"","id":83023774,"location_subtype":"","month":"2020-04"},{"category":"anti-social-behaviour","location_type":"Force","location":{"latitude":"51.491377","street":{"id":949475,"name":"On or near Lilac Place"},"longitude":"-0.118412"},"context":"","outcome_status":null,"persistent_id":"","id":83023817,"location_subtype":"","month":"2020-04"},{"category":"anti-social-behaviour","location_type":"Force","location":{"latitude":"51.495030","street":{"id":953455,"name":"On or near Brook Drive"},"longitude":"-0.109604"},"context":"","outcome_status":null,"persistent_id":"","id":83015134,"location_subtype":"","month":"2020-04"},{"category":"anti-social-behaviour","location_type":"Force","location":{"latitude":"51.491377","street":{"id":949475,"name":"On or near Lilac Place"},"longitude":"-0.118412"},"context":"","outcome_status":null,"persistent_id":"","id":83023818,"location_subtype":"","month":"2020-04"},{"category":"anti-social-behaviour","location_type":"Force","location":{"latitude":"51.501136","street":{"id":953530,"name":"On or near Westminster Bridge Road"},"longitude":"-0.117391"},"context":"","outcome_status":null,"persistent_id":"","id":83024631,"location_subtype":"","month":"2020-04"},{"category":"anti-social-behaviour","location_type":"Force","location":{"latitude":"51.501136","street":{"id":953530,"name":"On or near Westminster Bridge Road"},"longitude":"-0.117391"},"context":"","outcome_status":null,"persistent_id":"","id":83024633,"location_subtype":"","month":"2020-04"},{"category":"anti-social-behaviour","location_type":"Force","location":{"latitude":"51.491377","street":{"id":949475,"name":"On or near Lilac Place"},"longitude":"-0.118412"},"context":"","outcome_status":null,"persistent_id":"","id":83024640,"location_subtype":"","month":"2020-04"},{"category":"anti-social-behaviour","location_type":"Force","location":{"latitude":"51.490621","street":{"id":949718,"name":"On or near Causton Street"},"longitude":"-0.131322"},"context":"","outcome_status":null,"persistent_id":"","id":83041312,"location_subtype":"","month":"2020-04"},{"category":"anti-social-behaviour","location_type":"Force","location":{"latitude":"51.510827","street":{"id":956579,"name":"On or near Nightclub"},"longitude":"-0.130697"},"context":"","outcome_status":null,"persistent_id":"","id":83041311,"location_subtype":"","month":"2020-04"},{"category":"anti-social-behaviour","location_type":"Force","location":{"latitude":"51.509428","street":{"id":956477,"name":"On or near Orange Street"},"longitude":"-0.130379"},"context":"","outcome_status":null,"persistent_id":"","id":83041310,"location_subtype":"","month":"2020-04"},{"category":"anti-social-behaviour","location_type":"Force","location":{"latitude":"51.512191","street":{"id":956602,"name":"On or near Shopping Area"},"longitude":"-0.128839"},"context":"","outcome_status":null,"persistent_id":"","id":83041266,"location_subtype":"","month":"2020-04"},{"category":"anti-social-behaviour","location_type":"Force","location":{"latitude":"51.499400","street":{"id":953260,"name":"On or near The Sanctuary"},"longitude":"-0.129162"},"context":"","outcome_status":null,"persistent_id":"","id":83041264,"location_subtype":"","month":"2020-04"},