[{"category":"anti-social-behaviour","location_type":"Force","location":{"latitude":"51.503693","street":{"id":953739,"name":"On or near Great Suffolk Street"},"longitude":"-0.101450"},"context":"","outcome_status":null,"persistent_id":"","id":89871567,"location_subtype":"","month":"2021-01"},{"category":"anti-social-behaviour","location_type":"Force","location":{"latitude":"51.494531","street":{"id":953765,"name":"On or near Oswin Street"},"longitude":"-0.102609"},"context":"","outcome_status":null,"persistent_id":"","id":89871573,"location_subtype":"","month":"2021-01"},{"category":"anti-social-behaviour","location_type":"Force","location":{"latitude":"51.500894","street":{"id":953717,"name":"On or near Toulmin Street"},"longitude":"-0.096855"},"context":"","outcome_status":null,"persistent_id":"","id":89871425,"location_subtype":"","month":"2021-01"},{"category":"anti-social-behaviour","location_type":"Force","location":{"latitude":"51.501309","street":{"id":953509,"name":"On or near Addington Street"},"longitude":"-0.116419"},"context":"","outcome_status":null,"persistent_id":"","id":89867984,"location_subtype":"","month":"2021-01"},{"category":"anti-social-behaviour","location_type":"Force","location":{"latitude":"51.497620","street":{"id":953430,"name":"On or near Parking Area"},"longitude":"-0.115173"},"context":"","outcome_status":null,"persistent_id":"","id":89867986,"location_subtype":"","month":"2021-01"},{"category":"anti-social-behaviour","location_type":"Force","location":{"latitude":"51.493203","street":{"id":953574,"name":"On or near Lambeth Walk"},"longitude":"-0.116191"},"context":"","outcome_status":null,"persistent_id":"","id":89867988,"location_subtype":"","month":"2021-01"},{"category":"anti-social-behaviour","location_type":"Force","location":{"latitude":"51.499661","street":{"id":953721,"name":"On or near Stones End Street"},"longitude":"-0.096791"},"context":"","outcome_status":null,"persistent_id":"","id":89870313,"location_subtype":"","month":"2021-01"},{"category":"anti-social-behaviour","location_type":"Force","location":{"latitude":"51.504831","street":{"id":953744,"name":"On or near Dolben Street"},"longitude":"-0.102311"},"context":"","outcome_status":null,"persistent_id":"","id":89871560,"location_subtype":"","month":"2021-01"},{"category":"anti-social-behaviour","location_type":"Force","location":{"latitude":"51.497050","street":{"id":953701,"name":"On or near London Road"},"longitude":"-0.102720"},"context":"","outcome_status":null,"persistent_id":"","id":89871566,"location_subtype":"","month":"2021-01"},{"category":"anti-social-behaviour","location_type":"Force","location":{"latitude":"51.500270","street":{"id":953747,"name":"On or near Boyfield Street"},"longitude":"-0.102212"},"context":"","outcome_status":null,"persistent_id":"","id":89871568,"location_subtype":"","month":"2021-01"},{"category":"anti-social-behaviour","location_type":"Force","location":{"latitude":"51.501299","street":{"id":953478,"name":"On or near Tanswell Street"},"longitude":"-0.111333"},"context":"","outcome_status":null,"persistent_id":"","id":89875116,"location_subtype":"","month":"2021-01"},{"category":"anti-social-behaviour","location_type":"Force","location":{"latitude":"51.490842","street":{"id":949562,"name":"On or near Petrol Station"},"longitude":"-0.111448"},"context":"","outcome_status":null,"persistent_id":"","id":89875111,"location_subtype":"","month":"2021-01"},{"category":"anti-social-behaviour","location_type":"Force","location":{"latitude":"51.490842","street":{"id":949562,"name":"On or near Petrol Station"},"longitude":"-0.111448"},"context":"","outcome_status":null,"persistent_id":"","id":89875098,"location_subtype":"","month":"2021-01"},{"category":"anti-social-behaviour","location_type":"Force","location":{"latitude":"51.498436","street":{"id":953432,"name":"On or near Westminster Bridge Road"},"longitude":"-0.111105"},"context":"","outcome_status":null,"persistent_id":"","id":89875096,"location_subtype":"","month":"2021-01"},{"category":"anti-social-behaviour","location_type":"Force","location":{"latitude":"51.507339","street":{"id":956287,"name":"On or near Broadwall"},"longitude":"-0.108388"},"context":"","outcome_status":null,"persistent_id":"","id":89875066,"location_subtype":"","month":"2021-01"},{"category":"anti-social-behaviour","location_type":"Force","location":{"latitude":"51.504869","street":{"id":953468,"name":"On or near Whittlesey Street"},"longitude":"-0.109658"},"context":"","outcome_status":null,"persistent_id":"","id":89875061,"location_subtype":"","month":"2021-01"},{"category":"anti-social-behaviour","location_type":"Force","location":{"latitude":"51.490461","street":{"id":949554,"name":"On or near Chester Way"},"longitude":"-0.109534"},"context":"","outcome_status":null,"persistent_id":"","id":89875059,"location_subtype":"","month":"2021-01"},{"category":"anti-social-behaviour","location_type":"Force","location":{"latitude":"51.504831","street":{"id":953744,"name":"On or near Dolben Street"},"longitude":"-0.102311"},"context":"","outcome_status":null,"persistent_id":"","id":89872552,"location_subtype":"","month":"2021-01"},{"category":"anti-social-behaviour","location_type":"Force","location":{"latitude":"51.516341","street":{"id":956218,"name":"On or near Nightclub"},"longitude":"-0.120151"},"context":"","outcome_status":null,"persistent_id":"","id":89864159,"location_subtype":"","month":"2021-01"},{"category":"anti-social-behaviour","location_type":"Force","location":{"latitude":"51.516586","street":{"id":956237,"name":"On or near Newton Street"},"longitude":"-0.121395"},"context":"","outcome_status":null,"persistent_id":"","id":89864175,"location_subtype":"","month":"2021-01"},{"category":"anti-social-behaviour","location_type":"Force","location":{"latitude":"51.500894","street":{"id":953717,"name":"On or near Toulmin Street"},"longitude":"-0.096855"},"context":"","outcome_status":null,"persistent_id":"","id":89871419,"location_subtype":"","month":"2021-01"},{"category":"anti-social-behaviour","location_type":"Force","location":{"latitude":"51.501210","street":{"id":953719,"name":"On or near Sudrey Street"},"longitude":"-0.098038"},"context":"","outcome_status":null,"persistent_id":"","id":89871502,"location_subtype":"","month":"2021-01"},{"category":"anti-social-behaviour","location_type":"Force","location":{"latitude":"51.500439","street":{"id":953746,"name":"On or near Collinson Street"},"longitude":"-0.098747"},"context":"","outcome_status":null,"persistent_id":"","id":89871516,"location_subtype":"","month":"2021-01"},{"category":"anti-social-behaviour","location_type":"Force","location":{"latitude":"51.503784","street":{"id":953715,"name":"On or near Union Street"},"longitude":"-0.098147"},"context":"","outcome_status":null,"persistent_id":"","id":89871522,"location_subtype":"","month":"2021-01"},{"category":"anti-social-behaviour","location_type":"Force","location":{"latitude":"51.498996","street":{"id":953708,"name":"On or near Borough Road"},"longitude":"-0.100723"},"context":"","outcome_status":null,"persistent_id":"","id":89871539,"location_subtype":"","month":"2021-01"},{"category":"anti-social-behaviour","location_type":"Force","location":{"latitude":"51.507420","street":{"id":956134,"name":"On or near Castle Yard"},"longitude":"-0.101655"},"context":"","outcome_status":null,"persistent_id":"","id":89871564,"location_subtype":"","month":"2021-01"},{"category":"anti-social-behaviour","location_type":"Force","location":{"latitude":"51.508055","street":{"id":956265,"name":"On or near Barge House Street"},"longitude":"-0.108143"},"context":"","outcome_status":null,"persistent_id":"","id":89872619,"location_subtype":"","month":"2021-01"},{"category":"anti-social-behaviour","location_type":"Force","location":{"latitude":"51.507339","street":{"id":956287,"name":"On or near Broadwall"},"longitude":"-0.108388"},"context":"","outcome_status":null,"persistent_id":"","id":89875065,"location_subtype":"","month":"2021-01"},{"category":"anti-social-behaviour","location_type":"Force","location":{"latitude":"51.490461","street":{"id":949554,"name":"On or near Chester Way"},"longitude":"-0.109534"},"context":"","outcome_status":null,"persistent_id":"","id":89875058,"location_subtype":"","month":"2021-01"},{"category":"anti-social-behaviour","location_type":"Force","location":{"latitude":"51.499946","street":{"id":953497,"name":"On or near Frazier Street"},"longitude":"-0.109962"},"context":"","outcome_status":null,"persistent_id":"","id":89875045,"location_subtype":"","month":"2021-01"},{"category":"anti-social-behaviour","location_type":"Force","location":{"latitude":"51.507339","street":{"id":956287,"name":"On or near Broadwall"},"longitude":"-0.108388"},"context":"","outcome_status":null,"persistent_id":"","id":89875019,"location_subtype":"","month":"2021-01"},{"category":"anti-social-behaviour","location_type":"Force","location":{"latitude":"51.498928","street":{"id":953448,"name":"On or near Gerridge Street"},"longitude":"-0.108160"},"context":"","outcome_status":null,"persistent_id":"","id":89874985,"location_subtype":"","month":"2021-01"},{"category":"anti-social-behaviour","location_type":"Force","location":{"latitude":"51.499946","street":{"id":953497,"name":"On or near Frazier Street"},"longitude":"-0.109962"},"context":"","outcome_status":null,"persistent_id":"","id":89875046,"location_subtype":"","month":"2021-01"},{"category":"anti-social-behaviour","location_type":"Force","location":{"latitude":"51.497899","street":{"id":953525,"name":"On or near Further/higher Educational Building"},"longitude":"-0.119685"},"context":"","outcome_status":null,"persistent_id":"","id":89874045,"location_subtype":"","month":"2021-01"},{"category":"anti-social-behaviour","location_type":"Force","location":{"latitude":"51.497899","street":{"id":953525,"name":"On or near Further/higher Educational Building"},"longitude":"-0.119685"},"context":"","outcome_status":null,"persistent_id":"","id":89874044,"location_subtype":"","month":"2021-01"},{"category":"anti-social-behaviour","location_type":"Force","location":{"latitude":"51.497899","street":{"id":953525,"name":"On or near Further/higher Educational Building"},"longitude":"-0.119685"},"context":"","outcome_status":null,"persistent_id":"","id":89874043,"location_subtype":"","month":"2021-01"},{"category":"anti-social-behaviour","location_type":"Force","location":{"latitude":"51.497899","street":{"id":953525,"name":"On or near Further/higher Educational Building"},"longitude":"-0.119685"},"context":"","outcome_status":null,"persistent_id":"","id":89874042,"location_subtype":"","month":"2021-01"},{"category":"anti-social-behaviour","location_type":"Force","location":{"latitude":"51.503986","street":{"id":953536,"name":"On or near Park/open Space"},"longitude":"-0.118527"},"context":"","outcome_status":null,"persistent_id":"","id":89874027,"location_subtype":"","month":"2021-01"},{"category":"anti-social-behaviour","location_type":"Force","location":{"latitude":"51.498889","street":{"id":953452,"name":"On or near Cottesloe Mews"},"longitude":"-0.109632"},"context":"","outcome_status":null,"persistent_id":"","id":89872624,"location_subtype":"","month":"2021-01"},{"category":"anti-social-behaviour","location_type":"Force","location":{"latitude":"51.495030","street":{"id":953455,"name":"On or near Brook Drive"},"longitude":"-0.109604"},"context":"","outcome_status":null,"persistent_id":"","id":89872616,"location_subtype":"","month":"2021-01"},{"category":"anti-social-behaviour","location_type":"Force","location":{"latitude":"51.495030","street":{"id":953455,"name":"On or near Brook Drive"},"longitude":"-0.109604"},"context":"","outcome_status":null,"persistent_id":"","id":89872615,"location_subtype":"","month":"2021-01"},{"category":"anti-social-behaviour","location_type":"Force","location":{"latitude":"51.495030","street":{"id":953455,"name":"On or near Brook Drive"},"longitude":"-0.109604"},"context":"","outcome_status":null,"persistent_id":"","id":89872614,"location_subtype":"","month":"2021-01"},{"category":"anti-social-behaviour","location_type":"Force","location":{"latitude":"51.495030","street":{"id":953455,"name":"On or near Brook Drive"},"longitude":"-0.109604"},"context":"","outcome_status":null,"persistent_id":"","id":89872613,"location_subtype":"","month":"2021-01"},{"category":"anti-social-behaviour","location_type":"Force","location":{"latitude":"51.495030","street":{"id":953455,"name":"On or near Brook Drive"},"longitude":"-0.109604"},"context":"","outcome_status":null,"persistent_id":"","id":89872612,"location_subtype":"","month":"2021-01"},{"category":"anti-social-behaviour","location_type":"Force","location":{"latitude":"51.494202","street":{"id":953559,"name":"On or near Walcot Square"},"longitude":"-0.108961"},"context":"","outcome_status":null,"persistent_id":"","id":89872608,"location_subtype":"","month":"2021-01"},{"category":"anti-social-behaviour","location_type":"Force","location":{"latitude":"51.494202","street":{"id":953559,"name":"On or near Walcot Square"},"longitude":"-0.108961"},"context":"","outcome_status":null,"persistent_id":"","id":89872607,"location_subtype":"","month":"2021-01"},{"category":"anti-social-behaviour","location_type":"Force","location":{"latitude":"51.499572","street":{"id":953472,"name":"On or near Waterloo Road"},"longitude":"-0.106823"},"context":"","outcome_status":null,"persistent_id":"","id":89872606,"location_subtype":"","month":"2021-01"},{"category":"anti-social-behaviour","location_type":"Force","location":{"latitude":"51.493927","street":{"id":953583,"name":"On or near Brook Drive"},"longitude":"-0.106451"},"context":"","outcome_status":null,"persistent_id":"","id":89872589,"location_subtype":"","month":"2021-01"},{"category":"anti-social-behaviour","location_type":"Force","location":{"latitude":"51.493927","street":{"id":953583,"name":"On or near Brook Drive"},"longitude":"-0.106451"},"context":"","outcome_status":null,"persistent_id":"","id":89872588,"location_subtype":"","month":"2021-01"},{"category":"anti-social-behaviour","location_type":"Force","location":{"latitude":"51.496043","street":{"id":953449,"name":"On or near Geraldine Street"},"longitude":"-0.106047"},"context":"","outcome_status":null,"persistent_id":"","id":89872587,"location_subtype":"","month":"2021-01"},{"category":"anti-social-behaviour","location_type":"Force","location":{"latitude":"51.499219","street":{"id":953755,"name":"On or near Further/higher Educational Building"},"longitude":"-0.104474"},"context":"","outcome_status":null,"persistent_id":"","id":89872582,"location_subtype":"","month":"2021-01"},{"category":"anti-social-behaviour","location_type":"Force","location":{"latitude":"51.499219","street":{"id":953755,"name":"On or near Further/higher Educational Building"},"longitude":"-0.104474"},"context":"","outcome_status":null,"persistent_id":"","id":89872581,"location_subtype":"","month":"2021-01"},{"category":"anti-social-behaviour","location_type":"Force","location":{"latitude":"51.499219","street":{"id":953755,"name":"On or near Further/higher Educational Building"},"longitude":"-0.104474"},"context":"","outcome_status":null,"persistent_id":"","id":89872580,"location_subtype":"","month":"2021-01"},{"category":"anti-social-behaviour","location_type":"Force","location":{"latitude":"51.502173","street":{"id":953506,"name":"On or near Boundary Row"},"longitude":"-0.105331"},"context":"","outcome_status":null,"persistent_id":"","id":89872571,"location_subtype":"","month":"2021-01"},{"category":"anti-social-behaviour","location_type":"Force","location":{"latitude":"51.496871","street":{"id":953707,"name":"On or near Colnbrook Street"},"longitude":"-0.104961"},"context":"","outcome_status":null,"persistent_id":"","id":89872567,"location_subtype":"","month":"2021-01"},{"category":"anti-social-behaviour","location_type":"Force","location":{"latitude":"51.503219","street":{"id":953731,"name":"On or near Nelson Square"},"longitude":"-0.103271"},"context":"","outcome_status":null,"persistent_id":"","id":89872559,"location_subtype":"","month":"2021-01"},{"category":"anti-social-behaviour","location_type":"Force","location":{"latitude":"51.505438","street":{"id":956133,"name":"On or near Chancel Street"},"longitude":"-0.103135"},"context":"","outcome_status":null,"persistent_id":"","id":89872554,"location_subtype":"","month":"2021-01"},{"category":"anti-social-behaviour","location_type":"Force","location":{"latitude":"51.502369","street":{"id":953718,"name":"On or near Surrey Row"},"longitude":"-0.102975"},"context":"","outcome_status":null,"persistent_id":"","id":89872553,"location_subtype":"","month":"2021-01"},{"category":"anti-social-behaviour","location_type":"Force","location":{"latitude":"51.493215","street":{"id":953767,"name":"On or near Longville Road"},"longitude":"-0.103542"},"context":"","outcome_status":null,"persistent_id":"","id":89872551,"location_subtype":"","month":"2021-01"},{"category":"anti-social-behaviour","location_type":"Force","location":{"latitude":"51.499901","street":{"id":953734,"name":"On or near Lancaster Street"},"longitude":"-0.102746"},"context":"","outcome_status":null,"persistent_id":"","id":89872547,"location_subtype":"","month":"2021-01"},{"category":"anti-social-behaviour","location_type":"Force","location":{"latitude":"51.495030","street":{"id":953455,"name":"On or near Brook Drive"},"longitude":"-0.109604"},"context":"","outcome_status":null,"persistent_id":"","id":89872620,"location_subtype":"","month":"2021-01"},{"category":"anti-social-behaviour","location_type":"Force","location":{"latitude":"51.503784","street":{"id":953715,"name":"On or near Union Street"},"longitude":"-0.098147"},"context":"","outcome_status":null,"persistent_id":"","id":89871523,"location_subtype":"","month":"2021-01"},{"category":"anti-social-behaviour","location_type":"Force","location":{"latitude":"51.503784","street":{"id":953715,"name":"On or near Union Street"},"longitude":"-0.098147"},"context":"","outcome_status":null,"persistent_id":"","id":89871521,"location_subtype":"","month":"2021-01"},{"category":"anti-social-behaviour","location_type":"Force","location":{"latitude":"51.513869","street":{"id":587567,"name":"On or near Bride Lane"},"longitude":"-0.105134"},"context":"","outcome_status":null,"persistent_id":"","id":90030717,"location_subtype":"","month":"2021-01"},{"category":"anti-social-behaviour","location_type":"Force","location":{"latitude":"51.503784","street":{"id":953715,"name":"On or near Union Street"},"longitude":"-0.098147"},"context":"","outcome_status":null,"persistent_id":"","id":89871520,"location_subtype":"","month":"2021-01"},{"category":"anti-social-behaviour","location_type":"Force","location":{"latitude":"51.504831","street":{"id":953744,"name":"On or near Dolben Street"},"longitude":"-0.102311"},"context":"","outcome_status":null,"persistent_id":"","id":89871559,"location_subtype":"","month":"2021-01"},{"category":"anti-social-behaviour","location_type":"Force","location":{"latitude":"51.499757","street":{"id":953736,"name":"On or near King James Street"},"longitude":"-0.101628"},"context":"","outcome_status":null,"persistent_id":"","id":89871555,"location_subtype":"","month":"2021-01"},{"category":"anti-social-behaviour","location_type":"Force","location":{"latitude":"51.499997","street":{"id":953724,"name":"On or near Scovell Road"},"longitude":"-0.099212"},"context":"","outcome_status":null,"persistent_id":"","id":89871514,"location_subtype":"","month":"2021-01"},{"category":"anti-social-behaviour","location_type":"Force","location":{"latitude":"51.500439","street":{"id":953746,"name":"On or near Collinson Street"},"longitude":"-0.098747"},"context":"","outcome_status":null,"persistent_id":"","id":89871498,"location_subtype":"","month":"2021-01"},{"category":"anti-social-behaviour","location_type":"Force","location":{"latitude":"51.505179","street":{"id":956283,"name":"On or near Hatfields"},"longitude":"-0.106547"},"context":"","outcome_status":null,"persistent_id":"","id":89871459,"location_subtype":"","month":"2021-01"},{"category":"anti-social-behaviour","location_type":"Force","location":{"latitude":"51.505179","street":{"id":956283,"name":"On or near Hatfields"},"longitude":"-0.106547"},"context":"","outcome_status":null,"persistent_id":"","id":89871458,"location_subtype":"","month":"2021-01"},{"category":"anti-social-behaviour","location_type":"Force","location":{"latitude":"51.506340","street":{"id":956280,"name":"On or near Paris Garden"},"longitude":"-0.106110"},"context":"","outcome_status":null,"persistent_id":"","id":89871444,"location_subtype":"","month":"2021-01"},{"category":"anti-social-behaviour","location_type":"Force","location":{"latitude":"51.506340","street":{"id":956280,"name":"On or near Paris Garden"},"longitude":"-0.106110"},"context":"","outcome_status":null,"persistent_id":"","id":89871443,"location_subtype":"","month":"2021-01"},{"category":"anti-social-behaviour","location_type":"Force","location":{"latitude":"51.513928","street":{"id":587555,"name":"On or near Pleydell Street"},"longitude":"-0.108231"},"context":"","outcome_status":null,"persistent_id":"","id":90030761,"location_subtype":"","month":"2021-01"},{"category":"anti-social-behaviour","location_type":"Force","location":{"latitude":"51.506340","street":{"id":956280,"name":"On or near Paris Garden"},"longitude":"-0.106110"},"context":"","outcome_status":null,"persistent_id":"","id":89871442,"location_subtype":"","month":"2021-01"},{"category":"anti-social-behaviour","location_type":"Force","location":{"latitude":"51.504391","street":{"id":953714,"name":"On or near Wardens Grove"},"longitude":"-0.097314"},"context":"","outcome_status":null,"persistent_id":"","id":89871441,"location_subtype":"","month":"2021-01"},{"category":"anti-social-behaviour","location_type":"Force","location":{"latitude":"51.493662","street":{"id":953560,"name":"On or near Sullivan Road"},"longitude":"-0.107283"},"context":"","outcome_status":null,"persistent_id":"","id":89871454,"location_subtype":"","month":"2021-01"},{"category":"anti-social-behaviour","location_type":"Force","location":{"latitude":"51.495531","street":{"id":953433,"name":"On or near West Square"},"longitude":"-0.105521"},"context":"","outcome_status":null,"persistent_id":"","id":89872572,"location_subtype":"","month":"2021-01"},{"category":"anti-social-behaviour","location_type":"Force","location":{"latitude":"51.495531","street":{"id":953433,"name":"On or near West Square"},"longitude":"-0.105521"},"context":"","outcome_status":null,"persistent_id":"","id":89872573,"location_subtype":"","month":"2021-01"},{"category":"anti-social-behaviour","location_type":"Force","location":{"latitude":"51.495531","street":{"id":953433,"name":"On or near West Square"},"longitude":"-0.105521"},"context":"","outcome_status":null,"persistent_id":"","id":89872574,"location_subtype":"","month":"2021-01"},{"category":"anti-social-behaviour","location_type":"Force","location":{"latitude":"51.495531","street":{"id":953433,"name":"On or near West Square"},"longitude":"-0.105521"},"context":"","outcome_status":null,"persistent_id":"","id":89872575,"location_subtype":"","month":"2021-01"},{"category":"anti-social-behaviour","location_type":"Force","location":{"latitude":"51.501309","street":{"id":953509,"name":"On or near Addington Street"},"longitude":"-0.116419"},"context":"","outcome_status":null,"persistent_id":"","id":89867983,"location_subtype":"","month":"2021-01"},{"category":"anti-social-behaviour","location_type":"Force","location":{"latitude":"51.489256","street":{"id":949521,"name":"On or near Orsett Street"},"longitude":"-0.116267"},"context":"","outcome_status":null,"persistent_id":"","id":89867989,"location_subtype":"","month":"2021-01"},{"category":"anti-social-behaviour","location_type":"Force","location":{"latitude":"51.500466","street":{"id":953507,"name":"On or near Baylis Road"},"longitude":"-0.110964"},"context":"","outcome_status":null,"persistent_id":"","id":89875073,"location_subtype":"","month":"2021-01"},{"category":"anti-social-behaviour","location_type":"Force","location":{"latitude":"51.500466","street":{"id":953507,"name":"On or near Baylis Road"},"longitude":"-0.110964"},"context":"","outcome_status":null,"persistent_id":"","id":89875074,"location_subtype":"","month":"2021-01"},{"category":"anti-social-behaviour","location_type":"Force","location":{"latitude":"51.502297","street":{"id":953489,"name":"On or near Mitre Road"},"longitude":"-0.107978"},"context":"","outcome_status":null,"persistent_id":"","id":89875012,"location_subtype":"","month":"2021-01"},{"category":"anti-social-behaviour","location_type":"Force","location":{"latitude":"51.500969","street":{"id":953533,"name":"On or near Bridge Street"},"longitude":"-0.124933"},"context":"","outcome_status":null,"persistent_id":"","id":89848436,"location_subtype":"","month":"2021-01"},{"category":"anti-social-behaviour","location_type":"Force","location":{"latitude":"51.507473","street":{"id":956299,"name":"On or near Northumberland Street"},"longitude":"-0.125675"},"context":"","outcome_status":null,"persistent_id":"","id":89848060,"location_subtype":"","month":"2021-01"},{"category":"anti-social-behaviour","location_type":"Force","location":{"latitude":"51.496040","street":{"id":953523,"name":"On or near Dean Stanley Street"},"longitude":"-0.126014"},"context":"","outcome_status":null,"persistent_id":"","id":89848061,"location_subtype":"","month":"2021-01"},{"category":"anti-social-behaviour","location_type":"Force","location":{"latitude":"51.513734","street":{"id":956189,"name":"On or near Drury Lane"},"longitude":"-0.120158"},"context":"","outcome_status":null,"persistent_id":"","id":89848030,"location_subtype":"","month":"2021-01"},{"category":"anti-social-behaviour","location_type":"Force","location":{"latitude":"51.496806","street":{"id":953340,"name":"On or near Victoria Street"},"longitude":"-0.140231"},"context":"","outcome_status":null,"persistent_id":"","id":89847183,"location_subtype":"","month":"2021-01"},{"category":"anti-social-behaviour","location_type":"Force","location":{"latitude":"51.490190","street":{"id":949540,"name":"On or near Hotspur Street"},"longitude":"-0.112800"},"context":"","outcome_status":null,"persistent_id":"","id":89864515,"location_subtype":"","month":"2021-01"},{"category":"anti-social-behaviour","location_type":"Force","location":{"latitude":"51.500076","street":{"id":953512,"name":"On or near Sports/recreation Area"},"longitude":"-0.111902"},"context":"","outcome_status":null,"persistent_id":"","id":89864475,"location_subtype":"","month":"2021-01"},{"category":"anti-social-behaviour","location_type":"Force","location":{"latitude":"51.515412","street":{"id":956190,"name":"On or near Drury Lane"},"longitude":"-0.123317"},"context":"","outcome_status":null,"persistent_id":"","id":89864218,"location_subtype":"","month":"2021-01"},{"category":"anti-social-behaviour","location_type":"Force","location":{"latitude":"51.516213","street":{"id":956172,"name":"On or near Kingsway"},"longitude":"-0.119450"},"context":"","outcome_status":null,"persistent_id":"","id":89864151,"location_subtype":"","month":"2021-01"},{"category":"anti-social-behaviour","location_type":"Force","location":{"latitude":"51.504831","street":{"id":953744,"name":"On or near Dolben Street"},"longitude":"-0.102311"},"context":"","outcome_status":null,"persistent_id":"","id":89845593,"location_subtype":"","month":"2021-01"},{"category":"anti-social-behaviour","location_type":"Force","location":{"latitude":"51.491656","street":{"id":949543,"name":"On or near Gibson Road"},"longitude":"-0.116744"},"context":"","outcome_status":null,"persistent_id":"","id":89845621,"location_subtype":"","month":"2021-01"},{"category":"anti-social-behaviour","location_type":"Force","location":{"latitude":"51.491656","street":{"id":949543,"name":"On or near Gibson Road"},"longitude":"-0.116744"},"context":"","outcome_status":null,"persistent_id":"","id":89845622,"location_subtype":"","month":"2021-01"},{"category":"anti-social-behaviour","location_type":"Force","location":{"latitude":"51.491656","street":{"id":949543,"name":"On or near Gibson Road"},"longitude":"-0.116744"},"context":"","outcome_status":null,"persistent_id":"","id":89845623,"location_subtype":"","month":"2021-01"},{"category":"anti-social-behaviour","location_type":"Force","location":{"latitude":"51.498685","street":{"id":923901,"name":"On or near Royal Street"},"longitude":"-0.115994"},"context":"","outcome_status":null,"persistent_id":"","id":89845627,"location_subtype":"","month":"2021-01"},{"category":"anti-social-behaviour","location_type":"Force","location":{"latitude":"51.498328","street":{"id":953294,"name":"On or near Abbey Orchard Street"},"longitude":"-0.131338"},"context":"","outcome_status":null,"persistent_id":"","id":89846293,"location_subtype":"","month":"2021-01"},{"category":"anti-social-behaviour","location_type":"Force","location":{"latitude":"51.493930","street":{"id":953410,"name":"On or near Page Street"},"longitude":"-0.129573"},"context":"","outcome_status":null,"persistent_id":"","id":89846298,"location_subtype":"","month":"2021-01"},{"category":"anti-social-behaviour","location_type":"Force","location":{"latitude":"51.492970","street":{"id":953399,"name":"On or near Vincent Street"},"longitude":"-0.131398"},"context":"","outcome_status":null,"persistent_id":"","id":89846299,"location_subtype":"","month":"2021-01"},{"category":"anti-social-behaviour","location_type":"Force","location":{"latitude":"51.496909","street":{"id":953283,"name":"On or near Great Peter Street"},"longitude":"-0.129739"},"context":"","outcome_status":null,"persistent_id":"","id":89846300,"location_subtype":"","month":"2021-01"},{"category":"anti-social-behaviour","location_type":"Force","location":{"latitude":"51.510827","street":{"id":956579,"name":"On or near Nightclub"},"longitude":"-0.130697"},"context":"","outcome_status":null,"persistent_id":"","id":89846301,"location_subtype":"","month":"2021-01"},{"category":"anti-social-behaviour","location_type":"Force","location":{"latitude":"51.510827","street":{"id":956579,"name":"On or near Nightclub"},"longitude":"-0.130697"},"context":"","outcome_status":null,"persistent_id":"","id":89846302,"location_subtype":"","month":"2021-01"},{"category":"anti-social-behaviour","location_type":"Force","location":{"latitude":"51.510827","street":{"id":956579,"name":"On or near Nightclub"},"longitude":"-0.130697"},"context":"","outcome_status":null,"persistent_id":"","id":89846303,"location_subtype":"","month":"2021-01"},{"category":"anti-social-behaviour","location_type":"Force","location":{"latitude":"51.490621","street":{"id":949718,"name":"On or near Causton Street"},"longitude":"-0.131322"},"context":"","outcome_status":null,"persistent_id":"","id":89846304,"location_subtype":"","month":"2021-01"},{"category":"anti-social-behaviour","location_type":"Force","location":{"latitude":"51.490621","street":{"id":949718,"name":"On or near Causton Street"},"longitude":"-0.131322"},"context":"","outcome_status":null,"persistent_id":"","id":89846305,"location_subtype":"","month":"2021-01"},{"category":"anti-social-behaviour","location_type":"Force","location":{"latitude":"51.495874","street":{"id":953273,"name":"On or near Monck Street"},"longitude":"-0.130819"},"context":"","outcome_status":null,"persistent_id":"","id":89846306,"location_subtype":"","month":"2021-01"},{"category":"anti-social-behaviour","location_type":"Force","location":{"latitude":"51.495874","street":{"id":953273,"name":"On or near Monck Street"},"longitude":"-0.130819"},"context":"","outcome_status":null,"persistent_id":"","id":89846307,"location_subtype":"","month":"2021-01"},{"category":"anti-social-behaviour","location_type":"Force","location":{"latitude":"51.492970","street":{"id":953399,"name":"On or near Vincent Street"},"longitude":"-0.131398"},"context":"","outcome_status":null,"persistent_id":"","id":89846312,"location_subtype":"","month":"2021-01"},{"category":"anti-social-behaviour","location_type":"Force","location":{"latitude":"51.507097","street":{"id":956648,"name":"On or near Parking Area"},"longitude":"-0.130864"},"context":"","outcome_status":null,"persistent_id":"","id":89846313,"location_subtype":"","month":"2021-01"},{"category":"anti-social-behaviour","location_type":"Force","location":{"latitude":"51.492264","street":{"id":953408,"name":"On or near Regency Street"},"longitude":"-0.132277"},"context":"","outcome_status":null,"persistent_id":"","id":89846346,"location_subtype":"","month":"2021-01"},{"category":"anti-social-behaviour","location_type":"Force","location":{"latitude":"51.492264","street":{"id":953408,"name":"On or near Regency Street"},"longitude":"-0.132277"},"context":"","outcome_status":null,"persistent_id":"","id":89846347,"location_subtype":"","month":"2021-01"},{"category":"anti-social-behaviour","location_type":"Force","location":{"latitude":"51.492264","street":{"id":953408,"name":"On or near Regency Street"},"longitude":"-0.132277"},"context":"","outcome_status":null,"persistent_id":"","id":89846348,"location_subtype":"","month":"2021-01"},{"category":"anti-social-behaviour","location_type":"Force","location":{"latitude":"51.500237","street":{"id":953312,"name":"On or near Dartmouth Street"},"longitude":"-0.132023"},"context":"","outcome_status":null,"persistent_id":"","id":89846350,"location_subtype":"","month":"2021-01"},{"category":"anti-social-behaviour","location_type":"Force","location":{"latitude":"51.497534","street":{"id":953272,"name":"On or near Old Pye Street"},"longitude":"-0.132278"},"context":"","outcome_status":null,"persistent_id":"","id":89846351,"location_subtype":"","month":"2021-01"},{"category":"anti-social-behaviour","location_type":"Force","location":{"latitude":"51.495745","street":{"id":953256,"name":"On or near Parking Area"},"longitude":"-0.132308"},"context":"","outcome_status":null,"persistent_id":"","id":89846366,"location_subtype":"","month":"2021-01"},{"category":"anti-social-behaviour","location_type":"Force","location":{"latitude":"51.495745","street":{"id":953256,"name":"On or near Parking Area"},"longitude":"-0.132308"},"context":"","outcome_status":null,"persistent_id":"","id":89846367,"location_subtype":"","month":"2021-01"},{"category":"anti-social-behaviour","location_type":"Force","location":{"latitude":"51.495745","street":{"id":953256,"name":"On or near Parking Area"},"longitude":"-0.132308"},"context":"","outcome_status":null,"persistent_id":"","id":89846368,"location_subtype":"","month":"2021-01"},{"category":"anti-social-behaviour","location_type":"Force","location":{"latitude":"51.495745","street":{"id":953256,"name":"On or near Parking Area"},"longitude":"-0.132308"},"context":"","outcome_status":null,"persistent_id":"","id":89846369,"location_subtype":"","month":"2021-01"},{"category":"anti-social-behaviour","location_type":"Force","location":{"latitude":"51.495745","street":{"id":953256,"name":"On or near Parking Area"},"longitude":"-0.132308"},"context":"","outcome_status":null,"persistent_id":"","id":89846370,"location_subtype":"","month":"2021-01"},{"category":"anti-social-behaviour","location_type":"Force","location":{"latitude":"51.495745","street":{"id":953256,"name":"On or near Parking Area"},"longitude":"-0.132308"},"context":"","outcome_status":null,"persistent_id":"","id":89846371,"location_subtype":"","month":"2021-01"},{"category":"anti-social-behaviour","location_type":"Force","location":{"latitude":"51.495745","street":{"id":953256,"name":"On or near Parking Area"},"longitude":"-0.132308"},"context":"","outcome_status":null,"persistent_id":"","id":89846372,"location_subtype":"","month":"2021-01"},{"category":"anti-social-behaviour","location_type":"Force","location":{"latitude":"51.510893","street":{"id":956463,"name":"On or near Rupert Street"},"longitude":"-0.132639"},"context":"","outcome_status":null,"persistent_id":"","id":89846374,"location_subtype":"","month":"2021-01"},{"category":"anti-social-behaviour","location_type":"Force","location":{"latitude":"51.514295","street":{"id":956531,"name":"On or near Chapone Place"},"longitude":"-0.132789"},"context":"","outcome_status":null,"persistent_id":"","id":89846381,"location_subtype":"","month":"2021-01"},{"category":"anti-social-behaviour","location_type":"Force","location":{"latitude":"51.514295","street":{"id":956531,"name":"On or near Chapone Place"},"longitude":"-0.132789"},"context":"","outcome_status":null,"persistent_id":"","id":89846382,"location_subtype":"","month":"2021-01"},{"category":"anti-social-behaviour","location_type":"Force","location":{"latitude":"51.514639","street":{"id":956146,"name":"On or near Wild Street"},"longitude":"-0.120567"},"context":"","outcome_status":null,"persistent_id":"","id":89848005,"location_subtype":"","month":"2021-01"},{"category":"anti-social-behaviour","location_type":"Force","location":{"latitude":"51.514639","street":{"id":956146,"name":"On or near Wild Street"},"longitude":"-0.120567"},"context":"","outcome_status":null,"persistent_id":"","id":89848006,"location_subtype":"","month":"2021-01"},{"category":"anti-social-behaviour","location_type":"Force","location":{"latitude":"51.514639","street":{"id":956146,"name":"On or near Wild Street"},"longitude":"-0.120567"},"context":"","outcome_status":null,"persistent_id":"","id":89848007,"location_subtype":"","month":"2021-01"},{"category":"anti-social-behaviour","location_type":"Force","location":{"latitude":"51.514639","street":{"id":956146,"name":"On or near Wild Street"},"longitude":"-0.120567"},"context":"","outcome_status":null,"persistent_id":"","id":89848014,"location_subtype":"","month":"2021-01"},{"category":"anti-social-behaviour","location_type":"Force","location":{"latitude":"51.514639","street":{"id":956146,"name":"On or near Wild Street"},"longitude":"-0.120567"},"context":"","outcome_status":null,"persistent_id":"","id":89848018,"location_subtype":"","month":"2021-01"},{"category":"anti-social-behaviour","location_type":"Force","location":{"latitude":"51.514639","street":{"id":956146,"name":"On or near Wild Street"},"longitude":"-0.120567"},"context":"","outcome_status":null,"persistent_id":"","id":89848019,"location_subtype":"","month":"2021-01"},{"category":"anti-social-behaviour","location_type":"Force","location":{"latitude":"51.514639","street":{"id":956146,"name":"On or near Wild Street"},"longitude":"-0.120567"},"context":"","outcome_status":null,"persistent_id":"","id":89848020,"location_subtype":"","month":"2021-01"},{"category":"anti-social-behaviour","location_type":"Force","location":{"latitude":"51.514639","street":{"id":956146,"name":"On or near Wild Street"},"longitude":"-0.120567"},"context":"","outcome_status":null,"persistent_id":"","id":89848021,"location_subtype":"","month":"2021-01"},{"category":"anti-social-behaviour","location_type":"Force","location":{"latitude":"51.514639","street":{"id":956146,"name":"On or near Wild Street"},"longitude":"-0.120567"},"context":"","outcome_status":null,"persistent_id":"","id":89848022,"location_subtype":"","month":"2021-01"},{"category":"anti-social-behaviour","location_type":"Force","location":{"latitude":"51.514639","street":{"id":956146,"name":"On or near Wild Street"},"longitude":"-0.120567"},"context":"","outcome_status":null,"persistent_id":"","id":89848025,"location_subtype":"","month":"2021-01"},{"category":"anti-social-behaviour","location_type":"Force","location":{"latitude":"51.514639","street":{"id":956146,"name":"On or near Wild Street"},"longitude":"-0.120567"},"context":"","outcome_status":null,"persistent_id":"","id":89848026,"location_subtype":"","month":"2021-01"},{"category":"anti-social-behaviour","location_type":"Force","location":{"latitude":"51.514639","street":{"id":956146,"name":"On or near Wild Street"},"longitude":"-0.120567"},"context":"","outcome_status":null,"persistent_id":"","id":89848027,"location_subtype":"","month":"2021-01"},{"category":"anti-social-behaviour","location_type":"Force","location":{"latitude":"51.514639","street":{"id":956146,"name":"On or near Wild Street"},"longitude":"-0.120567"},"context":"","outcome_status":null,"persistent_id":"","id":89848028,"location_subtype":"","month":"2021-01"},{"category":"anti-social-behaviour","location_type":"Force","location":{"latitude":"51.514639","street":{"id":956146,"name":"On or near Wild Street"},"longitude":"-0.120567"},"context":"","outcome_status":null,"persistent_id":"","id":89848029,"location_subtype":"","month":"2021-01"},{"category":"anti-social-behaviour","location_type":"Force","location":{"latitude":"51.515381","street":{"id":956254,"name":"On or near Star Yard"},"longitude":"-0.112422"},"context":"","outcome_status":null,"persistent_id":"","id":89847969,"location_subtype":"","month":"2021-01"},{"category":"anti-social-behaviour","location_type":"Force","location":{"latitude":"51.512532","street":{"id":956259,"name":"On or near Little Essex Street"},"longitude":"-0.113088"},"context":"","outcome_status":null,"persistent_id":"","id":89847970,"location_subtype":"","month":"2021-01"},{"category":"anti-social-behaviour","location_type":"Force","location":{"latitude":"51.514710","street":{"id":956262,"name":"On or near Carey Street"},"longitude":"-0.114900"},"context":"","outcome_status":null,"persistent_id":"","id":89847971,"location_subtype":"","month":"2021-01"},{"category":"anti-social-behaviour","location_type":"Force","location":{"latitude":"51.512887","street":{"id":956258,"name":"On or near Melbourne Place"},"longitude":"-0.116128"},"context":"","outcome_status":null,"persistent_id":"","id":89847973,"location_subtype":"","month":"2021-01"},{"category":"anti-social-behaviour","location_type":"Force","location":{"latitude":"51.511315","street":{"id":956213,"name":"On or near Conference/exhibition Centre"},"longitude":"-0.118528"},"context":"","outcome_status":null,"persistent_id":"","id":89847974,"location_subtype":"","month":"2021-01"},{"category":"anti-social-behaviour","location_type":"Force","location":{"latitude":"51.511315","street":{"id":956213,"name":"On or near Conference/exhibition Centre"},"longitude":"-0.118528"},"context":"","outcome_status":null,"persistent_id":"","id":89847975,"location_subtype":"","month":"2021-01"},{"category":"anti-social-behaviour","location_type":"Force","location":{"latitude":"51.511315","street":{"id":956213,"name":"On or near Conference/exhibition Centre"},"longitude":"-0.118528"},"context":"","outcome_status":null,"persistent_id":"","id":89847976,"location_subtype":"","month":"2021-01"},{"category":"anti-social-behaviour","location_type":"Force","location":{"latitude":"51.512998","street":{"id":956208,"name":"On or near Theatre/concert Hall"},"longitude":"-0.120260"},"context":"","outcome_status":null,"persistent_id":"","id":89847996,"location_subtype":"","month":"2021-01"},{"category":"anti-social-behaviour","location_type":"Force","location":{"latitude":"51.512998","street":{"id":956208,"name":"On or near Theatre/concert Hall"},"longitude":"-0.120260"},"context":"","outcome_status":null,"persistent_id":"","id":89847997,"location_subtype":"","month":"2021-01"},{"category":"anti-social-behaviour","location_type":"Force","location":{"latitude":"51.512998","street":{"id":956208,"name":"On or near Theatre/concert Hall"},"longitude":"-0.120260"},"context":"","outcome_status":null,"persistent_id":"","id":89847998,"location_subtype":"","month":"2021-01"},{"category":"anti-social-behaviour","location_type":"Force","location":{"latitude":"51.512998","street":{"id":956208,"name":"On or near Theatre/concert Hall"},"longitude":"-0.120260"},"context":"","outcome_status":null,"persistent_id":"","id":89847999,"location_subtype":"","month":"2021-01"},{"category":"anti-social-behaviour","location_type":"Force","location":{"latitude":"51.512998","street":{"id":956208,"name":"On or near Theatre/concert Hall"},"longitude":"-0.120260"},"context":"","outcome_status":null,"persistent_id":"","id":89848000,"location_subtype":"","month":"2021-01"},{"category":"anti-social-behaviour","location_type":"Force","location":{"latitude":"51.513734","street":{"id":956189,"name":"On or near Drury Lane"},"longitude":"-0.120158"},"context":"","outcome_status":null,"persistent_id":"","id":89848001,"location_subtype":"","month":"2021-01"},{"category":"anti-social-behaviour","location_type":"Force","location":{"latitude":"51.510490","street":{"id":956198,"name":"On or near Bedford Street"},"longitude":"-0.124254"},"context":"","outcome_status":null,"persistent_id":"","id":89848043,"location_subtype":"","month":"2021-01"},{"category":"anti-social-behaviour","location_type":"Force","location":{"latitude":"51.510490","street":{"id":956198,"name":"On or near Bedford Street"},"longitude":"-0.124254"},"context":"","outcome_status":null,"persistent_id":"","id":89848044,"location_subtype":"","month":"2021-01"},{"category":"anti-social-behaviour","location_type":"Force","location":{"latitude":"51.512165","street":{"id":956143,"name":"On or near Shopping Area"},"longitude":"-0.123825"},"context":"","outcome_status":null,"persistent_id":"","id":89848048,"location_subtype":"","month":"2021-01"},{"category":"anti-social-behaviour","location_type":"Force","location":{"latitude":"51.500969","street":{"id":953533,"name":"On or near Bridge Street"},"longitude":"-0.124933"},"context":"","outcome_status":null,"persistent_id":"","id":89848049,"location_subtype":"","month":"2021-01"},{"category":"anti-social-behaviour","location_type":"Force","location":{"latitude":"51.500969","street":{"id":953533,"name":"On or near Bridge Street"},"longitude":"-0.124933"},"context":"","outcome_status":null,"persistent_id":"","id":89848050,"location_subtype":"","month":"2021-01"},{"category":"anti-social-behaviour","location_type":"Force","location":{"latitude":"51.503196","street":{"id":953311,"name":"On or near Downing Street"},"longitude":"-0.127032"},"context":"","outcome_status":null,"persistent_id":"","id":89848063,"location_subtype":"","month":"2021-01"},{"category":"anti-social-behaviour","location_type":"Force","location":{"latitude":"51.503196","street":{"id":953311,"name":"On or near Downing Street"},"longitude":"-0.127032"},"context":"","outcome_status":null,"persistent_id":"","id":89848064,"location_subtype":"","month":"2021-01"},{"category":"anti-social-behaviour","location_type":"Force","location":{"latitude":"51.508592","street":{"id":956519,"name":"On or near Duncannon Street"},"longitude":"-0.126479"},"context":"","outcome_status":null,"persistent_id":"","id":89848065,"location_subtype":"","month":"2021-01"},{"category":"anti-social-behaviour","location_type":"Force","location":{"latitude":"51.508592","street":{"id":956519,"name":"On or near Duncannon Street"},"longitude":"-0.126479"},"context":"","outcome_status":null,"persistent_id":"","id":89848066,"location_subtype":"","month":"2021-01"},{"category":"anti-social-behaviour","location_type":"Force","location":{"latitude":"51.508592","street":{"id":956519,"name":"On or near Duncannon Street"},"longitude":"-0.126479"},"context":"","outcome_status":null,"persistent_id":"","id":89848067,"location_subtype":"","month":"2021-01"},{"category":"anti-social-behaviour","location_type":"Force","location":{"latitude":"51.509902","street":{"id":956586,"name":"On or near Theatre/concert Hall"},"longitude":"-0.126310"},"context":"","outcome_status":null,"persistent_id":"","id":89848071,"location_subtype":"","month":"2021-01"},{"category":"anti-social-behaviour","location_type":"Force","location":{"latitude":"51.509902","street":{"id":956586,"name":"On or near Theatre/concert Hall"},"longitude":"-0.126310"},"context":"","outcome_status":null,"persistent_id":"","id":89848072,"location_subtype":"","month":"2021-01"},{"category":"anti-social-behaviour","location_type":"Force","location":{"latitude":"51.507473","street":{"id":956299,"name":"On or near Northumberland Street"},"longitude":"-0.125675"},"context":"","outcome_status":null,"persistent_id":"","id":89848073,"location_subtype":"","month":"2021-01"},{"category":"anti-social-behaviour","location_type":"Force","location":{"latitude":"51.496706","street":{"id":953276,"name":"On or near Lord North Street"},"longitude":"-0.127154"},"context":"","outcome_status":null,"persistent_id":"","id":89848074,"location_subtype":"","month":"2021-01"},{"category":"anti-social-behaviour","location_type":"Force","location":{"latitude":"51.496706","street":{"id":953276,"name":"On or near Lord North Street"},"longitude":"-0.127154"},"context":"","outcome_status":null,"persistent_id":"","id":89848075,"location_subtype":"","month":"2021-01"},{"category":"anti-social-behaviour","location_type":"Force","location":{"latitude":"51.503196","street":{"id":953311,"name":"On or near Downing Street"},"longitude":"-0.127032"},"context":"","outcome_status":null,"persistent_id":"","id":89848076,"location_subtype":"","month":"2021-01"},{"category":"anti-social-behaviour","location_type":"Force","location":{"latitude":"51.503196","street":{"id":953311,"name":"On or near Downing Street"},"longitude":"-0.127032"},"context":"","outcome_status":null,"persistent_id":"","id":89848077,"location_subtype":"","month":"2021-01"},{"category":"anti-social-behaviour","location_type":"Force","location":{"latitude":"51.503196","street":{"id":953311,"name":"On or near Downing Street"},"longitude":"-0.127032"},"context":"","outcome_status":null,"persistent_id":"","id":89848078,"location_subtype":"","month":"2021-01"},{"category":"anti-social-behaviour","location_type":"Force","location":{"latitude":"51.492669","street":{"id":953413,"name":"On or near Marsham Street"},"longitude":"-0.128919"},"context":"","outcome_status":null,"persistent_id":"","id":89848092,"location_subtype":"","month":"2021-01"},{"category":"anti-social-behaviour","location_type":"Force","location":{"latitude":"51.492669","street":{"id":953413,"name":"On or near Marsham Street"},"longitude":"-0.128919"},"context":"","outcome_status":null,"persistent_id":"","id":89848093,"location_subtype":"","month":"2021-01"},{"category":"anti-social-behaviour","location_type":"Force","location":{"latitude":"51.492669","street":{"id":953413,"name":"On or near Marsham Street"},"longitude":"-0.128919"},"context":"","outcome_status":null,"persistent_id":"","id":89848094,"location_subtype":"","month":"2021-01"},{"category":"anti-social-behaviour","location_type":"Force","location":{"latitude":"51.507309","street":{"id":956645,"name":"On or near Pedestrian Subway"},"longitude":"-0.128348"},"context":"","outcome_status":null,"persistent_id":"","id":89848102,"location_subtype":"","month":"2021-01"},{"category":"anti-social-behaviour","location_type":"Force","location":{"latitude":"51.494853","street":{"id":953415,"name":"On or near Horseferry Road"},"longitude":"-0.128829"},"context":"","outcome_status":null,"persistent_id":"","id":89848103,"location_subtype":"","month":"2021-01"},{"category":"anti-social-behaviour","location_type":"Force","location":{"latitude":"51.490543","street":{"id":949732,"name":"On or near Further/higher Educational Building"},"longitude":"-0.129236"},"context":"","outcome_status":null,"persistent_id":"","id":89848104,"location_subtype":"","month":"2021-01"},{"category":"anti-social-behaviour","location_type":"Force","location":{"latitude":"51.490543","street":{"id":949732,"name":"On or near Further/higher Educational Building"},"longitude":"-0.129236"},"context":"","outcome_status":null,"persistent_id":"","id":89848105,"location_subtype":"","month":"2021-01"},{"category":"anti-social-behaviour","location_type":"Force","location":{"latitude":"51.507657","street":{"id":956660,"name":"On or near Cockspur Street"},"longitude":"-0.129890"},"context":"","outcome_status":null,"persistent_id":"","id":89848109,"location_subtype":"","month":"2021-01"},{"category":"anti-social-behaviour","location_type":"Force","location":{"latitude":"51.507657","street":{"id":956660,"name":"On or near Cockspur Street"},"longitude":"-0.129890"},"context":"","outcome_status":null,"persistent_id":"","id":89848110,"location_subtype":"","month":"2021-01"},{"category":"anti-social-behaviour","location_type":"Force","location":{"latitude":"51.507657","street":{"id":956660,"name":"On or near Cockspur Street"},"longitude":"-0.129890"},"context":"","outcome_status":null,"persistent_id":"","id":89848111,"location_subtype":"","month":"2021-01"},{"category":"anti-social-behaviour","location_type":"Force","location":{"latitude":"51.507657","street":{"id":956660,"name":"On or near Cockspur Street"},"longitude":"-0.129890"},"context":"","outcome_status":null,"persistent_id":"","id":89848112,"location_subtype":"","month":"2021-01"},{"category":"anti-social-behaviour","location_type":"Force","location":{"latitude":"51.507657","street":{"id":956660,"name":"On or near Cockspur Street"},"longitude":"-0.129890"},"context":"","outcome_status":null,"persistent_id":"","id":89848113,"location_subtype":"","month":"2021-01"},{"category":"anti-social-behaviour","location_type":"Force","location":{"latitude":"51.493930","street":{"id":953410,"name":"On or near Page Street"},"longitude":"-0.129573"},"context":"","outcome_status":null,"persistent_id":"","id":89848114,"location_subtype":"","month":"2021-01"},{"category":"anti-social-behaviour","location_type":"Force","location":{"latitude":"51.493930","street":{"id":953410,"name":"On or near Page Street"},"longitude":"-0.129573"},"context":"","outcome_status":null,"persistent_id":"","id":89848115,"location_subtype":"","month":"2021-01"},{"category":"anti-social-behaviour","location_type":"Force","location":{"latitude":"51.490580","street":{"id":949712,"name":"On or near Cureton Street"},"longitude":"-0.130445"},"context":"","outcome_status":null,"persistent_id":"","id":89848116,"location_subtype":"","month":"2021-01"},{"category":"anti-social-behaviour","location_type":"Force","location":{"latitude":"51.500969","street":{"id":953533,"name":"On or near Bridge Street"},"longitude":"-0.124933"},"context":"","outcome_status":null,"persistent_id":"","id":89848435,"location_subtype":"","month":"2021-01"},{"category":"anti-social-behaviour","location_type":"Force","location":{"latitude":"51.507657","street":{"id":956660,"name":"On or near Cockspur Street"},"longitude":"-0.129890"},"context":"","outcome_status":null,"persistent_id":"","id":89848131,"location_subtype":"","month":"2021-01"},{"category":"anti-social-behaviour","location_type":"Force","location":{"latitude":"51.507657","street":{"id":956660,"name":"On or near Cockspur Street"},"longitude":"-0.129890"},"context":"","outcome_status":null,"persistent_id":"","id":89848132,"location_subtype":"","month":"2021-01"},{"category":"anti-social-behaviour","location_type":"Force","location":{"latitude":"51.507214","street":{"id":956661,"name":"On or near Cockspur Court"},"longitude":"-0.129721"},"context":"","outcome_status":null,"persistent_id":"","id":89848136,"location_subtype":"","month":"2021-01"},{"category":"anti-social-behaviour","location_type":"Force","location":{"latitude":"51.515681","street":{"id":956454,"name":"On or near St Giles High Street"},"longitude":"-0.128884"},"context":"","outcome_status":null,"persistent_id":"","id":89849933,"location_subtype":"","month":"2021-01"},{"category":"anti-social-behaviour","location_type":"Force","location":{"latitude":"51.515681","street":{"id":956454,"name":"On or near St Giles High Street"},"longitude":"-0.128884"},"context":"","outcome_status":null,"persistent_id":"","id":89849935,"location_subtype":"","month":"2021-01"},{"category":"anti-social-behaviour","location_type":"Force","location":{"latitude":"51.489256","street":{"id":949521,"name":"On or near Orsett Street"},"longitude":"-0.116267"},"context":"","outcome_status":null,"persistent_id":"","id":89852382,"location_subtype":"","month":"2021-01"},{"category":"anti-social-behaviour","location_type":"Force","location":{"latitude":"51.494871","street":{"id":953566,"name":"On or near Pratt Walk"},"longitude":"-0.117058"},"context":"","outcome_status":null,"persistent_id":"","id":89852415,"location_subtype":"","month":"2021-01"},{"category":"anti-social-behaviour","location_type":"Force","location":{"latitude":"51.494871","street":{"id":953566,"name":"On or near Pratt Walk"},"longitude":"-0.117058"},"context":"","outcome_status":null,"persistent_id":"","id":89852417,"location_subtype":"","month":"2021-01"},{"category":"anti-social-behaviour","location_type":"Force","location":{"latitude":"51.501723","street":{"id":953712,"name":"On or near Weller Street"},"longitude":"-0.096403"},"context":"","outcome_status":null,"persistent_id":"","id":89858524,"location_subtype":"","month":"2021-01"},{"category":"anti-social-behaviour","location_type":"Force","location":{"latitude":"51.500880","street":{"id":953729,"name":"On or near Pickwick Street"},"longitude":"-0.096553"},"context":"","outcome_status":null,"persistent_id":"","id":89858520,"location_subtype":"","month":"2021-01"},{"category":"anti-social-behaviour","location_type":"Force","location":{"latitude":"51.501723","street":{"id":953712,"name":"On or near Weller Street"},"longitude":"-0.096403"},"context":"","outcome_status":null,"persistent_id":"","id":89858526,"location_subtype":"","month":"2021-01"},{"category":"anti-social-behaviour","location_type":"Force","location":{"latitude":"51.491921","street":{"id":953565,"name":"On or near Renfrew Road"},"longitude":"-0.105814"},"context":"","outcome_status":null,"persistent_id":"","id":89858648,"location_subtype":"","month":"2021-01"},{"category":"anti-social-behaviour","location_type":"Force","location":{"latitude":"51.511595","street":{"id":956536,"name":"On or near Brewer Street"},"longitude":"-0.135464"},"context":"","outcome_status":null,"persistent_id":"","id":89863224,"location_subtype":"","month":"2021-01"},{"category":"anti-social-behaviour","location_type":"Force","location":{"latitude":"51.497104","street":{"id":953299,"name":"On or near Shopping Area"},"longitude":"-0.136358"},"context":"","outcome_status":null,"persistent_id":"","id":89863234,"location_subtype":"","month":"2021-01"},{"category":"anti-social-behaviour","location_type":"Force","location":{"latitude":"51.512590","street":{"id":956496,"name":"On or near Lexington Street"},"longitude":"-0.135856"},"context":"","outcome_status":null,"persistent_id":"","id":89863235,"location_subtype":"","month":"2021-01"},{"category":"anti-social-behaviour","location_type":"Force","location":{"latitude":"51.499482","street":{"id":953269,"name":"On or near Petty France"},"longitude":"-0.136016"},"context":"","outcome_status":null,"persistent_id":"","id":89863236,"location_subtype":"","month":"2021-01"},{"category":"anti-social-behaviour","location_type":"Force","location":{"latitude":"51.509929","street":{"id":956469,"name":"On or near Regent Street"},"longitude":"-0.136440"},"context":"","outcome_status":null,"persistent_id":"","id":89863237,"location_subtype":"","month":"2021-01"},{"category":"anti-social-behaviour","location_type":"Force","location":{"latitude":"51.511394","street":{"id":956491,"name":"On or near Lower James Street"},"longitude":"-0.136424"},"context":"","outcome_status":null,"persistent_id":"","id":89863238,"location_subtype":"","month":"2021-01"},{"category":"anti-social-behaviour","location_type":"Force","location":{"latitude":"51.511394","street":{"id":956491,"name":"On or near Lower James Street"},"longitude":"-0.136424"},"context":"","outcome_status":null,"persistent_id":"","id":89863239,"location_subtype":"","month":"2021-01"},{"category":"anti-social-behaviour","location_type":"Force","location":{"latitude":"51.494871","street":{"id":953566,"name":"On or near Pratt Walk"},"longitude":"-0.117058"},"context":"","outcome_status":null,"persistent_id":"","id":89863540,"location_subtype":"","month":"2021-01"},{"category":"anti-social-behaviour","location_type":"Force","location":{"latitude":"51.494871","street":{"id":953566,"name":"On or near Pratt Walk"},"longitude":"-0.117058"},"context":"","outcome_status":null,"persistent_id":"","id":89863541,"location_subtype":"","month":"2021-01"},{"category":"anti-social-behaviour","location_type":"Force","location":{"latitude":"51.494871","street":{"id":953566,"name":"On or near Pratt Walk"},"longitude":"-0.117058"},"context":"","outcome_status":null,"persistent_id":"","id":89863542,"location_subtype":"","month":"2021-01"},{"category":"anti-social-behaviour","location_type":"Force","location":{"latitude":"51.494871","street":{"id":953566,"name":"On or near Pratt Walk"},"longitude":"-0.117058"},"context":"","outcome_status":null,"persistent_id":"","id":89863545,"location_subtype":"","month":"2021-01"},{"category":"anti-social-behaviour","location_type":"Force","location":{"latitude":"51.494125","street":{"id":953556,"name":"On or near Police Station"},"longitude":"-0.117637"},"context":"","outcome_status":null,"persistent_id":"","id":89863549,"location_subtype":"","month":"2021-01"},{"category":"anti-social-behaviour","location_type":"Force","location":{"latitude":"51.493106","street":{"id":953547,"name":"On or near Lambeth High Street"},"longitude":"-0.120257"},"context":"","outcome_status":null,"persistent_id":"","id":89863595,"location_subtype":"","month":"2021-01"},{"category":"anti-social-behaviour","location_type":"Force","location":{"latitude":"51.516586","street":{"id":956237,"name":"On or near Newton Street"},"longitude":"-0.121395"},"context":"","outcome_status":null,"persistent_id":"","id":89864176,"location_subtype":"","month":"2021-01"},{"category":"anti-social-behaviour","location_type":"Force","location":{"latitude":"51.516586","street":{"id":956237,"name":"On or near Newton Street"},"longitude":"-0.121395"},"context":"","outcome_status":null,"persistent_id":"","id":89864177,"location_subtype":"","month":"2021-01"},{"category":"anti-social-behaviour","location_type":"Force","location":{"latitude":"51.489787","street":{"id":949496,"name":"On or near Nightclub"},"longitude":"-0.121906"},"context":"","outcome_status":null,"persistent_id":"","id":89863632,"location_subtype":"","month":"2021-01"},{"category":"anti-social-behaviour","location_type":"Force","location":{"latitude":"51.498734","street":{"id":953301,"name":"On or near Police Station"},"longitude":"-0.133122"},"context":"","outcome_status":null,"persistent_id":"","id":89864409,"location_subtype":"","month":"2021-01"},{"category":"anti-social-behaviour","location_type":"Force","location":{"latitude":"51.509371","street":{"id":956452,"name":"On or near St James's Market"},"longitude":"-0.133033"},"context":"","outcome_status":null,"persistent_id":"","id":89864406,"location_subtype":"","month":"2021-01"},{"category":"anti-social-behaviour","location_type":"Force","location":{"latitude":"51.498734","street":{"id":953301,"name":"On or near Police Station"},"longitude":"-0.133122"},"context":"","outcome_status":null,"persistent_id":"","id":89864408,"location_subtype":"","month":"2021-01"},{"category":"anti-social-behaviour","location_type":"Force","location":{"latitude":"51.498734","street":{"id":953301,"name":"On or near Police Station"},"longitude":"-0.133122"},"context":"","outcome_status":null,"persistent_id":"","id":89864411,"location_subtype":"","month":"2021-01"},{"category":"anti-social-behaviour","location_type":"Force","location":{"latitude":"51.498734","street":{"id":953301,"name":"On or near Police Station"},"longitude":"-0.133122"},"context":"","outcome_status":null,"persistent_id":"","id":89864412,"location_subtype":"","month":"2021-01"},{"category":"anti-social-behaviour","location_type":"Force","location":{"latitude":"51.498734","street":{"id":953301,"name":"On or near Police Station"},"longitude":"-0.133122"},"context":"","outcome_status":null,"persistent_id":"","id":89864413,"location_subtype":"","month":"2021-01"},{"category":"anti-social-behaviour","location_type":"Force","location":{"latitude":"51.498734","street":{"id":953301,"name":"On or near Police Station"},"longitude":"-0.133122"},"context":"","outcome_status":null,"persistent_id":"","id":89864414,"location_subtype":"","month":"2021-01"},{"category":"anti-social-behaviour","location_type":"Force","location":{"latitude":"51.516213","street":{"id":956172,"name":"On or near Kingsway"},"longitude":"-0.119450"},"context":"","outcome_status":null,"persistent_id":"","id":89864150,"location_subtype":"","month":"2021-01"},{"category":"anti-social-behaviour","location_type":"Force","location":{"latitude":"51.515678","street":{"id":956181,"name":"On or near Great Queen Street"},"longitude":"-0.120841"},"context":"","outcome_status":null,"persistent_id":"","id":89864166,"location_subtype":"","month":"2021-01"},{"category":"anti-social-behaviour","location_type":"Force","location":{"latitude":"51.516586","street":{"id":956237,"name":"On or near Newton Street"},"longitude":"-0.121395"},"context":"","outcome_status":null,"persistent_id":"","id":89864167,"location_subtype":"","month":"2021-01"},{"category":"anti-social-behaviour","location_type":"Force","location":{"latitude":"51.516586","street":{"id":956237,"name":"On or near Newton Street"},"longitude":"-0.121395"},"context":"","outcome_status":null,"persistent_id":"","id":89864170,"location_subtype":"","month":"2021-01"},{"category":"anti-social-behaviour","location_type":"Force","location":{"latitude":"51.516586","street":{"id":956237,"name":"On or near Newton Street"},"longitude":"-0.121395"},"context":"","outcome_status":null,"persistent_id":"","id":89864171,"location_subtype":"","month":"2021-01"},{"category":"anti-social-behaviour","location_type":"Force","location":{"latitude":"51.515678","street":{"id":956181,"name":"On or near Great Queen Street"},"longitude":"-0.120841"},"context":"","outcome_status":null,"persistent_id":"","id":89864174,"location_subtype":"","month":"2021-01"},{"category":"anti-social-behaviour","location_type":"Force","location":{"latitude":"51.515412","street":{"id":956190,"name":"On or near Drury Lane"},"longitude":"-0.123317"},"context":"","outcome_status":null,"persistent_id":"","id":89864215,"location_subtype":"","month":"2021-01"},{"category":"anti-social-behaviour","location_type":"Force","location":{"latitude":"51.514963","street":{"id":956196,"name":"On or near Betterton Street"},"longitude":"-0.123912"},"context":"","outcome_status":null,"persistent_id":"","id":89864221,"location_subtype":"","month":"2021-01"},{"category":"anti-social-behaviour","location_type":"Force","location":{"latitude":"51.514963","street":{"id":956196,"name":"On or near Betterton Street"},"longitude":"-0.123912"},"context":"","outcome_status":null,"persistent_id":"","id":89864223,"location_subtype":"","month":"2021-01"},{"category":"anti-social-behaviour","location_type":"Force","location":{"latitude":"51.497235","street":{"id":953261,"name":"On or near Strutton Ground"},"longitude":"-0.133860"},"context":"","outcome_status":null,"persistent_id":"","id":89864424,"location_subtype":"","month":"2021-01"},{"category":"anti-social-behaviour","location_type":"Force","location":{"latitude":"51.503637","street":{"id":953483,"name":"On or near Sandell Street"},"longitude":"-0.110804"},"context":"","outcome_status":null,"persistent_id":"","id":89864490,"location_subtype":"","month":"2021-01"},{"category":"anti-social-behaviour","location_type":"Force","location":{"latitude":"51.495756","street":{"id":953445,"name":"On or near Kennington Road"},"longitude":"-0.111115"},"context":"","outcome_status":null,"persistent_id":"","id":89864493,"location_subtype":"","month":"2021-01"},{"category":"anti-social-behaviour","location_type":"Force","location":{"latitude":"51.497580","street":{"id":953456,"name":"On or near Police Station"},"longitude":"-0.111573"},"context":"","outcome_status":null,"persistent_id":"","id":89864495,"location_subtype":"","month":"2021-01"},{"category":"anti-social-behaviour","location_type":"Force","location":{"latitude":"51.494015","street":{"id":953558,"name":"On or near Walnut Tree Walk"},"longitude":"-0.112469"},"context":"","outcome_status":null,"persistent_id":"","id":89864506,"location_subtype":"","month":"2021-01"},{"category":"anti-social-behaviour","location_type":"Force","location":{"latitude":"51.505009","street":{"id":953518,"name":"On or near Further/higher Educational Building"},"longitude":"-0.112793"},"context":"","outcome_status":null,"persistent_id":"","id":89864523,"location_subtype":"","month":"2021-01"},{"category":"anti-social-behaviour","location_type":"Force","location":{"latitude":"51.501997","street":{"id":953479,"name":"On or near Spur Road"},"longitude":"-0.111693"},"context":"","outcome_status":null,"persistent_id":"","id":89864524,"location_subtype":"","month":"2021-01"},{"category":"anti-social-behaviour","location_type":"Force","location":{"latitude":"51.514976","street":{"id":956185,"name":"On or near Endell Street"},"longitude":"-0.125309"},"context":"","outcome_status":null,"persistent_id":"","id":89864243,"location_subtype":"","month":"2021-01"},{"category":"anti-social-behaviour","location_type":"Force","location":{"latitude":"51.491806","street":{"id":949470,"name":"On or near Salamanca Place"},"longitude":"-0.120498"},"context":"","outcome_status":null,"persistent_id":"","id":89864944,"location_subtype":"","month":"2021-01"},{"category":"anti-social-behaviour","location_type":"Force","location":{"latitude":"51.514696","street":{"id":956152,"name":"On or near Shorts Gardens"},"longitude":"-0.125234"},"context":"","outcome_status":null,"persistent_id":"","id":89865493,"location_subtype":"","month":"2021-01"},{"category":"anti-social-behaviour","location_type":"Force","location":{"latitude":"51.514976","street":{"id":956185,"name":"On or near Endell Street"},"longitude":"-0.125309"},"context":"","outcome_status":null,"persistent_id":"","id":89865494,"location_subtype":"","month":"2021-01"},{"category":"anti-social-behaviour","location_type":"Force","location":{"latitude":"51.507377","street":{"id":956289,"name":"On or near A301"},"longitude":"-0.115750"},"context":"","outcome_status":null,"persistent_id":"","id":89865106,"location_subtype":"","month":"2021-01"},{"category":"anti-social-behaviour","location_type":"Force","location":{"latitude":"51.507377","street":{"id":956289,"name":"On or near A301"},"longitude":"-0.115750"},"context":"","outcome_status":null,"persistent_id":"","id":89865107,"location_subtype":"","month":"2021-01"},{"category":"anti-social-behaviour","location_type":"Force","location":{"latitude":"51.504735","street":{"id":953459,"name":"On or near Pedestrian Subway"},"longitude":"-0.114188"},"context":"","outcome_status":null,"persistent_id":"","id":89865111,"location_subtype":"","month":"2021-01"},{"category":"anti-social-behaviour","location_type":"Force","location":{"latitude":"51.504735","street":{"id":953459,"name":"On or near Pedestrian Subway"},"longitude":"-0.114188"},"context":"","outcome_status":null,"persistent_id":"","id":89865112,"location_subtype":"","month":"2021-01"},{"category":"anti-social-behaviour","location_type":"Force","location":{"latitude":"51.511624","street":{"id":956541,"name":"On or near Archer Street"},"longitude":"-0.133878"},"context":"","outcome_status":null,"persistent_id":"","id":89865690,"location_subtype":"","month":"2021-01"},{"category":"anti-social-behaviour","location_type":"Force","location":{"latitude":"51.511624","street":{"id":956541,"name":"On or near Archer Street"},"longitude":"-0.133878"},"context":"","outcome_status":null,"persistent_id":"","id":89865691,"location_subtype":"","month":"2021-01"},{"category":"anti-social-behaviour","location_type":"Force","location":{"latitude":"51.511238","street":{"id":956559,"name":"On or near Theatre/concert Hall"},"longitude":"-0.133922"},"context":"","outcome_status":null,"persistent_id":"","id":89865695,"location_subtype":"","month":"2021-01"},{"category":"anti-social-behaviour","location_type":"Force","location":{"latitude":"51.496095","street":{"id":953268,"name":"On or near Rochester Row"},"longitude":"-0.135088"},"context":"","outcome_status":null,"persistent_id":"","id":89865704,"location_subtype":"","month":"2021-01"},{"category":"anti-social-behaviour","location_type":"Force","location":{"latitude":"51.499482","street":{"id":953269,"name":"On or near Petty France"},"longitude":"-0.136016"},"context":"","outcome_status":null,"persistent_id":"","id":89865706,"location_subtype":"","month":"2021-01"},{"category":"anti-social-behaviour","location_type":"Force","location":{"latitude":"51.495486","street":{"id":953442,"name":"On or near Lambeth Road"},"longitude":"-0.115592"},"context":"","outcome_status":null,"persistent_id":"","id":89867977,"location_subtype":"","month":"2021-01"},{"category":"anti-social-behaviour","location_type":"Force","location":{"latitude":"51.495486","street":{"id":953442,"name":"On or near Lambeth Road"},"longitude":"-0.115592"},"context":"","outcome_status":null,"persistent_id":"","id":89867978,"location_subtype":"","month":"2021-01"},{"category":"anti-social-behaviour","location_type":"Force","location":{"latitude":"51.513869","street":{"id":587567,"name":"On or near Bride Lane"},"longitude":"-0.105134"},"context":"","outcome_status":null,"persistent_id":"","id":90030729,"location_subtype":"","month":"2021-01"},{"category":"anti-social-behaviour","location_type":"Force","location":{"latitude":"51.503784","street":{"id":953715,"name":"On or near Union Street"},"longitude":"-0.098147"},"context":"","outcome_status":null,"persistent_id":"","id":89871519,"location_subtype":"","month":"2021-01"},{"category":"anti-social-behaviour","location_type":"Force","location":{"latitude":"51.502369","street":{"id":953718,"name":"On or near Surrey Row"},"longitude":"-0.102975"},"context":"","outcome_status":null,"persistent_id":"","id":89872560,"location_subtype":"","month":"2021-01"},{"category":"anti-social-behaviour","location_type":"Force","location":{"latitude":"51.499219","street":{"id":953755,"name":"On or near Further/higher Educational Building"},"longitude":"-0.104474"},"context":"","outcome_status":null,"persistent_id":"","id":89872561,"location_subtype":"","month":"2021-01"},{"category":"anti-social-behaviour","location_type":"Force","location":{"latitude":"51.503510","street":{"id":953749,"name":"On or near Blackfriars Road"},"longitude":"-0.104584"},"context":"","outcome_status":null,"persistent_id":"","id":89872568,"location_subtype":"","month":"2021-01"},{"category":"anti-social-behaviour","location_type":"Force","location":{"latitude":"51.503510","street":{"id":953749,"name":"On or near Blackfriars Road"},"longitude":"-0.104584"},"context":"","outcome_status":null,"persistent_id":"","id":89872569,"location_subtype":"","month":"2021-01"},{"category":"anti-social-behaviour","location_type":"Force","location":{"latitude":"51.503510","street":{"id":953749,"name":"On or near Blackfriars Road"},"longitude":"-0.104584"},"context":"","outcome_status":null,"persistent_id":"","id":89872570,"location_subtype":"","month":"2021-01"},{"category":"anti-social-behaviour","location_type":"Force","location":{"latitude":"51.498328","street":{"id":953294,"name":"On or near Abbey Orchard Street"},"longitude":"-0.131338"},"context":"","outcome_status":null,"persistent_id":"","id":89846335,"location_subtype":"","month":"2021-01"},{"category":"anti-social-behaviour","location_type":"Force","location":{"latitude":"51.493702","street":{"id":953419,"name":"On or near Fynes Street"},"longitude":"-0.132809"},"context":"","outcome_status":null,"persistent_id":"","id":89846343,"location_subtype":"","month":"2021-01"},{"category":"anti-social-behaviour","location_type":"Force","location":{"latitude":"51.497534","street":{"id":953272,"name":"On or near Old Pye Street"},"longitude":"-0.132278"},"context":"","outcome_status":null,"persistent_id":"","id":89846352,"location_subtype":"","month":"2021-01"},{"category":"anti-social-behaviour","location_type":"Force","location":{"latitude":"51.497534","street":{"id":953272,"name":"On or near Old Pye Street"},"longitude":"-0.132278"},"context":"","outcome_status":null,"persistent_id":"","id":89846353,"location_subtype":"","month":"2021-01"},{"category":"anti-social-behaviour","location_type":"Force","location":{"latitude":"51.495745","street":{"id":953256,"name":"On or near Parking Area"},"longitude":"-0.132308"},"context":"","outcome_status":null,"persistent_id":"","id":89846354,"location_subtype":"","month":"2021-01"},{"category":"anti-social-behaviour","location_type":"Force","location":{"latitude":"51.491668","street":{"id":949717,"name":"On or near Chapter Street"},"longitude":"-0.133267"},"context":"","outcome_status":null,"persistent_id":"","id":89846363,"location_subtype":"","month":"2021-01"},{"category":"anti-social-behaviour","location_type":"Force","location":{"latitude":"51.511315","street":{"id":956213,"name":"On or near Conference/exhibition Centre"},"longitude":"-0.118528"},"context":"","outcome_status":null,"persistent_id":"","id":89847991,"location_subtype":"","month":"2021-01"},{"category":"anti-social-behaviour","location_type":"Force","location":{"latitude":"51.511315","street":{"id":956213,"name":"On or near Conference/exhibition Centre"},"longitude":"-0.118528"},"context":"","outcome_status":null,"persistent_id":"","id":89847992,"location_subtype":"","month":"2021-01"},{"category":"anti-social-behaviour","location_type":"Force","location":{"latitude":"51.511315","street":{"id":956213,"name":"On or near Conference/exhibition Centre"},"longitude":"-0.118528"},"context":"","outcome_status":null,"persistent_id":"","id":89847993,"location_subtype":"","month":"2021-01"},{"category":"anti-social-behaviour","location_type":"Force","location":{"latitude":"51.513734","street":{"id":956189,"name":"On or near Drury Lane"},"longitude":"-0.120158"},"context":"","outcome_status":null,"persistent_id":"","id":89848002,"location_subtype":"","month":"2021-01"},{"category":"anti-social-behaviour","location_type":"Force","location":{"latitude":"51.513734","street":{"id":956189,"name":"On or near Drury Lane"},"longitude":"-0.120158"},"context":"","outcome_status":null,"persistent_id":"","id":89848003,"location_subtype":"","month":"2021-01"},{"category":"anti-social-behaviour","location_type":"Force","location":{"latitude":"51.514639","street":{"id":956146,"name":"On or near Wild Street"},"longitude":"-0.120567"},"context":"","outcome_status":null,"persistent_id":"","id":89848004,"location_subtype":"","month":"2021-01"},{"category":"anti-social-behaviour","location_type":"Force","location":{"latitude":"51.514639","street":{"id":956146,"name":"On or near Wild Street"},"longitude":"-0.120567"},"context":"","outcome_status":null,"persistent_id":"","id":89848015,"location_subtype":"","month":"2021-01"},{"category":"anti-social-behaviour","location_type":"Force","location":{"latitude":"51.514639","street":{"id":956146,"name":"On or near Wild Street"},"longitude":"-0.120567"},"context":"","outcome_status":null,"persistent_id":"","id":89848016,"location_subtype":"","month":"2021-01"},{"category":"anti-social-behaviour","location_type":"Force","location":{"latitude":"51.514639","street":{"id":956146,"name":"On or near Wild Street"},"longitude":"-0.120567"},"context":"","outcome_status":null,"persistent_id":"","id":89848017,"location_subtype":"","month":"2021-01"},{"category":"anti-social-behaviour","location_type":"Force","location":{"latitude":"51.498266","street":{"id":953524,"name":"On or near Abingdon Street"},"longitude":"-0.125750"},"context":"","outcome_status":null,"persistent_id":"","id":89848045,"location_subtype":"","month":"2021-01"},{"category":"anti-social-behaviour","location_type":"Force","location":{"latitude":"51.500969","street":{"id":953533,"name":"On or near Bridge Street"},"longitude":"-0.124933"},"context":"","outcome_status":null,"persistent_id":"","id":89848046,"location_subtype":"","month":"2021-01"},{"category":"anti-social-behaviour","location_type":"Force","location":{"latitude":"51.500969","street":{"id":953533,"name":"On or near Bridge Street"},"longitude":"-0.124933"},"context":"","outcome_status":null,"persistent_id":"","id":89848047,"location_subtype":"","month":"2021-01"},{"category":"anti-social-behaviour","location_type":"Force","location":{"latitude":"51.506095","street":{"id":956294,"name":"On or near Whitehall Place"},"longitude":"-0.124997"},"context":"","outcome_status":null,"persistent_id":"","id":89848057,"location_subtype":"","month":"2021-01"},{"category":"anti-social-behaviour","location_type":"Force","location":{"latitude":"51.513195","street":{"id":956170,"name":"On or near Langley Street"},"longitude":"-0.125282"},"context":"","outcome_status":null,"persistent_id":"","id":89848058,"location_subtype":"","month":"2021-01"},{"category":"anti-social-behaviour","location_type":"Force","location":{"latitude":"51.513195","street":{"id":956170,"name":"On or near Langley Street"},"longitude":"-0.125282"},"context":"","outcome_status":null,"persistent_id":"","id":89848059,"location_subtype":"","month":"2021-01"},{"category":"anti-social-behaviour","location_type":"Force","location":{"latitude":"51.507473","street":{"id":956299,"name":"On or near Northumberland Street"},"longitude":"-0.125675"},"context":"","outcome_status":null,"persistent_id":"","id":89848068,"location_subtype":"","month":"2021-01"},{"category":"anti-social-behaviour","location_type":"Force","location":{"latitude":"51.511748","street":{"id":956551,"name":"On or near Theatre/concert Hall"},"longitude":"-0.125874"},"context":"","outcome_status":null,"persistent_id":"","id":89848069,"location_subtype":"","month":"2021-01"},{"category":"anti-social-behaviour","location_type":"Force","location":{"latitude":"51.511748","street":{"id":956551,"name":"On or near Theatre/concert Hall"},"longitude":"-0.125874"},"context":"","outcome_status":null,"persistent_id":"","id":89848070,"location_subtype":"","month":"2021-01"},{"category":"anti-social-behaviour","location_type":"Force","location":{"latitude":"51.507657","street":{"id":956660,"name":"On or near Cockspur Street"},"longitude":"-0.129890"},"context":"","outcome_status":null,"persistent_id":"","id":89848133,"location_subtype":"","month":"2021-01"},{"category":"anti-social-behaviour","location_type":"Force","location":{"latitude":"51.496095","street":{"id":953268,"name":"On or near Rochester Row"},"longitude":"-0.135088"},"context":"","outcome_status":null,"persistent_id":"","id":89865696,"location_subtype":"","month":"2021-01"},{"category":"anti-social-behaviour","location_type":"Force","location":{"latitude":"51.505179","street":{"id":956283,"name":"On or near Hatfields"},"longitude":"-0.106547"},"context":"","outcome_status":null,"persistent_id":"","id":89871455,"location_subtype":"","month":"2021-01"},{"category":"anti-social-behaviour","location_type":"Force","location":{"latitude":"51.503784","street":{"id":953715,"name":"On or near Union Street"},"longitude":"-0.098147"},"context":"","outcome_status":null,"persistent_id":"","id":89871524,"location_subtype":"","month":"2021-01"},{"category":"anti-social-behaviour","location_type":"Force","location":{"latitude":"51.500039","street":{"id":953471,"name":"On or near Webber Row"},"longitude":"-0.107365"},"context":"","outcome_status":null,"persistent_id":"","id":89872609,"location_subtype":"","month":"2021-01"},{"category":"anti-social-behaviour","location_type":"Force","location":{"latitude":"51.495030","street":{"id":953455,"name":"On or near Brook Drive"},"longitude":"-0.109604"},"context":"","outcome_status":null,"persistent_id":"","id":89872617,"location_subtype":"","month":"2021-01"},{"category":"anti-social-behaviour","location_type":"Force","location":{"latitude":"51.506340","street":{"id":956280,"name":"On or near Paris Garden"},"longitude":"-0.106110"},"context":"","outcome_status":null,"persistent_id":"","id":89872594,"location_subtype":"","month":"2021-01"},{"category":"anti-social-behaviour","location_type":"Force","location":{"latitude":"51.506340","street":{"id":956280,"name":"On or near Paris Garden"},"longitude":"-0.106110"},"context":"","outcome_status":null,"persistent_id":"","id":89872593,"location_subtype":"","month":"2021-01"},{"category":"anti-social-behaviour","location_type":"Force","location":{"latitude":"51.499219","street":{"id":953755,"name":"On or near Further/higher Educational Building"},"longitude":"-0.104474"},"context":"","outcome_status":null,"persistent_id":"","id":89872585,"location_subtype":"","month":"2021-01"},{"category":"anti-social-behaviour","location_type":"Force","location":{"latitude":"51.499219","street":{"id":953755,"name":"On or near Further/higher Educational Building"},"longitude":"-0.104474"},"context":"","outcome_status":null,"persistent_id":"","id":89872584,"location_subtype":"","month":"2021-01"},{"category":"anti-social-behaviour","location_type":"Force","location":{"latitude":"51.499219","street":{"id":953755,"name":"On or near Further/higher Educational Building"},"longitude":"-0.104474"},"context":"","outcome_status":null,"persistent_id":"","id":89872583,"location_subtype":"","month":"2021-01"},{"category":"anti-social-behaviour","location_type":"Force","location":{"latitude":"51.494405","street":{"id":953568,"name":"On or near Orient Street"},"longitude":"-0.105409"},"context":"","outcome_status":null,"persistent_id":"","id":89872586,"location_subtype":"","month":"2021-01"},{"category":"anti-social-behaviour","location_type":"Force","location":{"latitude":"51.498685","street":{"id":923901,"name":"On or near Royal Street"},"longitude":"-0.115994"},"context":"","outcome_status":null,"persistent_id":"","id":89845628,"location_subtype":"","month":"2021-01"},{"category":"anti-social-behaviour","location_type":"Force","location":{"latitude":"51.498328","street":{"id":953294,"name":"On or near Abbey Orchard Street"},"longitude":"-0.131338"},"context":"","outcome_status":null,"persistent_id":"","id":89846334,"location_subtype":"","month":"2021-01"},{"category":"anti-social-behaviour","location_type":"Force","location":{"latitude":"51.499219","street":{"id":953755,"name":"On or near Further/higher Educational Building"},"longitude":"-0.104474"},"context":"","outcome_status":null,"persistent_id":"","id":89872579,"location_subtype":"","month":"2021-01"},{"category":"anti-social-behaviour","location_type":"Force","location":{"latitude":"51.505595","street":{"id":956136,"name":"On or near Bear Lane"},"longitude":"-0.102250"},"context":"","outcome_status":null,"persistent_id":"","id":89871572,"location_subtype":"","month":"2021-01"},{"category":"anti-social-behaviour","location_type":"Force","location":{"latitude":"51.500320","street":{"id":953723,"name":"On or near Silex Street"},"longitude":"-0.101922"},"context":"","outcome_status":null,"persistent_id":"","id":89871557,"location_subtype":"","month":"2021-01"},{"category":"anti-social-behaviour","location_type":"Force","location":{"latitude":"51.501309","street":{"id":953509,"name":"On or near Addington Street"},"longitude":"-0.116419"},"context":"","outcome_status":null,"persistent_id":"","id":89867982,"location_subtype":"","month":"2021-01"},{"category":"anti-social-behaviour","location_type":"Force","location":{"latitude":"51.501299","street":{"id":953478,"name":"On or near Tanswell Street"},"longitude":"-0.111333"},"context":"","outcome_status":null,"persistent_id":"","id":89875117,"location_subtype":"","month":"2021-01"},{"category":"anti-social-behaviour","location_type":"Force","location":{"latitude":"51.500961","street":{"id":953500,"name":"On or near Coral Street"},"longitude":"-0.109330"},"context":"","outcome_status":null,"persistent_id":"","id":89875041,"location_subtype":"","month":"2021-01"},{"category":"anti-social-behaviour","location_type":"Force","location":{"latitude":"51.505921","street":{"id":956288,"name":"On or near Aquinas Street"},"longitude":"-0.109067"},"context":"","outcome_status":null,"persistent_id":"","id":89875017,"location_subtype":"","month":"2021-01"},{"category":"anti-social-behaviour","location_type":"Force","location":{"latitude":"51.514046","street":{"id":956529,"name":"On or near Charing Cross Road"},"longitude":"-0.129599"},"context":"","outcome_status":null,"persistent_id":"","id":89848127,"location_subtype":"","month":"2021-01"},{"category":"anti-social-behaviour","location_type":"Force","location":{"latitude":"51.507657","street":{"id":956660,"name":"On or near Cockspur Street"},"longitude":"-0.129890"},"context":"","outcome_status":null,"persistent_id":"","id":89848128,"location_subtype":"","month":"2021-01"},{"category":"anti-social-behaviour","location_type":"Force","location":{"latitude":"51.507657","street":{"id":956660,"name":"On or near Cockspur Street"},"longitude":"-0.129890"},"context":"","outcome_status":null,"persistent_id":"","id":89848129,"location_subtype":"","month":"2021-01"},{"category":"anti-social-behaviour","location_type":"Force","location":{"latitude":"51.510006","street":{"id":956472,"name":"On or near Piccadilly Circus"},"longitude":"-0.135054"},"context":"","outcome_status":null,"persistent_id":"","id":89865702,"location_subtype":"","month":"2021-01"},{"category":"anti-social-behaviour","location_type":"Force","location":{"latitude":"51.491806","street":{"id":949470,"name":"On or near Salamanca Place"},"longitude":"-0.120498"},"context":"","outcome_status":null,"persistent_id":"","id":89864945,"location_subtype":"","month":"2021-01"},{"category":"anti-social-behaviour","location_type":"Force","location":{"latitude":"51.497580","street":{"id":953456,"name":"On or near Police Station"},"longitude":"-0.111573"},"context":"","outcome_status":null,"persistent_id":"","id":89864494,"location_subtype":"","month":"2021-01"},{"category":"anti-social-behaviour","location_type":"Force","location":{"latitude":"51.494871","street":{"id":953566,"name":"On or near Pratt Walk"},"longitude":"-0.117058"},"context":"","outcome_status":null,"persistent_id":"","id":89863538,"location_subtype":"","month":"2021-01"},{"category":"anti-social-behaviour","location_type":"Force","location":{"latitude":"51.494871","street":{"id":953566,"name":"On or near Pratt Walk"},"longitude":"-0.117058"},"context":"","outcome_status":null,"persistent_id":"","id":89863539,"location_subtype":"","month":"2021-01"},{"category":"anti-social-behaviour","location_type":"Force","location":{"latitude":"51.504735","street":{"id":953459,"name":"On or near Pedestrian Subway"},"longitude":"-0.114188"},"context":"","outcome_status":null,"persistent_id":"","id":89845605,"location_subtype":"","month":"2021-01"},{"category":"anti-social-behaviour","location_type":"Force","location":{"latitude":"51.498328","street":{"id":953294,"name":"On or near Abbey Orchard Street"},"longitude":"-0.131338"},"context":"","outcome_status":null,"persistent_id":"","id":89846318,"location_subtype":"","month":"2021-01"},{"category":"anti-social-behaviour","location_type":"Force","location":{"latitude":"51.514007","street":{"id":956581,"name":"On or near Nightclub"},"longitude":"-0.131085"},"context":"","outcome_status":null,"persistent_id":"","id":89846323,"location_subtype":"","month":"2021-01"},{"category":"anti-social-behaviour","location_type":"Force","location":{"latitude":"51.513487","street":{"id":956487,"name":"On or near Mercer Street"},"longitude":"-0.126639"},"context":"","outcome_status":null,"persistent_id":"","id":89848332,"location_subtype":"","month":"2021-01"},{"category":"anti-social-behaviour","location_type":"Force","location":{"latitude":"51.515681","street":{"id":956454,"name":"On or near St Giles High Street"},"longitude":"-0.128884"},"context":"","outcome_status":null,"persistent_id":"","id":89849932,"location_subtype":"","month":"2021-01"},{"category":"anti-social-behaviour","location_type":"Force","location":{"latitude":"51.501309","street":{"id":953509,"name":"On or near Addington Street"},"longitude":"-0.116419"},"context":"","outcome_status":null,"persistent_id":"","id":89852392,"location_subtype":"","month":"2021-01"},{"category":"anti-social-behaviour","location_type":"Force","location":{"latitude":"51.501309","street":{"id":953509,"name":"On or near Addington Street"},"longitude":"-0.116419"},"context":"","outcome_status":null,"persistent_id":"","id":89852404,"location_subtype":"","month":"2021-01"},{"category":"anti-social-behaviour","location_type":"Force","location":{"latitude":"51.507377","street":{"id":956289,"name":"On or near A301"},"longitude":"-0.115750"},"context":"","outcome_status":null,"persistent_id":"","id":89852431,"location_subtype":"","month":"2021-01"},{"category":"anti-social-behaviour","location_type":"Force","location":{"latitude":"51.507377","street":{"id":956289,"name":"On or near A301"},"longitude":"-0.115750"},"context":"","outcome_status":null,"persistent_id":"","id":89852433,"location_subtype":"","month":"2021-01"},{"category":"anti-social-behaviour","location_type":"Force","location":{"latitude":"51.513145","street":{"id":956499,"name":"On or near Hopkins Street"},"longitude":"-0.135098"},"context":"","outcome_status":null,"persistent_id":"","id":89863214,"location_subtype":"","month":"2021-01"},{"category":"anti-social-behaviour","location_type":"Force","location":{"latitude":"51.494972","street":{"id":953418,"name":"On or near Greencoat Place"},"longitude":"-0.136849"},"context":"","outcome_status":null,"persistent_id":"","id":89863242,"location_subtype":"","month":"2021-01"},{"category":"anti-social-behaviour","location_type":"Force","location":{"latitude":"51.493401","street":{"id":953582,"name":"On or near Castlebrook Close"},"longitude":"-0.105594"},"context":"","outcome_status":null,"persistent_id":"","id":89863465,"location_subtype":"","month":"2021-01"},{"category":"anti-social-behaviour","location_type":"Force","location":{"latitude":"51.493401","street":{"id":953582,"name":"On or near Castlebrook Close"},"longitude":"-0.105594"},"context":"","outcome_status":null,"persistent_id":"","id":89863466,"location_subtype":"","month":"2021-01"},{"category":"anti-social-behaviour","location_type":"Force","location":{"latitude":"51.508862","street":{"id":956589,"name":"On or near Sports/recreation Area"},"longitude":"-0.136657"},"context":"","outcome_status":null,"persistent_id":"","id":89863245,"location_subtype":"","month":"2021-01"},{"category":"anti-social-behaviour","location_type":"Force","location":{"latitude":"51.510441","street":{"id":956510,"name":"On or near Glasshouse Street"},"longitude":"-0.136405"},"context":"","outcome_status":null,"persistent_id":"","id":89863246,"location_subtype":"","month":"2021-01"},{"category":"anti-social-behaviour","location_type":"Force","location":{"latitude":"51.494661","street":{"id":953422,"name":"On or near Coburg Close"},"longitude":"-0.137668"},"context":"","outcome_status":null,"persistent_id":"","id":89863247,"location_subtype":"","month":"2021-01"},{"category":"anti-social-behaviour","location_type":"Force","location":{"latitude":"51.494661","street":{"id":953422,"name":"On or near Coburg Close"},"longitude":"-0.137668"},"context":"","outcome_status":null,"persistent_id":"","id":89863248,"location_subtype":"","month":"2021-01"},{"category":"anti-social-behaviour","location_type":"Force","location":{"latitude":"51.501997","street":{"id":953479,"name":"On or near Spur Road"},"longitude":"-0.111693"},"context":"","outcome_status":null,"persistent_id":"","id":89864973,"location_subtype":"","month":"2021-01"},{"category":"anti-social-behaviour","location_type":"Force","location":{"latitude":"51.501997","street":{"id":953479,"name":"On or near Spur Road"},"longitude":"-0.111693"},"context":"","outcome_status":null,"persistent_id":"","id":89864974,"location_subtype":"","month":"2021-01"},{"category":"anti-social-behaviour","location_type":"Force","location":{"latitude":"51.511624","street":{"id":956541,"name":"On or near Archer Street"},"longitude":"-0.133878"},"context":"","outcome_status":null,"persistent_id":"","id":89865692,"location_subtype":"","month":"2021-01"},{"category":"anti-social-behaviour","location_type":"Force","location":{"latitude":"51.511624","street":{"id":956541,"name":"On or near Archer Street"},"longitude":"-0.133878"},"context":"","outcome_status":null,"persistent_id":"","id":89865693,"location_subtype":"","month":"2021-01"},{"category":"anti-social-behaviour","location_type":"Force","location":{"latitude":"51.511238","street":{"id":956559,"name":"On or near Theatre/concert Hall"},"longitude":"-0.133922"},"context":"","outcome_status":null,"persistent_id":"","id":89865694,"location_subtype":"","month":"2021-01"},{"category":"anti-social-behaviour","location_type":"Force","location":{"latitude":"51.496540","street":{"id":953300,"name":"On or near Police Station"},"longitude":"-0.135402"},"context":"","outcome_status":null,"persistent_id":"","id":89865700,"location_subtype":"","month":"2021-01"},{"category":"anti-social-behaviour","location_type":"Force","location":{"latitude":"51.508581","street":{"id":956540,"name":"On or near Babmaes Street"},"longitude":"-0.134838"},"context":"","outcome_status":null,"persistent_id":"","id":89865701,"location_subtype":"","month":"2021-01"},{"category":"anti-social-behaviour","location_type":"Force","location":{"latitude":"51.500483","street":{"id":953469,"name":"On or near Westminster Bridge Road"},"longitude":"-0.115372"},"context":"","outcome_status":null,"persistent_id":"","id":89867954,"location_subtype":"","month":"2021-01"},{"category":"anti-social-behaviour","location_type":"Force","location":{"latitude":"51.499661","street":{"id":953721,"name":"On or near Stones End Street"},"longitude":"-0.096791"},"context":"","outcome_status":null,"persistent_id":"","id":89870314,"location_subtype":"","month":"2021-01"},{"category":"anti-social-behaviour","location_type":"Force","location":{"latitude":"51.500894","street":{"id":953717,"name":"On or near Toulmin Street"},"longitude":"-0.096855"},"context":"","outcome_status":null,"persistent_id":"","id":89871421,"location_subtype":"","month":"2021-01"},{"category":"anti-social-behaviour","location_type":"Force","location":{"latitude":"51.500894","street":{"id":953717,"name":"On or near Toulmin Street"},"longitude":"-0.096855"},"context":"","outcome_status":null,"persistent_id":"","id":89871422,"location_subtype":"","month":"2021-01"},{"category":"anti-social-behaviour","location_type":"Force","location":{"latitude":"51.500894","street":{"id":953717,"name":"On or near Toulmin Street"},"longitude":"-0.096855"},"context":"","outcome_status":null,"persistent_id":"","id":89871418,"location_subtype":"","month":"2021-01"},{"category":"anti-social-behaviour","location_type":"Force","location":{"latitude":"51.500894","street":{"id":953717,"name":"On or near Toulmin Street"},"longitude":"-0.096855"},"context":"","outcome_status":null,"persistent_id":"","id":89871420,"location_subtype":"","month":"2021-01"},{"category":"anti-social-behaviour","location_type":"Force","location":{"latitude":"51.500894","street":{"id":953717,"name":"On or near Toulmin Street"},"longitude":"-0.096855"},"context":"","outcome_status":null,"persistent_id":"","id":89871423,"location_subtype":"","month":"2021-01"},{"category":"anti-social-behaviour","location_type":"Force","location":{"latitude":"51.500439","street":{"id":953746,"name":"On or near Collinson Street"},"longitude":"-0.098747"},"context":"","outcome_status":null,"persistent_id":"","id":89871432,"location_subtype":"","month":"2021-01"},{"category":"anti-social-behaviour","location_type":"Force","location":{"latitude":"51.505203","street":{"id":956126,"name":"On or near Southwark Street"},