[{"category":"anti-social-behaviour","location_type":"Force","location":{"latitude":"51.513664","street":{"id":956513,"name":"On or near Frith Street"},"longitude":"-0.131575"},"context":"","outcome_status":null,"persistent_id":"","id":87459384,"location_subtype":"","month":"2020-10"},{"category":"anti-social-behaviour","location_type":"Force","location":{"latitude":"51.513664","street":{"id":956513,"name":"On or near Frith Street"},"longitude":"-0.131575"},"context":"","outcome_status":null,"persistent_id":"","id":87459388,"location_subtype":"","month":"2020-10"},{"category":"anti-social-behaviour","location_type":"Force","location":{"latitude":"51.508123","street":{"id":956670,"name":"On or near Theatre/concert Hall"},"longitude":"-0.132032"},"context":"","outcome_status":null,"persistent_id":"","id":87459390,"location_subtype":"","month":"2020-10"},{"category":"anti-social-behaviour","location_type":"Force","location":{"latitude":"51.506064","street":{"id":956135,"name":"On or near Burrell Street"},"longitude":"-0.103470"},"context":"","outcome_status":null,"persistent_id":"","id":87448070,"location_subtype":"","month":"2020-10"},{"category":"anti-social-behaviour","location_type":"Force","location":{"latitude":"51.511790","street":{"id":956461,"name":"On or near Shaftesbury Avenue"},"longitude":"-0.132473"},"context":"","outcome_status":null,"persistent_id":"","id":87459400,"location_subtype":"","month":"2020-10"},{"category":"anti-social-behaviour","location_type":"Force","location":{"latitude":"51.500804","street":{"id":953713,"name":"On or near Webber Street"},"longitude":"-0.102968"},"context":"","outcome_status":null,"persistent_id":"","id":87448072,"location_subtype":"","month":"2020-10"},{"category":"anti-social-behaviour","location_type":"Force","location":{"latitude":"51.499219","street":{"id":953755,"name":"On or near Further/higher Educational Building"},"longitude":"-0.104474"},"context":"","outcome_status":null,"persistent_id":"","id":87448073,"location_subtype":"","month":"2020-10"},{"category":"anti-social-behaviour","location_type":"Force","location":{"latitude":"51.499219","street":{"id":953755,"name":"On or near Further/higher Educational Building"},"longitude":"-0.104474"},"context":"","outcome_status":null,"persistent_id":"","id":87448074,"location_subtype":"","month":"2020-10"},{"category":"anti-social-behaviour","location_type":"Force","location":{"latitude":"51.502173","street":{"id":953506,"name":"On or near Boundary Row"},"longitude":"-0.105331"},"context":"","outcome_status":null,"persistent_id":"","id":87448077,"location_subtype":"","month":"2020-10"},{"category":"anti-social-behaviour","location_type":"Force","location":{"latitude":"51.502173","street":{"id":953506,"name":"On or near Boundary Row"},"longitude":"-0.105331"},"context":"","outcome_status":null,"persistent_id":"","id":87448078,"location_subtype":"","month":"2020-10"},{"category":"anti-social-behaviour","location_type":"Force","location":{"latitude":"51.499219","street":{"id":953755,"name":"On or near Further/higher Educational Building"},"longitude":"-0.104474"},"context":"","outcome_status":null,"persistent_id":"","id":87448079,"location_subtype":"","month":"2020-10"},{"category":"anti-social-behaviour","location_type":"Force","location":{"latitude":"51.499219","street":{"id":953755,"name":"On or near Further/higher Educational Building"},"longitude":"-0.104474"},"context":"","outcome_status":null,"persistent_id":"","id":87448080,"location_subtype":"","month":"2020-10"},{"category":"anti-social-behaviour","location_type":"Force","location":{"latitude":"51.499219","street":{"id":953755,"name":"On or near Further/higher Educational Building"},"longitude":"-0.104474"},"context":"","outcome_status":null,"persistent_id":"","id":87448081,"location_subtype":"","month":"2020-10"},{"category":"anti-social-behaviour","location_type":"Force","location":{"latitude":"51.503510","street":{"id":953749,"name":"On or near Blackfriars Road"},"longitude":"-0.104584"},"context":"","outcome_status":null,"persistent_id":"","id":87448082,"location_subtype":"","month":"2020-10"},{"category":"anti-social-behaviour","location_type":"Force","location":{"latitude":"51.506064","street":{"id":956135,"name":"On or near Burrell Street"},"longitude":"-0.103470"},"context":"","outcome_status":null,"persistent_id":"","id":87448083,"location_subtype":"","month":"2020-10"},{"category":"anti-social-behaviour","location_type":"Force","location":{"latitude":"51.509848","street":{"id":587368,"name":"On or near A201"},"longitude":"-0.104494"},"context":"","outcome_status":null,"persistent_id":"","id":87448084,"location_subtype":"","month":"2020-10"},{"category":"anti-social-behaviour","location_type":"Force","location":{"latitude":"51.505797","street":{"id":956285,"name":"On or near Colombo Street"},"longitude":"-0.105311"},"context":"","outcome_status":null,"persistent_id":"","id":87448093,"location_subtype":"","month":"2020-10"},{"category":"anti-social-behaviour","location_type":"Force","location":{"latitude":"51.493927","street":{"id":953583,"name":"On or near Brook Drive"},"longitude":"-0.106451"},"context":"","outcome_status":null,"persistent_id":"","id":87448094,"location_subtype":"","month":"2020-10"},{"category":"anti-social-behaviour","location_type":"Force","location":{"latitude":"51.503350","street":{"id":953517,"name":"On or near Further/higher Educational Building"},"longitude":"-0.105830"},"context":"","outcome_status":null,"persistent_id":"","id":87448099,"location_subtype":"","month":"2020-10"},{"category":"anti-social-behaviour","location_type":"Force","location":{"latitude":"51.503350","street":{"id":953517,"name":"On or near Further/higher Educational Building"},"longitude":"-0.105830"},"context":"","outcome_status":null,"persistent_id":"","id":87448100,"location_subtype":"","month":"2020-10"},{"category":"anti-social-behaviour","location_type":"Force","location":{"latitude":"51.503350","street":{"id":953517,"name":"On or near Further/higher Educational Building"},"longitude":"-0.105830"},"context":"","outcome_status":null,"persistent_id":"","id":87448101,"location_subtype":"","month":"2020-10"},{"category":"anti-social-behaviour","location_type":"Force","location":{"latitude":"51.516586","street":{"id":956237,"name":"On or near Newton Street"},"longitude":"-0.121395"},"context":"","outcome_status":null,"persistent_id":"","id":87458340,"location_subtype":"","month":"2020-10"},{"category":"anti-social-behaviour","location_type":"Force","location":{"latitude":"51.516586","street":{"id":956237,"name":"On or near Newton Street"},"longitude":"-0.121395"},"context":"","outcome_status":null,"persistent_id":"","id":87458343,"location_subtype":"","month":"2020-10"},{"category":"anti-social-behaviour","location_type":"Force","location":{"latitude":"51.516586","street":{"id":956237,"name":"On or near Newton Street"},"longitude":"-0.121395"},"context":"","outcome_status":null,"persistent_id":"","id":87458345,"location_subtype":"","month":"2020-10"},{"category":"anti-social-behaviour","location_type":"Force","location":{"latitude":"51.516586","street":{"id":956237,"name":"On or near Newton Street"},"longitude":"-0.121395"},"context":"","outcome_status":null,"persistent_id":"","id":87458347,"location_subtype":"","month":"2020-10"},{"category":"anti-social-behaviour","location_type":"Force","location":{"latitude":"51.516586","street":{"id":956237,"name":"On or near Newton Street"},"longitude":"-0.121395"},"context":"","outcome_status":null,"persistent_id":"","id":87458348,"location_subtype":"","month":"2020-10"},{"category":"anti-social-behaviour","location_type":"Force","location":{"latitude":"51.516586","street":{"id":956237,"name":"On or near Newton Street"},"longitude":"-0.121395"},"context":"","outcome_status":null,"persistent_id":"","id":87458351,"location_subtype":"","month":"2020-10"},{"category":"anti-social-behaviour","location_type":"Force","location":{"latitude":"51.516586","street":{"id":956237,"name":"On or near Newton Street"},"longitude":"-0.121395"},"context":"","outcome_status":null,"persistent_id":"","id":87458353,"location_subtype":"","month":"2020-10"},{"category":"anti-social-behaviour","location_type":"Force","location":{"latitude":"51.492264","street":{"id":953408,"name":"On or near Regency Street"},"longitude":"-0.132277"},"context":"","outcome_status":null,"persistent_id":"","id":87459362,"location_subtype":"","month":"2020-10"},{"category":"anti-social-behaviour","location_type":"Force","location":{"latitude":"51.516586","street":{"id":956237,"name":"On or near Newton Street"},"longitude":"-0.121395"},"context":"","outcome_status":null,"persistent_id":"","id":87458355,"location_subtype":"","month":"2020-10"},{"category":"anti-social-behaviour","location_type":"Force","location":{"latitude":"51.516586","street":{"id":956237,"name":"On or near Newton Street"},"longitude":"-0.121395"},"context":"","outcome_status":null,"persistent_id":"","id":87458357,"location_subtype":"","month":"2020-10"},{"category":"anti-social-behaviour","location_type":"Force","location":{"latitude":"51.515712","street":{"id":956256,"name":"On or near New Square"},"longitude":"-0.113994"},"context":"","outcome_status":null,"persistent_id":"","id":87458209,"location_subtype":"","month":"2020-10"},{"category":"anti-social-behaviour","location_type":"Force","location":{"latitude":"51.516036","street":{"id":956168,"name":"On or near Macklin Street"},"longitude":"-0.122412"},"context":"","outcome_status":null,"persistent_id":"","id":87458479,"location_subtype":"","month":"2020-10"},{"category":"anti-social-behaviour","location_type":"Force","location":{"latitude":"51.515412","street":{"id":956190,"name":"On or near Drury Lane"},"longitude":"-0.123317"},"context":"","outcome_status":null,"persistent_id":"","id":87458490,"location_subtype":"","month":"2020-10"},{"category":"anti-social-behaviour","location_type":"Force","location":{"latitude":"51.515412","street":{"id":956190,"name":"On or near Drury Lane"},"longitude":"-0.123317"},"context":"","outcome_status":null,"persistent_id":"","id":87458500,"location_subtype":"","month":"2020-10"},{"category":"anti-social-behaviour","location_type":"Force","location":{"latitude":"51.514963","street":{"id":956196,"name":"On or near Betterton Street"},"longitude":"-0.123912"},"context":"","outcome_status":null,"persistent_id":"","id":87458506,"location_subtype":"","month":"2020-10"},{"category":"anti-social-behaviour","location_type":"Force","location":{"latitude":"51.497928","street":{"id":953295,"name":"On or near Conference/exhibition Centre"},"longitude":"-0.129366"},"context":"","outcome_status":null,"persistent_id":"","id":87459256,"location_subtype":"","month":"2020-10"},{"category":"anti-social-behaviour","location_type":"Force","location":{"latitude":"51.516523","street":{"id":956236,"name":"On or near Remnant Street"},"longitude":"-0.119135"},"context":"","outcome_status":null,"persistent_id":"","id":87458298,"location_subtype":"","month":"2020-10"},{"category":"anti-social-behaviour","location_type":"Force","location":{"latitude":"51.517041","street":{"id":956243,"name":"On or near Gate Street"},"longitude":"-0.118955"},"context":"","outcome_status":null,"persistent_id":"","id":87458306,"location_subtype":"","month":"2020-10"},{"category":"anti-social-behaviour","location_type":"Force","location":{"latitude":"51.516586","street":{"id":956237,"name":"On or near Newton Street"},"longitude":"-0.121395"},"context":"","outcome_status":null,"persistent_id":"","id":87458334,"location_subtype":"","month":"2020-10"},{"category":"anti-social-behaviour","location_type":"Force","location":{"latitude":"51.516586","street":{"id":956237,"name":"On or near Newton Street"},"longitude":"-0.121395"},"context":"","outcome_status":null,"persistent_id":"","id":87458336,"location_subtype":"","month":"2020-10"},{"category":"anti-social-behaviour","location_type":"Force","location":{"latitude":"51.516586","street":{"id":956237,"name":"On or near Newton Street"},"longitude":"-0.121395"},"context":"","outcome_status":null,"persistent_id":"","id":87458338,"location_subtype":"","month":"2020-10"},{"category":"anti-social-behaviour","location_type":"Force","location":{"latitude":"51.516586","street":{"id":956237,"name":"On or near Newton Street"},"longitude":"-0.121395"},"context":"","outcome_status":null,"persistent_id":"","id":87458363,"location_subtype":"","month":"2020-10"},{"category":"anti-social-behaviour","location_type":"Force","location":{"latitude":"51.516586","street":{"id":956237,"name":"On or near Newton Street"},"longitude":"-0.121395"},"context":"","outcome_status":null,"persistent_id":"","id":87458365,"location_subtype":"","month":"2020-10"},{"category":"anti-social-behaviour","location_type":"Force","location":{"latitude":"51.515678","street":{"id":956181,"name":"On or near Great Queen Street"},"longitude":"-0.120841"},"context":"","outcome_status":null,"persistent_id":"","id":87458382,"location_subtype":"","month":"2020-10"},{"category":"anti-social-behaviour","location_type":"Force","location":{"latitude":"51.516586","street":{"id":956237,"name":"On or near Newton Street"},"longitude":"-0.121395"},"context":"","outcome_status":null,"persistent_id":"","id":87458386,"location_subtype":"","month":"2020-10"},{"category":"anti-social-behaviour","location_type":"Force","location":{"latitude":"51.516586","street":{"id":956237,"name":"On or near Newton Street"},"longitude":"-0.121395"},"context":"","outcome_status":null,"persistent_id":"","id":87458388,"location_subtype":"","month":"2020-10"},{"category":"anti-social-behaviour","location_type":"Force","location":{"latitude":"51.515957","street":{"id":956164,"name":"On or near Parker Street"},"longitude":"-0.121421"},"context":"","outcome_status":null,"persistent_id":"","id":87458390,"location_subtype":"","month":"2020-10"},{"category":"anti-social-behaviour","location_type":"Force","location":{"latitude":"51.516586","street":{"id":956237,"name":"On or near Newton Street"},"longitude":"-0.121395"},"context":"","outcome_status":null,"persistent_id":"","id":87458375,"location_subtype":"","month":"2020-10"},{"category":"anti-social-behaviour","location_type":"Force","location":{"latitude":"51.516586","street":{"id":956237,"name":"On or near Newton Street"},"longitude":"-0.121395"},"context":"","outcome_status":null,"persistent_id":"","id":87458377,"location_subtype":"","month":"2020-10"},{"category":"anti-social-behaviour","location_type":"Force","location":{"latitude":"51.512591","street":{"id":956603,"name":"On or near Further/higher Educational Building"},"longitude":"-0.128578"},"context":"","outcome_status":null,"persistent_id":"","id":87459221,"location_subtype":"","month":"2020-10"},{"category":"anti-social-behaviour","location_type":"Force","location":{"latitude":"51.516586","street":{"id":956237,"name":"On or near Newton Street"},"longitude":"-0.121395"},"context":"","outcome_status":null,"persistent_id":"","id":87458378,"location_subtype":"","month":"2020-10"},{"category":"anti-social-behaviour","location_type":"Force","location":{"latitude":"51.515678","street":{"id":956181,"name":"On or near Great Queen Street"},"longitude":"-0.120841"},"context":"","outcome_status":null,"persistent_id":"","id":87458380,"location_subtype":"","month":"2020-10"},{"category":"anti-social-behaviour","location_type":"Force","location":{"latitude":"51.516586","street":{"id":956237,"name":"On or near Newton Street"},"longitude":"-0.121395"},"context":"","outcome_status":null,"persistent_id":"","id":87458367,"location_subtype":"","month":"2020-10"},{"category":"anti-social-behaviour","location_type":"Force","location":{"latitude":"51.516586","street":{"id":956237,"name":"On or near Newton Street"},"longitude":"-0.121395"},"context":"","outcome_status":null,"persistent_id":"","id":87458373,"location_subtype":"","month":"2020-10"},{"category":"anti-social-behaviour","location_type":"Force","location":{"latitude":"51.509091","street":{"id":956139,"name":"On or near Parking Area"},"longitude":"-0.122251"},"context":"","outcome_status":null,"persistent_id":"","id":87455167,"location_subtype":"","month":"2020-10"},{"category":"anti-social-behaviour","location_type":"Force","location":{"latitude":"51.507133","street":{"id":956297,"name":"On or near Victoria Embankment"},"longitude":"-0.121813"},"context":"","outcome_status":null,"persistent_id":"","id":87455168,"location_subtype":"","month":"2020-10"},{"category":"anti-social-behaviour","location_type":"Force","location":{"latitude":"51.500844","street":{"id":953528,"name":"On or near Westminster Bridge Road"},"longitude":"-0.122777"},"context":"","outcome_status":null,"persistent_id":"","id":87455169,"location_subtype":"","month":"2020-10"},{"category":"anti-social-behaviour","location_type":"Force","location":{"latitude":"51.500844","street":{"id":953528,"name":"On or near Westminster Bridge Road"},"longitude":"-0.122777"},"context":"","outcome_status":null,"persistent_id":"","id":87455170,"location_subtype":"","month":"2020-10"},{"category":"anti-social-behaviour","location_type":"Force","location":{"latitude":"51.500844","street":{"id":953528,"name":"On or near Westminster Bridge Road"},"longitude":"-0.122777"},"context":"","outcome_status":null,"persistent_id":"","id":87455171,"location_subtype":"","month":"2020-10"},{"category":"anti-social-behaviour","location_type":"Force","location":{"latitude":"51.512287","street":{"id":956215,"name":"On or near Nightclub"},"longitude":"-0.123590"},"context":"","outcome_status":null,"persistent_id":"","id":87455177,"location_subtype":"","month":"2020-10"},{"category":"anti-social-behaviour","location_type":"Force","location":{"latitude":"51.507980","street":{"id":956296,"name":"On or near Villiers Street"},"longitude":"-0.123651"},"context":"","outcome_status":null,"persistent_id":"","id":87455178,"location_subtype":"","month":"2020-10"},{"category":"anti-social-behaviour","location_type":"Force","location":{"latitude":"51.511457","street":{"id":956191,"name":"On or near Covent Garden"},"longitude":"-0.122889"},"context":"","outcome_status":null,"persistent_id":"","id":87455172,"location_subtype":"","month":"2020-10"},{"category":"anti-social-behaviour","location_type":"Force","location":{"latitude":"51.507980","street":{"id":956296,"name":"On or near Villiers Street"},"longitude":"-0.123651"},"context":"","outcome_status":null,"persistent_id":"","id":87455180,"location_subtype":"","month":"2020-10"},{"category":"anti-social-behaviour","location_type":"Force","location":{"latitude":"51.509787","street":{"id":956556,"name":"On or near Nightclub"},"longitude":"-0.129240"},"context":"","outcome_status":null,"persistent_id":"","id":87459249,"location_subtype":"","month":"2020-10"},{"category":"anti-social-behaviour","location_type":"Force","location":{"latitude":"51.508708","street":{"id":956144,"name":"On or near York Buildings"},"longitude":"-0.123074"},"context":"","outcome_status":null,"persistent_id":"","id":87455174,"location_subtype":"","month":"2020-10"},{"category":"anti-social-behaviour","location_type":"Force","location":{"latitude":"51.507657","street":{"id":956660,"name":"On or near Cockspur Street"},"longitude":"-0.129890"},"context":"","outcome_status":null,"persistent_id":"","id":87459245,"location_subtype":"","month":"2020-10"},{"category":"anti-social-behaviour","location_type":"Force","location":{"latitude":"51.508708","street":{"id":956144,"name":"On or near York Buildings"},"longitude":"-0.123074"},"context":"","outcome_status":null,"persistent_id":"","id":87455175,"location_subtype":"","month":"2020-10"},{"category":"anti-social-behaviour","location_type":"Force","location":{"latitude":"51.508446","street":{"id":956194,"name":"On or near Buckingham Street"},"longitude":"-0.123531"},"context":"","outcome_status":null,"persistent_id":"","id":87455176,"location_subtype":"","month":"2020-10"},{"category":"anti-social-behaviour","location_type":"Force","location":{"latitude":"51.513683","street":{"id":956260,"name":"On or near Fleet Street"},"longitude":"-0.111974"},"context":"","outcome_status":null,"persistent_id":"","id":87455125,"location_subtype":"","month":"2020-10"},{"category":"anti-social-behaviour","location_type":"Force","location":{"latitude":"51.513683","street":{"id":956260,"name":"On or near Fleet Street"},"longitude":"-0.111974"},"context":"","outcome_status":null,"persistent_id":"","id":87455126,"location_subtype":"","month":"2020-10"},{"category":"anti-social-behaviour","location_type":"Force","location":{"latitude":"51.512532","street":{"id":956259,"name":"On or near Little Essex Street"},"longitude":"-0.113088"},"context":"","outcome_status":null,"persistent_id":"","id":87455127,"location_subtype":"","month":"2020-10"},{"category":"anti-social-behaviour","location_type":"Force","location":{"latitude":"51.512532","street":{"id":956259,"name":"On or near Little Essex Street"},"longitude":"-0.113088"},"context":"","outcome_status":null,"persistent_id":"","id":87455128,"location_subtype":"","month":"2020-10"},{"category":"anti-social-behaviour","location_type":"Force","location":{"latitude":"51.512532","street":{"id":956259,"name":"On or near Little Essex Street"},"longitude":"-0.113088"},"context":"","outcome_status":null,"persistent_id":"","id":87455129,"location_subtype":"","month":"2020-10"},{"category":"anti-social-behaviour","location_type":"Force","location":{"latitude":"51.512953","street":{"id":956253,"name":"On or near Strand"},"longitude":"-0.114670"},"context":"","outcome_status":null,"persistent_id":"","id":87455130,"location_subtype":"","month":"2020-10"},{"category":"anti-social-behaviour","location_type":"Force","location":{"latitude":"51.512953","street":{"id":956253,"name":"On or near Strand"},"longitude":"-0.114670"},"context":"","outcome_status":null,"persistent_id":"","id":87455131,"location_subtype":"","month":"2020-10"},{"category":"anti-social-behaviour","location_type":"Force","location":{"latitude":"51.512063","street":{"id":956266,"name":"On or near Arundel Street"},"longitude":"-0.114130"},"context":"","outcome_status":null,"persistent_id":"","id":87455132,"location_subtype":"","month":"2020-10"},{"category":"anti-social-behaviour","location_type":"Force","location":{"latitude":"51.514710","street":{"id":956262,"name":"On or near Carey Street"},"longitude":"-0.114900"},"context":"","outcome_status":null,"persistent_id":"","id":87455134,"location_subtype":"","month":"2020-10"},{"category":"anti-social-behaviour","location_type":"Force","location":{"latitude":"51.513489","street":{"id":956179,"name":"On or near Houghton Street"},"longitude":"-0.116709"},"context":"","outcome_status":null,"persistent_id":"","id":87455135,"location_subtype":"","month":"2020-10"},{"category":"anti-social-behaviour","location_type":"Force","location":{"latitude":"51.509232","street":{"id":956205,"name":"On or near A301"},"longitude":"-0.117576"},"context":"","outcome_status":null,"persistent_id":"","id":87455136,"location_subtype":"","month":"2020-10"},{"category":"anti-social-behaviour","location_type":"Force","location":{"latitude":"51.513101","street":{"id":956201,"name":"On or near Aldwych"},"longitude":"-0.117719"},"context":"","outcome_status":null,"persistent_id":"","id":87455137,"location_subtype":"","month":"2020-10"},{"category":"anti-social-behaviour","location_type":"Force","location":{"latitude":"51.513101","street":{"id":956201,"name":"On or near Aldwych"},"longitude":"-0.117719"},"context":"","outcome_status":null,"persistent_id":"","id":87455138,"location_subtype":"","month":"2020-10"},{"category":"anti-social-behaviour","location_type":"Force","location":{"latitude":"51.510570","street":{"id":956171,"name":"On or near Lancaster Place"},"longitude":"-0.118559"},"context":"","outcome_status":null,"persistent_id":"","id":87455139,"location_subtype":"","month":"2020-10"},{"category":"anti-social-behaviour","location_type":"Force","location":{"latitude":"51.507657","street":{"id":956660,"name":"On or near Cockspur Street"},"longitude":"-0.129890"},"context":"","outcome_status":null,"persistent_id":"","id":87459239,"location_subtype":"","month":"2020-10"},{"category":"anti-social-behaviour","location_type":"Force","location":{"latitude":"51.513828","street":{"id":956176,"name":"On or near Kean Street"},"longitude":"-0.118741"},"context":"","outcome_status":null,"persistent_id":"","id":87455140,"location_subtype":"","month":"2020-10"},{"category":"anti-social-behaviour","location_type":"Force","location":{"latitude":"51.513828","street":{"id":956176,"name":"On or near Kean Street"},"longitude":"-0.118741"},"context":"","outcome_status":null,"persistent_id":"","id":87455141,"location_subtype":"","month":"2020-10"},{"category":"anti-social-behaviour","location_type":"Force","location":{"latitude":"51.513828","street":{"id":956176,"name":"On or near Kean Street"},"longitude":"-0.118741"},"context":"","outcome_status":null,"persistent_id":"","id":87455142,"location_subtype":"","month":"2020-10"},{"category":"anti-social-behaviour","location_type":"Force","location":{"latitude":"51.516586","street":{"id":956237,"name":"On or near Newton Street"},"longitude":"-0.121395"},"context":"","outcome_status":null,"persistent_id":"","id":87458371,"location_subtype":"","month":"2020-10"},{"category":"anti-social-behaviour","location_type":"Force","location":{"latitude":"51.513828","street":{"id":956176,"name":"On or near Kean Street"},"longitude":"-0.118741"},"context":"","outcome_status":null,"persistent_id":"","id":87455143,"location_subtype":"","month":"2020-10"},{"category":"anti-social-behaviour","location_type":"Force","location":{"latitude":"51.513828","street":{"id":956176,"name":"On or near Kean Street"},"longitude":"-0.118741"},"context":"","outcome_status":null,"persistent_id":"","id":87455144,"location_subtype":"","month":"2020-10"},{"category":"anti-social-behaviour","location_type":"Force","location":{"latitude":"51.511914","street":{"id":956211,"name":"On or near Theatre/concert Hall"},"longitude":"-0.119425"},"context":"","outcome_status":null,"persistent_id":"","id":87455145,"location_subtype":"","month":"2020-10"},{"category":"anti-social-behaviour","location_type":"Force","location":{"latitude":"51.511914","street":{"id":956211,"name":"On or near Theatre/concert Hall"},"longitude":"-0.119425"},"context":"","outcome_status":null,"persistent_id":"","id":87455146,"location_subtype":"","month":"2020-10"},{"category":"anti-social-behaviour","location_type":"Force","location":{"latitude":"51.509040","street":{"id":956206,"name":"On or near Ferry Terminal"},"longitude":"-0.119616"},"context":"","outcome_status":null,"persistent_id":"","id":87455147,"location_subtype":"","month":"2020-10"},{"category":"anti-social-behaviour","location_type":"Force","location":{"latitude":"51.509040","street":{"id":956206,"name":"On or near Ferry Terminal"},"longitude":"-0.119616"},"context":"","outcome_status":null,"persistent_id":"","id":87455148,"location_subtype":"","month":"2020-10"},{"category":"anti-social-behaviour","location_type":"Force","location":{"latitude":"51.511315","street":{"id":956213,"name":"On or near Conference/exhibition Centre"},"longitude":"-0.118528"},"context":"","outcome_status":null,"persistent_id":"","id":87455149,"location_subtype":"","month":"2020-10"},{"category":"anti-social-behaviour","location_type":"Force","location":{"latitude":"51.511315","street":{"id":956213,"name":"On or near Conference/exhibition Centre"},"longitude":"-0.118528"},"context":"","outcome_status":null,"persistent_id":"","id":87455150,"location_subtype":"","month":"2020-10"},{"category":"anti-social-behaviour","location_type":"Force","location":{"latitude":"51.510761","street":{"id":956157,"name":"On or near Savoy Row"},"longitude":"-0.119833"},"context":"","outcome_status":null,"persistent_id":"","id":87455152,"location_subtype":"","month":"2020-10"},{"category":"anti-social-behaviour","location_type":"Force","location":{"latitude":"51.516036","street":{"id":956168,"name":"On or near Macklin Street"},"longitude":"-0.122412"},"context":"","outcome_status":null,"persistent_id":"","id":87458477,"location_subtype":"","month":"2020-10"},{"category":"anti-social-behaviour","location_type":"Force","location":{"latitude":"51.512998","street":{"id":956208,"name":"On or near Theatre/concert Hall"},"longitude":"-0.120260"},"context":"","outcome_status":null,"persistent_id":"","id":87455153,"location_subtype":"","month":"2020-10"},{"category":"anti-social-behaviour","location_type":"Force","location":{"latitude":"51.503350","street":{"id":953517,"name":"On or near Further/higher Educational Building"},"longitude":"-0.105830"},"context":"","outcome_status":null,"persistent_id":"","id":87448098,"location_subtype":"","month":"2020-10"},{"category":"anti-social-behaviour","location_type":"Force","location":{"latitude":"51.514290","street":{"id":956175,"name":"On or near Kemble Street"},"longitude":"-0.119501"},"context":"","outcome_status":null,"persistent_id":"","id":87455154,"location_subtype":"","month":"2020-10"},{"category":"anti-social-behaviour","location_type":"Force","location":{"latitude":"51.513734","street":{"id":956189,"name":"On or near Drury Lane"},"longitude":"-0.120158"},"context":"","outcome_status":null,"persistent_id":"","id":87455155,"location_subtype":"","month":"2020-10"},{"category":"anti-social-behaviour","location_type":"Force","location":{"latitude":"51.495905","street":{"id":953353,"name":"On or near Ambrosden Avenue"},"longitude":"-0.139015"},"context":"","outcome_status":null,"persistent_id":"","id":87450783,"location_subtype":"","month":"2020-10"},{"category":"anti-social-behaviour","location_type":"Force","location":{"latitude":"51.510586","street":{"id":956372,"name":"On or near Shopping Area"},"longitude":"-0.138748"},"context":"","outcome_status":null,"persistent_id":"","id":87450778,"location_subtype":"","month":"2020-10"},{"category":"anti-social-behaviour","location_type":"Force","location":{"latitude":"51.513734","street":{"id":956189,"name":"On or near Drury Lane"},"longitude":"-0.120158"},"context":"","outcome_status":null,"persistent_id":"","id":87455156,"location_subtype":"","month":"2020-10"},{"category":"anti-social-behaviour","location_type":"Force","location":{"latitude":"51.513734","street":{"id":956189,"name":"On or near Drury Lane"},"longitude":"-0.120158"},"context":"","outcome_status":null,"persistent_id":"","id":87455157,"location_subtype":"","month":"2020-10"},{"category":"anti-social-behaviour","location_type":"Force","location":{"latitude":"51.513734","street":{"id":956189,"name":"On or near Drury Lane"},"longitude":"-0.120158"},"context":"","outcome_status":null,"persistent_id":"","id":87455158,"location_subtype":"","month":"2020-10"},{"category":"anti-social-behaviour","location_type":"Force","location":{"latitude":"51.513734","street":{"id":956189,"name":"On or near Drury Lane"},"longitude":"-0.120158"},"context":"","outcome_status":null,"persistent_id":"","id":87455159,"location_subtype":"","month":"2020-10"},{"category":"anti-social-behaviour","location_type":"Force","location":{"latitude":"51.514639","street":{"id":956146,"name":"On or near Wild Street"},"longitude":"-0.120567"},"context":"","outcome_status":null,"persistent_id":"","id":87455160,"location_subtype":"","month":"2020-10"},{"category":"anti-social-behaviour","location_type":"Force","location":{"latitude":"51.504031","street":{"id":953461,"name":"On or near Pedestrian Subway"},"longitude":"-0.114001"},"context":"","outcome_status":null,"persistent_id":"","id":87450429,"location_subtype":"","month":"2020-10"},{"category":"anti-social-behaviour","location_type":"Force","location":{"latitude":"51.514639","street":{"id":956146,"name":"On or near Wild Street"},"longitude":"-0.120567"},"context":"","outcome_status":null,"persistent_id":"","id":87455161,"location_subtype":"","month":"2020-10"},{"category":"anti-social-behaviour","location_type":"Force","location":{"latitude":"51.514639","street":{"id":956146,"name":"On or near Wild Street"},"longitude":"-0.120567"},"context":"","outcome_status":null,"persistent_id":"","id":87455162,"location_subtype":"","month":"2020-10"},{"category":"anti-social-behaviour","location_type":"Force","location":{"latitude":"51.514639","street":{"id":956146,"name":"On or near Wild Street"},"longitude":"-0.120567"},"context":"","outcome_status":null,"persistent_id":"","id":87455163,"location_subtype":"","month":"2020-10"},{"category":"anti-social-behaviour","location_type":"Force","location":{"latitude":"51.514639","street":{"id":956146,"name":"On or near Wild Street"},"longitude":"-0.120567"},"context":"","outcome_status":null,"persistent_id":"","id":87455164,"location_subtype":"","month":"2020-10"},{"category":"anti-social-behaviour","location_type":"Force","location":{"latitude":"51.513734","street":{"id":956189,"name":"On or near Drury Lane"},"longitude":"-0.120158"},"context":"","outcome_status":null,"persistent_id":"","id":87455165,"location_subtype":"","month":"2020-10"},{"category":"anti-social-behaviour","location_type":"Force","location":{"latitude":"51.507133","street":{"id":956297,"name":"On or near Victoria Embankment"},"longitude":"-0.121813"},"context":"","outcome_status":null,"persistent_id":"","id":87455166,"location_subtype":"","month":"2020-10"},{"category":"anti-social-behaviour","location_type":"Force","location":{"latitude":"51.507980","street":{"id":956296,"name":"On or near Villiers Street"},"longitude":"-0.123651"},"context":"","outcome_status":null,"persistent_id":"","id":87455181,"location_subtype":"","month":"2020-10"},{"category":"anti-social-behaviour","location_type":"Force","location":{"latitude":"51.513283","street":{"id":956222,"name":"On or near Theatre/concert Hall"},"longitude":"-0.123448"},"context":"","outcome_status":null,"persistent_id":"","id":87455182,"location_subtype":"","month":"2020-10"},{"category":"anti-social-behaviour","location_type":"Force","location":{"latitude":"51.511067","street":{"id":956180,"name":"On or near Henrietta Street"},"longitude":"-0.123798"},"context":"","outcome_status":null,"persistent_id":"","id":87455183,"location_subtype":"","month":"2020-10"},{"category":"anti-social-behaviour","location_type":"Force","location":{"latitude":"51.506956","street":{"id":956304,"name":"On or near Theatre/concert Hall"},"longitude":"-0.123708"},"context":"","outcome_status":null,"persistent_id":"","id":87455184,"location_subtype":"","month":"2020-10"},{"category":"anti-social-behaviour","location_type":"Force","location":{"latitude":"51.513100","street":{"id":956169,"name":"On or near Long Acre"},"longitude":"-0.124406"},"context":"","outcome_status":null,"persistent_id":"","id":87455185,"location_subtype":"","month":"2020-10"},{"category":"anti-social-behaviour","location_type":"Force","location":{"latitude":"51.513100","street":{"id":956169,"name":"On or near Long Acre"},"longitude":"-0.124406"},"context":"","outcome_status":null,"persistent_id":"","id":87455186,"location_subtype":"","month":"2020-10"},{"category":"anti-social-behaviour","location_type":"Force","location":{"latitude":"51.513100","street":{"id":956169,"name":"On or near Long Acre"},"longitude":"-0.124406"},"context":"","outcome_status":null,"persistent_id":"","id":87455187,"location_subtype":"","month":"2020-10"},{"category":"anti-social-behaviour","location_type":"Force","location":{"latitude":"51.513100","street":{"id":956169,"name":"On or near Long Acre"},"longitude":"-0.124406"},"context":"","outcome_status":null,"persistent_id":"","id":87455188,"location_subtype":"","month":"2020-10"},{"category":"anti-social-behaviour","location_type":"Force","location":{"latitude":"51.494015","street":{"id":953558,"name":"On or near Walnut Tree Walk"},"longitude":"-0.112469"},"context":"","outcome_status":null,"persistent_id":"","id":87450371,"location_subtype":"","month":"2020-10"},{"category":"anti-social-behaviour","location_type":"Force","location":{"latitude":"51.510490","street":{"id":956198,"name":"On or near Bedford Street"},"longitude":"-0.124254"},"context":"","outcome_status":null,"persistent_id":"","id":87455189,"location_subtype":"","month":"2020-10"},{"category":"anti-social-behaviour","location_type":"Force","location":{"latitude":"51.499946","street":{"id":953497,"name":"On or near Frazier Street"},"longitude":"-0.109962"},"context":"","outcome_status":null,"persistent_id":"","id":87450263,"location_subtype":"","month":"2020-10"},{"category":"anti-social-behaviour","location_type":"Force","location":{"latitude":"51.510490","street":{"id":956198,"name":"On or near Bedford Street"},"longitude":"-0.124254"},"context":"","outcome_status":null,"persistent_id":"","id":87455190,"location_subtype":"","month":"2020-10"},{"category":"anti-social-behaviour","location_type":"Force","location":{"latitude":"51.510490","street":{"id":956198,"name":"On or near Bedford Street"},"longitude":"-0.124254"},"context":"","outcome_status":null,"persistent_id":"","id":87455191,"location_subtype":"","month":"2020-10"},{"category":"anti-social-behaviour","location_type":"Force","location":{"latitude":"51.510490","street":{"id":956198,"name":"On or near Bedford Street"},"longitude":"-0.124254"},"context":"","outcome_status":null,"persistent_id":"","id":87455192,"location_subtype":"","month":"2020-10"},{"category":"anti-social-behaviour","location_type":"Force","location":{"latitude":"51.500969","street":{"id":953533,"name":"On or near Bridge Street"},"longitude":"-0.124933"},"context":"","outcome_status":null,"persistent_id":"","id":87455193,"location_subtype":"","month":"2020-10"},{"category":"anti-social-behaviour","location_type":"Force","location":{"latitude":"51.512165","street":{"id":956143,"name":"On or near Shopping Area"},"longitude":"-0.123825"},"context":"","outcome_status":null,"persistent_id":"","id":87455194,"location_subtype":"","month":"2020-10"},{"category":"anti-social-behaviour","location_type":"Force","location":{"latitude":"51.490842","street":{"id":949562,"name":"On or near Petrol Station"},"longitude":"-0.111448"},"context":"","outcome_status":null,"persistent_id":"","id":87450330,"location_subtype":"","month":"2020-10"},{"category":"anti-social-behaviour","location_type":"Force","location":{"latitude":"51.500969","street":{"id":953533,"name":"On or near Bridge Street"},"longitude":"-0.124933"},"context":"","outcome_status":null,"persistent_id":"","id":87455195,"location_subtype":"","month":"2020-10"},{"category":"anti-social-behaviour","location_type":"Force","location":{"latitude":"51.500969","street":{"id":953533,"name":"On or near Bridge Street"},"longitude":"-0.124933"},"context":"","outcome_status":null,"persistent_id":"","id":87455196,"location_subtype":"","month":"2020-10"},{"category":"anti-social-behaviour","location_type":"Force","location":{"latitude":"51.500969","street":{"id":953533,"name":"On or near Bridge Street"},"longitude":"-0.124933"},"context":"","outcome_status":null,"persistent_id":"","id":87455197,"location_subtype":"","month":"2020-10"},{"category":"anti-social-behaviour","location_type":"Force","location":{"latitude":"51.500969","street":{"id":953533,"name":"On or near Bridge Street"},"longitude":"-0.124933"},"context":"","outcome_status":null,"persistent_id":"","id":87455198,"location_subtype":"","month":"2020-10"},{"category":"anti-social-behaviour","location_type":"Force","location":{"latitude":"51.500969","street":{"id":953533,"name":"On or near Bridge Street"},"longitude":"-0.124933"},"context":"","outcome_status":null,"persistent_id":"","id":87455199,"location_subtype":"","month":"2020-10"},{"category":"anti-social-behaviour","location_type":"Force","location":{"latitude":"51.500969","street":{"id":953533,"name":"On or near Bridge Street"},"longitude":"-0.124933"},"context":"","outcome_status":null,"persistent_id":"","id":87455200,"location_subtype":"","month":"2020-10"},{"category":"anti-social-behaviour","location_type":"Force","location":{"latitude":"51.500969","street":{"id":953533,"name":"On or near Bridge Street"},"longitude":"-0.124933"},"context":"","outcome_status":null,"persistent_id":"","id":87455201,"location_subtype":"","month":"2020-10"},{"category":"anti-social-behaviour","location_type":"Force","location":{"latitude":"51.512505","street":{"id":956183,"name":"On or near Floral Street"},"longitude":"-0.124316"},"context":"","outcome_status":null,"persistent_id":"","id":87455202,"location_subtype":"","month":"2020-10"},{"category":"anti-social-behaviour","location_type":"Force","location":{"latitude":"51.501992","street":{"id":953531,"name":"On or near Derby Gate"},"longitude":"-0.125381"},"context":"","outcome_status":null,"persistent_id":"","id":87455203,"location_subtype":"","month":"2020-10"},{"category":"anti-social-behaviour","location_type":"Force","location":{"latitude":"51.506095","street":{"id":956294,"name":"On or near Whitehall Place"},"longitude":"-0.124997"},"context":"","outcome_status":null,"persistent_id":"","id":87455204,"location_subtype":"","month":"2020-10"},{"category":"anti-social-behaviour","location_type":"Force","location":{"latitude":"51.508577","street":{"id":956212,"name":"On or near Nightclub"},"longitude":"-0.124419"},"context":"","outcome_status":null,"persistent_id":"","id":87455205,"location_subtype":"","month":"2020-10"},{"category":"anti-social-behaviour","location_type":"Force","location":{"latitude":"51.508577","street":{"id":956212,"name":"On or near Nightclub"},"longitude":"-0.124419"},"context":"","outcome_status":null,"persistent_id":"","id":87455206,"location_subtype":"","month":"2020-10"},{"category":"anti-social-behaviour","location_type":"Force","location":{"latitude":"51.509991","street":{"id":956192,"name":"On or near Chandos Place"},"longitude":"-0.125096"},"context":"","outcome_status":null,"persistent_id":"","id":87455207,"location_subtype":"","month":"2020-10"},{"category":"anti-social-behaviour","location_type":"Force","location":{"latitude":"51.495756","street":{"id":953445,"name":"On or near Kennington Road"},"longitude":"-0.111115"},"context":"","outcome_status":null,"persistent_id":"","id":87450323,"location_subtype":"","month":"2020-10"},{"category":"anti-social-behaviour","location_type":"Force","location":{"latitude":"51.498266","street":{"id":953524,"name":"On or near Abingdon Street"},"longitude":"-0.125750"},"context":"","outcome_status":null,"persistent_id":"","id":87455208,"location_subtype":"","month":"2020-10"},{"category":"anti-social-behaviour","location_type":"Force","location":{"latitude":"51.498266","street":{"id":953524,"name":"On or near Abingdon Street"},"longitude":"-0.125750"},"context":"","outcome_status":null,"persistent_id":"","id":87455209,"location_subtype":"","month":"2020-10"},{"category":"anti-social-behaviour","location_type":"Force","location":{"latitude":"51.503196","street":{"id":953311,"name":"On or near Downing Street"},"longitude":"-0.127032"},"context":"","outcome_status":null,"persistent_id":"","id":87455210,"location_subtype":"","month":"2020-10"},{"category":"anti-social-behaviour","location_type":"Force","location":{"latitude":"51.503196","street":{"id":953311,"name":"On or near Downing Street"},"longitude":"-0.127032"},"context":"","outcome_status":null,"persistent_id":"","id":87455211,"location_subtype":"","month":"2020-10"},{"category":"anti-social-behaviour","location_type":"Force","location":{"latitude":"51.503196","street":{"id":953311,"name":"On or near Downing Street"},"longitude":"-0.127032"},"context":"","outcome_status":null,"persistent_id":"","id":87455212,"location_subtype":"","month":"2020-10"},{"category":"anti-social-behaviour","location_type":"Force","location":{"latitude":"51.498436","street":{"id":953432,"name":"On or near Westminster Bridge Road"},"longitude":"-0.111105"},"context":"","outcome_status":null,"persistent_id":"","id":87450312,"location_subtype":"","month":"2020-10"},{"category":"anti-social-behaviour","location_type":"Force","location":{"latitude":"51.503196","street":{"id":953311,"name":"On or near Downing Street"},"longitude":"-0.127032"},"context":"","outcome_status":null,"persistent_id":"","id":87455213,"location_subtype":"","month":"2020-10"},{"category":"anti-social-behaviour","location_type":"Force","location":{"latitude":"51.503196","street":{"id":953311,"name":"On or near Downing Street"},"longitude":"-0.127032"},"context":"","outcome_status":null,"persistent_id":"","id":87455214,"location_subtype":"","month":"2020-10"},{"category":"anti-social-behaviour","location_type":"Force","location":{"latitude":"51.493239","street":{"id":953414,"name":"On or near John Islip Street"},"longitude":"-0.127411"},"context":"","outcome_status":null,"persistent_id":"","id":87455215,"location_subtype":"","month":"2020-10"},{"category":"anti-social-behaviour","location_type":"Force","location":{"latitude":"51.509312","street":{"id":956203,"name":"On or near Adelaide Street"},"longitude":"-0.125931"},"context":"","outcome_status":null,"persistent_id":"","id":87455216,"location_subtype":"","month":"2020-10"},{"category":"anti-social-behaviour","location_type":"Force","location":{"latitude":"51.509312","street":{"id":956203,"name":"On or near Adelaide Street"},"longitude":"-0.125931"},"context":"","outcome_status":null,"persistent_id":"","id":87455217,"location_subtype":"","month":"2020-10"},{"category":"anti-social-behaviour","location_type":"Force","location":{"latitude":"51.509312","street":{"id":956203,"name":"On or near Adelaide Street"},"longitude":"-0.125931"},"context":"","outcome_status":null,"persistent_id":"","id":87455218,"location_subtype":"","month":"2020-10"},{"category":"anti-social-behaviour","location_type":"Force","location":{"latitude":"51.508592","street":{"id":956519,"name":"On or near Duncannon Street"},"longitude":"-0.126479"},"context":"","outcome_status":null,"persistent_id":"","id":87455219,"location_subtype":"","month":"2020-10"},{"category":"anti-social-behaviour","location_type":"Force","location":{"latitude":"51.508592","street":{"id":956519,"name":"On or near Duncannon Street"},"longitude":"-0.126479"},"context":"","outcome_status":null,"persistent_id":"","id":87455220,"location_subtype":"","month":"2020-10"},{"category":"anti-social-behaviour","location_type":"Force","location":{"latitude":"51.508592","street":{"id":956519,"name":"On or near Duncannon Street"},"longitude":"-0.126479"},"context":"","outcome_status":null,"persistent_id":"","id":87455222,"location_subtype":"","month":"2020-10"},{"category":"anti-social-behaviour","location_type":"Force","location":{"latitude":"51.508592","street":{"id":956519,"name":"On or near Duncannon Street"},"longitude":"-0.126479"},"context":"","outcome_status":null,"persistent_id":"","id":87455223,"location_subtype":"","month":"2020-10"},{"category":"anti-social-behaviour","location_type":"Force","location":{"latitude":"51.508592","street":{"id":956519,"name":"On or near Duncannon Street"},"longitude":"-0.126479"},"context":"","outcome_status":null,"persistent_id":"","id":87455224,"location_subtype":"","month":"2020-10"},{"category":"anti-social-behaviour","location_type":"Force","location":{"latitude":"51.507473","street":{"id":956299,"name":"On or near Northumberland Street"},"longitude":"-0.125675"},"context":"","outcome_status":null,"persistent_id":"","id":87455225,"location_subtype":"","month":"2020-10"},{"category":"anti-social-behaviour","location_type":"Force","location":{"latitude":"51.495273","street":{"id":953421,"name":"On or near Dean Bradley Street"},"longitude":"-0.126954"},"context":"","outcome_status":null,"persistent_id":"","id":87455226,"location_subtype":"","month":"2020-10"},{"category":"anti-social-behaviour","location_type":"Force","location":{"latitude":"51.496091","street":{"id":953296,"name":"On or near Sports/recreation Area"},"longitude":"-0.126963"},"context":"","outcome_status":null,"persistent_id":"","id":87455227,"location_subtype":"","month":"2020-10"},{"category":"anti-social-behaviour","location_type":"Force","location":{"latitude":"51.496091","street":{"id":953296,"name":"On or near Sports/recreation Area"},"longitude":"-0.126963"},"context":"","outcome_status":null,"persistent_id":"","id":87455228,"location_subtype":"","month":"2020-10"},{"category":"anti-social-behaviour","location_type":"Force","location":{"latitude":"51.507473","street":{"id":956299,"name":"On or near Northumberland Street"},"longitude":"-0.125675"},"context":"","outcome_status":null,"persistent_id":"","id":87455229,"location_subtype":"","month":"2020-10"},{"category":"anti-social-behaviour","location_type":"Force","location":{"latitude":"51.496931","street":{"id":953293,"name":"On or near Artillery Row"},"longitude":"-0.135631"},"context":"","outcome_status":null,"persistent_id":"","id":87449399,"location_subtype":"","month":"2020-10"},{"category":"anti-social-behaviour","location_type":"Force","location":{"latitude":"51.507473","street":{"id":956299,"name":"On or near Northumberland Street"},"longitude":"-0.125675"},"context":"","outcome_status":null,"persistent_id":"","id":87455230,"location_subtype":"","month":"2020-10"},{"category":"anti-social-behaviour","location_type":"Force","location":{"latitude":"51.507473","street":{"id":956299,"name":"On or near Northumberland Street"},"longitude":"-0.125675"},"context":"","outcome_status":null,"persistent_id":"","id":87455231,"location_subtype":"","month":"2020-10"},{"category":"anti-social-behaviour","location_type":"Force","location":{"latitude":"51.507473","street":{"id":956299,"name":"On or near Northumberland Street"},"longitude":"-0.125675"},"context":"","outcome_status":null,"persistent_id":"","id":87455232,"location_subtype":"","month":"2020-10"},{"category":"anti-social-behaviour","location_type":"Force","location":{"latitude":"51.511748","street":{"id":956551,"name":"On or near Theatre/concert Hall"},"longitude":"-0.125874"},"context":"","outcome_status":null,"persistent_id":"","id":87455233,"location_subtype":"","month":"2020-10"},{"category":"anti-social-behaviour","location_type":"Force","location":{"latitude":"51.498734","street":{"id":953301,"name":"On or near Police Station"},"longitude":"-0.133122"},"context":"","outcome_status":null,"persistent_id":"","id":87449378,"location_subtype":"","month":"2020-10"},{"category":"anti-social-behaviour","location_type":"Force","location":{"latitude":"51.514295","street":{"id":956531,"name":"On or near Chapone Place"},"longitude":"-0.132789"},"context":"","outcome_status":null,"persistent_id":"","id":87449353,"location_subtype":"","month":"2020-10"},{"category":"anti-social-behaviour","location_type":"Force","location":{"latitude":"51.511748","street":{"id":956551,"name":"On or near Theatre/concert Hall"},"longitude":"-0.125874"},"context":"","outcome_status":null,"persistent_id":"","id":87455234,"location_subtype":"","month":"2020-10"},{"category":"anti-social-behaviour","location_type":"Force","location":{"latitude":"51.509902","street":{"id":956586,"name":"On or near Theatre/concert Hall"},"longitude":"-0.126310"},"context":"","outcome_status":null,"persistent_id":"","id":87455235,"location_subtype":"","month":"2020-10"},{"category":"anti-social-behaviour","location_type":"Force","location":{"latitude":"51.509902","street":{"id":956586,"name":"On or near Theatre/concert Hall"},"longitude":"-0.126310"},"context":"","outcome_status":null,"persistent_id":"","id":87455236,"location_subtype":"","month":"2020-10"},{"category":"anti-social-behaviour","location_type":"Force","location":{"latitude":"51.509902","street":{"id":956586,"name":"On or near Theatre/concert Hall"},"longitude":"-0.126310"},"context":"","outcome_status":null,"persistent_id":"","id":87455237,"location_subtype":"","month":"2020-10"},{"category":"anti-social-behaviour","location_type":"Force","location":{"latitude":"51.509902","street":{"id":956586,"name":"On or near Theatre/concert Hall"},"longitude":"-0.126310"},"context":"","outcome_status":null,"persistent_id":"","id":87455238,"location_subtype":"","month":"2020-10"},{"category":"anti-social-behaviour","location_type":"Force","location":{"latitude":"51.509902","street":{"id":956586,"name":"On or near Theatre/concert Hall"},"longitude":"-0.126310"},"context":"","outcome_status":null,"persistent_id":"","id":87455239,"location_subtype":"","month":"2020-10"},{"category":"anti-social-behaviour","location_type":"Force","location":{"latitude":"51.501992","street":{"id":953531,"name":"On or near Derby Gate"},"longitude":"-0.125381"},"context":"","outcome_status":null,"persistent_id":"","id":87442944,"location_subtype":"","month":"2020-10"},{"category":"anti-social-behaviour","location_type":"Force","location":{"latitude":"51.514976","street":{"id":956185,"name":"On or near Endell Street"},"longitude":"-0.125309"},"context":"","outcome_status":null,"persistent_id":"","id":87444715,"location_subtype":"","month":"2020-10"},{"category":"anti-social-behaviour","location_type":"Force","location":{"latitude":"51.509902","street":{"id":956586,"name":"On or near Theatre/concert Hall"},"longitude":"-0.126310"},"context":"","outcome_status":null,"persistent_id":"","id":87455240,"location_subtype":"","month":"2020-10"},{"category":"anti-social-behaviour","location_type":"Force","location":{"latitude":"51.507473","street":{"id":956299,"name":"On or near Northumberland Street"},"longitude":"-0.125675"},"context":"","outcome_status":null,"persistent_id":"","id":87455241,"location_subtype":"","month":"2020-10"},{"category":"anti-social-behaviour","location_type":"Force","location":{"latitude":"51.496091","street":{"id":953296,"name":"On or near Sports/recreation Area"},"longitude":"-0.126963"},"context":"","outcome_status":null,"persistent_id":"","id":87455242,"location_subtype":"","month":"2020-10"},{"category":"anti-social-behaviour","location_type":"Force","location":{"latitude":"51.496706","street":{"id":953276,"name":"On or near Lord North Street"},"longitude":"-0.127154"},"context":"","outcome_status":null,"persistent_id":"","id":87455243,"location_subtype":"","month":"2020-10"},{"category":"anti-social-behaviour","location_type":"Force","location":{"latitude":"51.496706","street":{"id":953276,"name":"On or near Lord North Street"},"longitude":"-0.127154"},"context":"","outcome_status":null,"persistent_id":"","id":87455244,"location_subtype":"","month":"2020-10"},{"category":"anti-social-behaviour","location_type":"Force","location":{"latitude":"51.496706","street":{"id":953276,"name":"On or near Lord North Street"},"longitude":"-0.127154"},"context":"","outcome_status":null,"persistent_id":"","id":87455245,"location_subtype":"","month":"2020-10"},{"category":"anti-social-behaviour","location_type":"Force","location":{"latitude":"51.496706","street":{"id":953276,"name":"On or near Lord North Street"},"longitude":"-0.127154"},"context":"","outcome_status":null,"persistent_id":"","id":87455246,"location_subtype":"","month":"2020-10"},{"category":"anti-social-behaviour","location_type":"Force","location":{"latitude":"51.503196","street":{"id":953311,"name":"On or near Downing Street"},"longitude":"-0.127032"},"context":"","outcome_status":null,"persistent_id":"","id":87455247,"location_subtype":"","month":"2020-10"},{"category":"anti-social-behaviour","location_type":"Force","location":{"latitude":"51.503196","street":{"id":953311,"name":"On or near Downing Street"},"longitude":"-0.127032"},"context":"","outcome_status":null,"persistent_id":"","id":87455249,"location_subtype":"","month":"2020-10"},{"category":"anti-social-behaviour","location_type":"Force","location":{"latitude":"51.508592","street":{"id":956519,"name":"On or near Duncannon Street"},"longitude":"-0.126479"},"context":"","outcome_status":null,"persistent_id":"","id":87455250,"location_subtype":"","month":"2020-10"},{"category":"anti-social-behaviour","location_type":"Force","location":{"latitude":"51.490429","street":{"id":949731,"name":"On or near Further/higher Educational Building"},"longitude":"-0.128276"},"context":"","outcome_status":null,"persistent_id":"","id":87455251,"location_subtype":"","month":"2020-10"},{"category":"anti-social-behaviour","location_type":"Force","location":{"latitude":"51.510678","street":{"id":956451,"name":"On or near St Martin's Lane"},"longitude":"-0.126999"},"context":"","outcome_status":null,"persistent_id":"","id":87455252,"location_subtype":"","month":"2020-10"},{"category":"anti-social-behaviour","location_type":"Force","location":{"latitude":"51.514976","street":{"id":956185,"name":"On or near Endell Street"},"longitude":"-0.125309"},"context":"","outcome_status":null,"persistent_id":"","id":87444713,"location_subtype":"","month":"2020-10"},{"category":"anti-social-behaviour","location_type":"Force","location":{"latitude":"51.506712","street":{"id":956659,"name":"On or near Craig's Court"},"longitude":"-0.126974"},"context":"","outcome_status":null,"persistent_id":"","id":87455253,"location_subtype":"","month":"2020-10"},{"category":"anti-social-behaviour","location_type":"Force","location":{"latitude":"51.506712","street":{"id":956659,"name":"On or near Craig's Court"},"longitude":"-0.126974"},"context":"","outcome_status":null,"persistent_id":"","id":87455254,"location_subtype":"","month":"2020-10"},{"category":"anti-social-behaviour","location_type":"Force","location":{"latitude":"51.506623","street":{"id":956671,"name":"On or near Theatre/concert Hall"},"longitude":"-0.127655"},"context":"","outcome_status":null,"persistent_id":"","id":87455255,"location_subtype":"","month":"2020-10"},{"category":"anti-social-behaviour","location_type":"Force","location":{"latitude":"51.508592","street":{"id":956519,"name":"On or near Duncannon Street"},"longitude":"-0.126479"},"context":"","outcome_status":null,"persistent_id":"","id":87455256,"location_subtype":"","month":"2020-10"},{"category":"anti-social-behaviour","location_type":"Force","location":{"latitude":"51.508592","street":{"id":956519,"name":"On or near Duncannon Street"},"longitude":"-0.126479"},"context":"","outcome_status":null,"persistent_id":"","id":87455257,"location_subtype":"","month":"2020-10"},{"category":"anti-social-behaviour","location_type":"Force","location":{"latitude":"51.511143","street":{"id":956577,"name":"On or near Theatre/concert Hall"},"longitude":"-0.127427"},"context":"","outcome_status":null,"persistent_id":"","id":87455258,"location_subtype":"","month":"2020-10"},{"category":"anti-social-behaviour","location_type":"Force","location":{"latitude":"51.492669","street":{"id":953413,"name":"On or near Marsham Street"},"longitude":"-0.128919"},"context":"","outcome_status":null,"persistent_id":"","id":87455259,"location_subtype":"","month":"2020-10"},{"category":"anti-social-behaviour","location_type":"Force","location":{"latitude":"51.506623","street":{"id":956671,"name":"On or near Theatre/concert Hall"},"longitude":"-0.127655"},"context":"","outcome_status":null,"persistent_id":"","id":87455260,"location_subtype":"","month":"2020-10"},{"category":"anti-social-behaviour","location_type":"Force","location":{"latitude":"51.514500","street":{"id":956453,"name":"On or near St Giles Passage"},"longitude":"-0.128139"},"context":"","outcome_status":null,"persistent_id":"","id":87455262,"location_subtype":"","month":"2020-10"},{"category":"anti-social-behaviour","location_type":"Force","location":{"latitude":"51.507309","street":{"id":956645,"name":"On or near Pedestrian Subway"},"longitude":"-0.128348"},"context":"","outcome_status":null,"persistent_id":"","id":87455263,"location_subtype":"","month":"2020-10"},{"category":"anti-social-behaviour","location_type":"Force","location":{"latitude":"51.501207","street":{"id":953429,"name":"On or near Great George Street"},"longitude":"-0.128569"},"context":"","outcome_status":null,"persistent_id":"","id":87455264,"location_subtype":"","month":"2020-10"},{"category":"anti-social-behaviour","location_type":"Force","location":{"latitude":"51.501207","street":{"id":953429,"name":"On or near Great George Street"},"longitude":"-0.128569"},"context":"","outcome_status":null,"persistent_id":"","id":87455265,"location_subtype":"","month":"2020-10"},{"category":"anti-social-behaviour","location_type":"Force","location":{"latitude":"51.507309","street":{"id":956645,"name":"On or near Pedestrian Subway"},"longitude":"-0.128348"},"context":"","outcome_status":null,"persistent_id":"","id":87455267,"location_subtype":"","month":"2020-10"},{"category":"anti-social-behaviour","location_type":"Force","location":{"latitude":"51.507309","street":{"id":956645,"name":"On or near Pedestrian Subway"},"longitude":"-0.128348"},"context":"","outcome_status":null,"persistent_id":"","id":87455268,"location_subtype":"","month":"2020-10"},{"category":"anti-social-behaviour","location_type":"Force","location":{"latitude":"51.507309","street":{"id":956645,"name":"On or near Pedestrian Subway"},"longitude":"-0.128348"},"context":"","outcome_status":null,"persistent_id":"","id":87455269,"location_subtype":"","month":"2020-10"},{"category":"anti-social-behaviour","location_type":"Force","location":{"latitude":"51.507309","street":{"id":956645,"name":"On or near Pedestrian Subway"},"longitude":"-0.128348"},"context":"","outcome_status":null,"persistent_id":"","id":87455270,"location_subtype":"","month":"2020-10"},{"category":"anti-social-behaviour","location_type":"Force","location":{"latitude":"51.507309","street":{"id":956645,"name":"On or near Pedestrian Subway"},"longitude":"-0.128348"},"context":"","outcome_status":null,"persistent_id":"","id":87455271,"location_subtype":"","month":"2020-10"},{"category":"anti-social-behaviour","location_type":"Force","location":{"latitude":"51.501207","street":{"id":953429,"name":"On or near Great George Street"},"longitude":"-0.128569"},"context":"","outcome_status":null,"persistent_id":"","id":87455272,"location_subtype":"","month":"2020-10"},{"category":"anti-social-behaviour","location_type":"Force","location":{"latitude":"51.495646","street":{"id":953302,"name":"On or near Police Station"},"longitude":"-0.128926"},"context":"","outcome_status":null,"persistent_id":"","id":87455273,"location_subtype":"","month":"2020-10"},{"category":"anti-social-behaviour","location_type":"Force","location":{"latitude":"51.507309","street":{"id":956645,"name":"On or near Pedestrian Subway"},"longitude":"-0.128348"},"context":"","outcome_status":null,"persistent_id":"","id":87455274,"location_subtype":"","month":"2020-10"},{"category":"anti-social-behaviour","location_type":"Force","location":{"latitude":"51.507309","street":{"id":956645,"name":"On or near Pedestrian Subway"},"longitude":"-0.128348"},"context":"","outcome_status":null,"persistent_id":"","id":87455275,"location_subtype":"","month":"2020-10"},{"category":"anti-social-behaviour","location_type":"Force","location":{"latitude":"51.512191","street":{"id":956602,"name":"On or near Shopping Area"},"longitude":"-0.128839"},"context":"","outcome_status":null,"persistent_id":"","id":87455276,"location_subtype":"","month":"2020-10"},{"category":"anti-social-behaviour","location_type":"Force","location":{"latitude":"51.512191","street":{"id":956602,"name":"On or near Shopping Area"},"longitude":"-0.128839"},"context":"","outcome_status":null,"persistent_id":"","id":87455277,"location_subtype":"","month":"2020-10"},{"category":"anti-social-behaviour","location_type":"Force","location":{"latitude":"51.490543","street":{"id":949732,"name":"On or near Further/higher Educational Building"},"longitude":"-0.129236"},"context":"","outcome_status":null,"persistent_id":"","id":87455278,"location_subtype":"","month":"2020-10"},{"category":"anti-social-behaviour","location_type":"Force","location":{"latitude":"51.514976","street":{"id":956185,"name":"On or near Endell Street"},"longitude":"-0.125309"},"context":"","outcome_status":null,"persistent_id":"","id":87444712,"location_subtype":"","month":"2020-10"},{"category":"anti-social-behaviour","location_type":"Force","location":{"latitude":"51.514976","street":{"id":956185,"name":"On or near Endell Street"},"longitude":"-0.125309"},"context":"","outcome_status":null,"persistent_id":"","id":87444711,"location_subtype":"","month":"2020-10"},{"category":"anti-social-behaviour","location_type":"Force","location":{"latitude":"51.513664","street":{"id":956513,"name":"On or near Frith Street"},"longitude":"-0.131575"},"context":"","outcome_status":null,"persistent_id":"","id":87459375,"location_subtype":"","month":"2020-10"},{"category":"anti-social-behaviour","location_type":"Force","location":{"latitude":"51.513664","street":{"id":956513,"name":"On or near Frith Street"},"longitude":"-0.131575"},"context":"","outcome_status":null,"persistent_id":"","id":87459377,"location_subtype":"","month":"2020-10"},{"category":"anti-social-behaviour","location_type":"Force","location":{"latitude":"51.513664","street":{"id":956513,"name":"On or near Frith Street"},"longitude":"-0.131575"},"context":"","outcome_status":null,"persistent_id":"","id":87459379,"location_subtype":"","month":"2020-10"},{"category":"anti-social-behaviour","location_type":"Force","location":{"latitude":"51.513664","street":{"id":956513,"name":"On or near Frith Street"},"longitude":"-0.131575"},"context":"","outcome_status":null,"persistent_id":"","id":87459382,"location_subtype":"","month":"2020-10"},{"category":"anti-social-behaviour","location_type":"Force","location":{"latitude":"51.513664","street":{"id":956513,"name":"On or near Frith Street"},"longitude":"-0.131575"},"context":"","outcome_status":null,"persistent_id":"","id":87459386,"location_subtype":"","month":"2020-10"},{"category":"anti-social-behaviour","location_type":"Force","location":{"latitude":"51.495928","street":{"id":953689,"name":"On or near Pedestrian Subway"},"longitude":"-0.100073"},"context":"","outcome_status":null,"persistent_id":"","id":87447258,"location_subtype":"","month":"2020-10"},{"category":"anti-social-behaviour","location_type":"Force","location":{"latitude":"51.512191","street":{"id":956602,"name":"On or near Shopping Area"},"longitude":"-0.128839"},"context":"","outcome_status":null,"persistent_id":"","id":87459224,"location_subtype":"","month":"2020-10"},{"category":"anti-social-behaviour","location_type":"Force","location":{"latitude":"51.512191","street":{"id":956602,"name":"On or near Shopping Area"},"longitude":"-0.128839"},"context":"","outcome_status":null,"persistent_id":"","id":87459226,"location_subtype":"","month":"2020-10"},{"category":"anti-social-behaviour","location_type":"Force","location":{"latitude":"51.512191","street":{"id":956602,"name":"On or near Shopping Area"},"longitude":"-0.128839"},"context":"","outcome_status":null,"persistent_id":"","id":87459229,"location_subtype":"","month":"2020-10"},{"category":"anti-social-behaviour","location_type":"Force","location":{"latitude":"51.489823","street":{"id":949689,"name":"On or near Ponsonby Place"},"longitude":"-0.129755"},"context":"","outcome_status":null,"persistent_id":"","id":87459231,"location_subtype":"","month":"2020-10"},{"category":"anti-social-behaviour","location_type":"Force","location":{"latitude":"51.510835","street":{"id":956562,"name":"On or near Nightclub"},"longitude":"-0.128996"},"context":"","outcome_status":null,"persistent_id":"","id":87459233,"location_subtype":"","month":"2020-10"},{"category":"anti-social-behaviour","location_type":"Force","location":{"latitude":"51.504831","street":{"id":953744,"name":"On or near Dolben Street"},"longitude":"-0.102311"},"context":"","outcome_status":null,"persistent_id":"","id":87447287,"location_subtype":"","month":"2020-10"},{"category":"anti-social-behaviour","location_type":"Force","location":{"latitude":"51.507657","street":{"id":956660,"name":"On or near Cockspur Street"},"longitude":"-0.129890"},"context":"","outcome_status":null,"persistent_id":"","id":87459235,"location_subtype":"","month":"2020-10"},{"category":"anti-social-behaviour","location_type":"Force","location":{"latitude":"51.507657","street":{"id":956660,"name":"On or near Cockspur Street"},"longitude":"-0.129890"},"context":"","outcome_status":null,"persistent_id":"","id":87459237,"location_subtype":"","month":"2020-10"},{"category":"anti-social-behaviour","location_type":"Force","location":{"latitude":"51.507657","street":{"id":956660,"name":"On or near Cockspur Street"},"longitude":"-0.129890"},"context":"","outcome_status":null,"persistent_id":"","id":87459241,"location_subtype":"","month":"2020-10"},{"category":"anti-social-behaviour","location_type":"Force","location":{"latitude":"51.507657","street":{"id":956660,"name":"On or near Cockspur Street"},"longitude":"-0.129890"},"context":"","outcome_status":null,"persistent_id":"","id":87459243,"location_subtype":"","month":"2020-10"},{"category":"anti-social-behaviour","location_type":"Force","location":{"latitude":"51.497928","street":{"id":953295,"name":"On or near Conference/exhibition Centre"},"longitude":"-0.129366"},"context":"","outcome_status":null,"persistent_id":"","id":87459257,"location_subtype":"","month":"2020-10"},{"category":"anti-social-behaviour","location_type":"Force","location":{"latitude":"51.497928","street":{"id":953295,"name":"On or near Conference/exhibition Centre"},"longitude":"-0.129366"},"context":"","outcome_status":null,"persistent_id":"","id":87459259,"location_subtype":"","month":"2020-10"},{"category":"anti-social-behaviour","location_type":"Force","location":{"latitude":"51.497928","street":{"id":953295,"name":"On or near Conference/exhibition Centre"},"longitude":"-0.129366"},"context":"","outcome_status":null,"persistent_id":"","id":87459261,"location_subtype":"","month":"2020-10"},{"category":"anti-social-behaviour","location_type":"Force","location":{"latitude":"51.513158","street":{"id":956593,"name":"On or near Theatre/concert Hall"},"longitude":"-0.129722"},"context":"","outcome_status":null,"persistent_id":"","id":87459263,"location_subtype":"","month":"2020-10"},{"category":"anti-social-behaviour","location_type":"Force","location":{"latitude":"51.514046","street":{"id":956529,"name":"On or near Charing Cross Road"},"longitude":"-0.129599"},"context":"","outcome_status":null,"persistent_id":"","id":87459267,"location_subtype":"","month":"2020-10"},{"category":"anti-social-behaviour","location_type":"Force","location":{"latitude":"51.507657","street":{"id":956660,"name":"On or near Cockspur Street"},"longitude":"-0.129890"},"context":"","outcome_status":null,"persistent_id":"","id":87459269,"location_subtype":"","month":"2020-10"},{"category":"anti-social-behaviour","location_type":"Force","location":{"latitude":"51.511783","street":{"id":956547,"name":"On or near Nightclub"},"longitude":"-0.129778"},"context":"","outcome_status":null,"persistent_id":"","id":87459271,"location_subtype":"","month":"2020-10"},{"category":"anti-social-behaviour","location_type":"Force","location":{"latitude":"51.498345","street":{"id":953695,"name":"On or near Rotary Street"},"longitude":"-0.103272"},"context":"","outcome_status":null,"persistent_id":"","id":87447290,"location_subtype":"","month":"2020-10"},{"category":"anti-social-behaviour","location_type":"Force","location":{"latitude":"51.512060","street":{"id":956481,"name":"On or near Newport Place"},"longitude":"-0.129652"},"context":"","outcome_status":null,"persistent_id":"","id":87459273,"location_subtype":"","month":"2020-10"},{"category":"anti-social-behaviour","location_type":"Force","location":{"latitude":"51.512060","street":{"id":956481,"name":"On or near Newport Place"},"longitude":"-0.129652"},"context":"","outcome_status":null,"persistent_id":"","id":87459275,"location_subtype":"","month":"2020-10"},{"category":"anti-social-behaviour","location_type":"Force","location":{"latitude":"51.497910","street":{"id":953709,"name":"On or near Avonmouth Street"},"longitude":"-0.097512"},"context":"","outcome_status":null,"persistent_id":"","id":87447197,"location_subtype":"","month":"2020-10"},{"category":"anti-social-behaviour","location_type":"Force","location":{"latitude":"51.502688","street":{"id":953722,"name":"On or near Southwark Bridge Road"},"longitude":"-0.097126"},"context":"","outcome_status":null,"persistent_id":"","id":87447196,"location_subtype":"","month":"2020-10"},{"category":"anti-social-behaviour","location_type":"Force","location":{"latitude":"51.496909","street":{"id":953283,"name":"On or near Great Peter Street"},"longitude":"-0.129739"},"context":"","outcome_status":null,"persistent_id":"","id":87459265,"location_subtype":"","month":"2020-10"},{"category":"anti-social-behaviour","location_type":"Force","location":{"latitude":"51.511783","street":{"id":956547,"name":"On or near Nightclub"},"longitude":"-0.129778"},"context":"","outcome_status":null,"persistent_id":"","id":87459277,"location_subtype":"","month":"2020-10"},{"category":"anti-social-behaviour","location_type":"Force","location":{"latitude":"51.511783","street":{"id":956547,"name":"On or near Nightclub"},"longitude":"-0.129778"},"context":"","outcome_status":null,"persistent_id":"","id":87459280,"location_subtype":"","month":"2020-10"},{"category":"anti-social-behaviour","location_type":"Force","location":{"latitude":"51.511783","street":{"id":956547,"name":"On or near Nightclub"},"longitude":"-0.129778"},"context":"","outcome_status":null,"persistent_id":"","id":87459282,"location_subtype":"","month":"2020-10"},{"category":"anti-social-behaviour","location_type":"Force","location":{"latitude":"51.509428","street":{"id":956477,"name":"On or near Orange Street"},"longitude":"-0.130379"},"context":"","outcome_status":null,"persistent_id":"","id":87459291,"location_subtype":"","month":"2020-10"},{"category":"anti-social-behaviour","location_type":"Force","location":{"latitude":"51.493930","street":{"id":953410,"name":"On or near Page Street"},"longitude":"-0.129573"},"context":"","outcome_status":null,"persistent_id":"","id":87459299,"location_subtype":"","month":"2020-10"},{"category":"anti-social-behaviour","location_type":"Force","location":{"latitude":"51.493930","street":{"id":953410,"name":"On or near Page Street"},"longitude":"-0.129573"},"context":"","outcome_status":null,"persistent_id":"","id":87459301,"location_subtype":"","month":"2020-10"},{"category":"anti-social-behaviour","location_type":"Force","location":{"latitude":"51.510827","street":{"id":956579,"name":"On or near Nightclub"},"longitude":"-0.130697"},"context":"","outcome_status":null,"persistent_id":"","id":87459303,"location_subtype":"","month":"2020-10"},{"category":"anti-social-behaviour","location_type":"Force","location":{"latitude":"51.510827","street":{"id":956579,"name":"On or near Nightclub"},"longitude":"-0.130697"},"context":"","outcome_status":null,"persistent_id":"","id":87459305,"location_subtype":"","month":"2020-10"},{"category":"anti-social-behaviour","location_type":"Force","location":{"latitude":"51.500239","street":{"id":953315,"name":"On or near Conference/exhibition Centre"},"longitude":"-0.129920"},"context":"","outcome_status":null,"persistent_id":"","id":87459307,"location_subtype":"","month":"2020-10"},{"category":"anti-social-behaviour","location_type":"Force","location":{"latitude":"51.495874","street":{"id":953273,"name":"On or near Monck Street"},"longitude":"-0.130819"},"context":"","outcome_status":null,"persistent_id":"","id":87459309,"location_subtype":"","month":"2020-10"},{"category":"anti-social-behaviour","location_type":"Force","location":{"latitude":"51.495874","street":{"id":953273,"name":"On or near Monck Street"},"longitude":"-0.130819"},"context":"","outcome_status":null,"persistent_id":"","id":87459311,"location_subtype":"","month":"2020-10"},{"category":"anti-social-behaviour","location_type":"Force","location":{"latitude":"51.500439","street":{"id":953746,"name":"On or near Collinson Street"},"longitude":"-0.098747"},"context":"","outcome_status":null,"persistent_id":"","id":87447225,"location_subtype":"","month":"2020-10"},{"category":"anti-social-behaviour","location_type":"Force","location":{"latitude":"51.511128","street":{"id":956580,"name":"On or near Nightclub"},"longitude":"-0.129834"},"context":"","outcome_status":null,"persistent_id":"","id":87459313,"location_subtype":"","month":"2020-10"},{"category":"anti-social-behaviour","location_type":"Force","location":{"latitude":"51.511128","street":{"id":956580,"name":"On or near Nightclub"},"longitude":"-0.129834"},"context":"","outcome_status":null,"persistent_id":"","id":87459317,"location_subtype":"","month":"2020-10"},{"category":"anti-social-behaviour","location_type":"Force","location":{"latitude":"51.500808","street":{"id":953309,"name":"On or near Old Queen Street"},"longitude":"-0.130646"},"context":"","outcome_status":null,"persistent_id":"","id":87459319,"location_subtype":"","month":"2020-10"},{"category":"anti-social-behaviour","location_type":"Force","location":{"latitude":"51.509037","street":{"id":956591,"name":"On or near Conference/exhibition Centre"},"longitude":"-0.130698"},"context":"","outcome_status":null,"persistent_id":"","id":87459322,"location_subtype":"","month":"2020-10"},{"category":"anti-social-behaviour","location_type":"Force","location":{"latitude":"51.509037","street":{"id":956591,"name":"On or near Conference/exhibition Centre"},"longitude":"-0.130698"},"context":"","outcome_status":null,"persistent_id":"","id":87459324,"location_subtype":"","month":"2020-10"},{"category":"anti-social-behaviour","location_type":"Force","location":{"latitude":"51.492970","street":{"id":953399,"name":"On or near Vincent Street"},"longitude":"-0.131398"},"context":"","outcome_status":null,"persistent_id":"","id":87459325,"location_subtype":"","month":"2020-10"},{"category":"anti-social-behaviour","location_type":"Force","location":{"latitude":"51.493702","street":{"id":953419,"name":"On or near Fynes Street"},"longitude":"-0.132809"},"context":"","outcome_status":null,"persistent_id":"","id":87459336,"location_subtype":"","month":"2020-10"},{"category":"anti-social-behaviour","location_type":"Force","location":{"latitude":"51.514007","street":{"id":956581,"name":"On or near Nightclub"},"longitude":"-0.131085"},"context":"","outcome_status":null,"persistent_id":"","id":87459343,"location_subtype":"","month":"2020-10"},{"category":"anti-social-behaviour","location_type":"Force","location":{"latitude":"51.514007","street":{"id":956581,"name":"On or near Nightclub"},"longitude":"-0.131085"},"context":"","outcome_status":null,"persistent_id":"","id":87459345,"location_subtype":"","month":"2020-10"},{"category":"anti-social-behaviour","location_type":"Force","location":{"latitude":"51.514007","street":{"id":956581,"name":"On or near Nightclub"},"longitude":"-0.131085"},"context":"","outcome_status":null,"persistent_id":"","id":87459348,"location_subtype":"","month":"2020-10"},{"category":"anti-social-behaviour","location_type":"Force","location":{"latitude":"51.514007","street":{"id":956581,"name":"On or near Nightclub"},"longitude":"-0.131085"},"context":"","outcome_status":null,"persistent_id":"","id":87459350,"location_subtype":"","month":"2020-10"},{"category":"anti-social-behaviour","location_type":"Force","location":{"latitude":"51.495424","street":{"id":953274,"name":"On or near Medway Street"},"longitude":"-0.131918"},"context":"","outcome_status":null,"persistent_id":"","id":87459352,"location_subtype":"","month":"2020-10"},{"category":"anti-social-behaviour","location_type":"Force","location":{"latitude":"51.495424","street":{"id":953274,"name":"On or near Medway Street"},"longitude":"-0.131918"},"context":"","outcome_status":null,"persistent_id":"","id":87459355,"location_subtype":"","month":"2020-10"},{"category":"anti-social-behaviour","location_type":"Force","location":{"latitude":"51.498328","street":{"id":953294,"name":"On or near Abbey Orchard Street"},"longitude":"-0.131338"},"context":"","outcome_status":null,"persistent_id":"","id":87459357,"location_subtype":"","month":"2020-10"},{"category":"anti-social-behaviour","location_type":"Force","location":{"latitude":"51.498328","street":{"id":953294,"name":"On or near Abbey Orchard Street"},"longitude":"-0.131338"},"context":"","outcome_status":null,"persistent_id":"","id":87459358,"location_subtype":"","month":"2020-10"},{"category":"anti-social-behaviour","location_type":"Force","location":{"latitude":"51.495307","street":{"id":953424,"name":"On or near Arneway Street"},"longitude":"-0.131908"},"context":"","outcome_status":null,"persistent_id":"","id":87459364,"location_subtype":"","month":"2020-10"},{"category":"anti-social-behaviour","location_type":"Force","location":{"latitude":"51.509514","street":{"id":956429,"name":"On or near Parking Area"},"longitude":"-0.131284"},"context":"","outcome_status":null,"persistent_id":"","id":87459367,"location_subtype":"","month":"2020-10"},{"category":"anti-social-behaviour","location_type":"Force","location":{"latitude":"51.497534","street":{"id":953272,"name":"On or near Old Pye Street"},"longitude":"-0.132278"},"context":"","outcome_status":null,"persistent_id":"","id":87459369,"location_subtype":"","month":"2020-10"},{"category":"anti-social-behaviour","location_type":"Force","location":{"latitude":"51.497534","street":{"id":953272,"name":"On or near Old Pye Street"},"longitude":"-0.132278"},"context":"","outcome_status":null,"persistent_id":"","id":87459371,"location_subtype":"","month":"2020-10"},{"category":"anti-social-behaviour","location_type":"Force","location":{"latitude":"51.509980","street":{"id":956543,"name":"On or near Motorway Service Area"},"longitude":"-0.132331"},"context":"","outcome_status":null,"persistent_id":"","id":87459394,"location_subtype":"","month":"2020-10"},{"category":"anti-social-behaviour","location_type":"Force","location":{"latitude":"51.503784","street":{"id":953715,"name":"On or near Union Street"},"longitude":"-0.098147"},"context":"","outcome_status":null,"persistent_id":"","id":87447229,"location_subtype":"","month":"2020-10"},{"category":"anti-social-behaviour","location_type":"Force","location":{"latitude":"51.494730","street":{"id":953409,"name":"On or near Regency Street"},"longitude":"-0.132393"},"context":"","outcome_status":null,"persistent_id":"","id":87459396,"location_subtype":"","month":"2020-10"},{"category":"anti-social-behaviour","location_type":"Force","location":{"latitude":"51.496271","street":{"id":953289,"name":"On or near Chadwick Street"},"longitude":"-0.132618"},"context":"","outcome_status":null,"persistent_id":"","id":87459398,"location_subtype":"","month":"2020-10"},{"category":"anti-social-behaviour","location_type":"Force","location":{"latitude":"51.495745","street":{"id":953256,"name":"On or near Parking Area"},"longitude":"-0.132308"},"context":"","outcome_status":null,"persistent_id":"","id":87459413,"location_subtype":"","month":"2020-10"},{"category":"anti-social-behaviour","location_type":"Force","location":{"latitude":"51.500439","street":{"id":953746,"name":"On or near Collinson Street"},"longitude":"-0.098747"},"context":"","outcome_status":null,"persistent_id":"","id":87447233,"location_subtype":"","month":"2020-10"},{"category":"anti-social-behaviour","location_type":"Force","location":{"latitude":"51.495745","street":{"id":953256,"name":"On or near Parking Area"},"longitude":"-0.132308"},"context":"","outcome_status":null,"persistent_id":"","id":87459414,"location_subtype":"","month":"2020-10"},{"category":"anti-social-behaviour","location_type":"Force","location":{"latitude":"51.495745","street":{"id":953256,"name":"On or near Parking Area"},"longitude":"-0.132308"},"context":"","outcome_status":null,"persistent_id":"","id":87459416,"location_subtype":"","month":"2020-10"},{"category":"anti-social-behaviour","location_type":"Force","location":{"latitude":"51.511783","street":{"id":956547,"name":"On or near Nightclub"},"longitude":"-0.129778"},"context":"","outcome_status":null,"persistent_id":"","id":87459287,"location_subtype":"","month":"2020-10"},{"category":"anti-social-behaviour","location_type":"Force","location":{"latitude":"51.495928","street":{"id":953689,"name":"On or near Pedestrian Subway"},"longitude":"-0.100073"},"context":"","outcome_status":null,"persistent_id":"","id":87447244,"location_subtype":"","month":"2020-10"},{"category":"anti-social-behaviour","location_type":"Force","location":{"latitude":"51.495874","street":{"id":953273,"name":"On or near Monck Street"},"longitude":"-0.130819"},"context":"","outcome_status":null,"persistent_id":"","id":87459294,"location_subtype":"","month":"2020-10"},{"category":"anti-social-behaviour","location_type":"Force","location":{"latitude":"51.511128","street":{"id":956580,"name":"On or near Nightclub"},"longitude":"-0.129834"},"context":"","outcome_status":null,"persistent_id":"","id":87459315,"location_subtype":"","month":"2020-10"},{"category":"anti-social-behaviour","location_type":"Force","location":{"latitude":"51.509428","street":{"id":956477,"name":"On or near Orange Street"},"longitude":"-0.130379"},"context":"","outcome_status":null,"persistent_id":"","id":87445750,"location_subtype":"","month":"2020-10"},{"category":"anti-social-behaviour","location_type":"Force","location":{"latitude":"51.493702","street":{"id":953419,"name":"On or near Fynes Street"},"longitude":"-0.132809"},"context":"","outcome_status":null,"persistent_id":"","id":87459339,"location_subtype":"","month":"2020-10"},{"category":"anti-social-behaviour","location_type":"Force","location":{"latitude":"51.493702","street":{"id":953419,"name":"On or near Fynes Street"},"longitude":"-0.132809"},"context":"","outcome_status":null,"persistent_id":"","id":87459341,"location_subtype":"","month":"2020-10"},{"category":"anti-social-behaviour","location_type":"Force","location":{"latitude":"51.511790","street":{"id":956461,"name":"On or near Shaftesbury Avenue"},"longitude":"-0.132473"},"context":"","outcome_status":null,"persistent_id":"","id":87459404,"location_subtype":"","month":"2020-10"},{"category":"anti-social-behaviour","location_type":"Force","location":{"latitude":"51.508257","street":{"id":956095,"name":"On or near A201"},"longitude":"-0.104503"},"context":"","outcome_status":null,"persistent_id":"","id":87448092,"location_subtype":"","month":"2020-10"},{"category":"anti-social-behaviour","location_type":"Force","location":{"latitude":"51.506340","street":{"id":956280,"name":"On or near Paris Garden"},"longitude":"-0.106110"},"context":"","outcome_status":null,"persistent_id":"","id":87448097,"location_subtype":"","month":"2020-10"},{"category":"anti-social-behaviour","location_type":"Force","location":{"latitude":"51.500039","street":{"id":953471,"name":"On or near Webber Row"},"longitude":"-0.107365"},"context":"","outcome_status":null,"persistent_id":"","id":87448108,"location_subtype":"","month":"2020-10"},{"category":"anti-social-behaviour","location_type":"Force","location":{"latitude":"51.508055","street":{"id":956265,"name":"On or near Barge House Street"},"longitude":"-0.108143"},"context":"","outcome_status":null,"persistent_id":"","id":87448114,"location_subtype":"","month":"2020-10"},{"category":"anti-social-behaviour","location_type":"Force","location":{"latitude":"51.503876","street":{"id":953466,"name":"On or near Wootton Street"},"longitude":"-0.108863"},"context":"","outcome_status":null,"persistent_id":"","id":87450232,"location_subtype":"","month":"2020-10"},{"category":"anti-social-behaviour","location_type":"Force","location":{"latitude":"51.506673","street":{"id":956284,"name":"On or near Duchy Street"},"longitude":"-0.108877"},"context":"","outcome_status":null,"persistent_id":"","id":87450234,"location_subtype":"","month":"2020-10"},{"category":"anti-social-behaviour","location_type":"Force","location":{"latitude":"51.506344","street":{"id":956286,"name":"On or near Coin Street"},"longitude":"-0.110216"},"context":"","outcome_status":null,"persistent_id":"","id":87450294,"location_subtype":"","month":"2020-10"},{"category":"anti-social-behaviour","location_type":"Force","location":{"latitude":"51.506344","street":{"id":956286,"name":"On or near Coin Street"},"longitude":"-0.110216"},"context":"","outcome_status":null,"persistent_id":"","id":87450295,"location_subtype":"","month":"2020-10"},{"category":"anti-social-behaviour","location_type":"Force","location":{"latitude":"51.490842","street":{"id":949562,"name":"On or near Petrol Station"},"longitude":"-0.111448"},"context":"","outcome_status":null,"persistent_id":"","id":87450321,"location_subtype":"","month":"2020-10"},{"category":"anti-social-behaviour","location_type":"Force","location":{"latitude":"51.495756","street":{"id":953445,"name":"On or near Kennington Road"},"longitude":"-0.111115"},"context":"","outcome_status":null,"persistent_id":"","id":87450324,"location_subtype":"","month":"2020-10"},{"category":"anti-social-behaviour","location_type":"Force","location":{"latitude":"51.500076","street":{"id":953512,"name":"On or near Sports/recreation Area"},"longitude":"-0.111902"},"context":"","outcome_status":null,"persistent_id":"","id":87450343,"location_subtype":"","month":"2020-10"},{"category":"anti-social-behaviour","location_type":"Force","location":{"latitude":"51.503637","street":{"id":953483,"name":"On or near Sandell Street"},"longitude":"-0.110804"},"context":"","outcome_status":null,"persistent_id":"","id":87450362,"location_subtype":"","month":"2020-10"},{"category":"anti-social-behaviour","location_type":"Force","location":{"latitude":"51.490190","street":{"id":949540,"name":"On or near Hotspur Street"},"longitude":"-0.112800"},"context":"","outcome_status":null,"persistent_id":"","id":87450370,"location_subtype":"","month":"2020-10"},{"category":"anti-social-behaviour","location_type":"Force","location":{"latitude":"51.498530","street":{"id":953436,"name":"On or near Newnham Terrace"},"longitude":"-0.113047"},"context":"","outcome_status":null,"persistent_id":"","id":87450457,"location_subtype":"","month":"2020-10"},{"category":"anti-social-behaviour","location_type":"Force","location":{"latitude":"51.506837","street":{"id":956277,"name":"On or near Upper Ground"},"longitude":"-0.111824"},"context":"","outcome_status":null,"persistent_id":"","id":87450487,"location_subtype":"","month":"2020-10"},{"category":"anti-social-behaviour","location_type":"Force","location":{"latitude":"51.494263","street":{"id":953404,"name":"On or near Stillington Street"},"longitude":"-0.138102"},"context":"","outcome_status":null,"persistent_id":"","id":87450736,"location_subtype":"","month":"2020-10"},{"category":"anti-social-behaviour","location_type":"Force","location":{"latitude":"51.508809","street":{"id":956358,"name":"On or near Albany Courtyard"},"longitude":"-0.138417"},"context":"","outcome_status":null,"persistent_id":"","id":87450767,"location_subtype":"","month":"2020-10"},{"category":"anti-social-behaviour","location_type":"Force","location":{"latitude":"51.499056","street":{"id":953350,"name":"On or near Buckingham Gate"},"longitude":"-0.138094"},"context":"","outcome_status":null,"persistent_id":"","id":87450770,"location_subtype":"","month":"2020-10"},{"category":"anti-social-behaviour","location_type":"Force","location":{"latitude":"51.507377","street":{"id":956289,"name":"On or near A301"},"longitude":"-0.115750"},"context":"","outcome_status":null,"persistent_id":"","id":87450932,"location_subtype":"","month":"2020-10"},{"category":"anti-social-behaviour","location_type":"Force","location":{"latitude":"51.503194","street":{"id":953465,"name":"On or near York Road"},"longitude":"-0.115635"},"context":"","outcome_status":null,"persistent_id":"","id":87450942,"location_subtype":"","month":"2020-10"},{"category":"anti-social-behaviour","location_type":"Force","location":{"latitude":"51.503194","street":{"id":953465,"name":"On or near York Road"},"longitude":"-0.115635"},"context":"","outcome_status":null,"persistent_id":"","id":87450947,"location_subtype":"","month":"2020-10"},{"category":"anti-social-behaviour","location_type":"Force","location":{"latitude":"51.502791","street":{"id":953521,"name":"On or near Chicheley Street"},"longitude":"-0.116905"},"context":"","outcome_status":null,"persistent_id":"","id":87451011,"location_subtype":"","month":"2020-10"},{"category":"anti-social-behaviour","location_type":"Force","location":{"latitude":"51.498734","street":{"id":953301,"name":"On or near Police Station"},"longitude":"-0.133122"},"context":"","outcome_status":null,"persistent_id":"","id":87449374,"location_subtype":"","month":"2020-10"},{"category":"anti-social-behaviour","location_type":"Force","location":{"latitude":"51.496931","street":{"id":953293,"name":"On or near Artillery Row"},"longitude":"-0.135631"},"context":"","outcome_status":null,"persistent_id":"","id":87449401,"location_subtype":"","month":"2020-10"},{"category":"anti-social-behaviour","location_type":"Force","location":{"latitude":"51.511486","street":{"id":956458,"name":"On or near Smith's Court"},"longitude":"-0.134849"},"context":"","outcome_status":null,"persistent_id":"","id":87449417,"location_subtype":"","month":"2020-10"},{"category":"anti-social-behaviour","location_type":"Force","location":{"latitude":"51.491714","street":{"id":949459,"name":"On or near Parking Area"},"longitude":"-0.119220"},"context":"","outcome_status":null,"persistent_id":"","id":87451667,"location_subtype":"","month":"2020-10"},{"category":"anti-social-behaviour","location_type":"Force","location":{"latitude":"51.501136","street":{"id":953530,"name":"On or near Westminster Bridge Road"},"longitude":"-0.117391"},"context":"","outcome_status":null,"persistent_id":"","id":87451681,"location_subtype":"","month":"2020-10"},{"category":"anti-social-behaviour","location_type":"Force","location":{"latitude":"51.501136","street":{"id":953530,"name":"On or near Westminster Bridge Road"},"longitude":"-0.117391"},"context":"","outcome_status":null,"persistent_id":"","id":87451683,"location_subtype":"","month":"2020-10"},{"category":"anti-social-behaviour","location_type":"Force","location":{"latitude":"51.497899","street":{"id":953525,"name":"On or near Further/higher Educational Building"},"longitude":"-0.119685"},"context":"","outcome_status":null,"persistent_id":"","id":87451711,"location_subtype":"","month":"2020-10"},{"category":"anti-social-behaviour","location_type":"Force","location":{"latitude":"51.497899","street":{"id":953525,"name":"On or near Further/higher Educational Building"},"longitude":"-0.119685"},"context":"","outcome_status":null,"persistent_id":"","id":87451712,"location_subtype":"","month":"2020-10"},{"category":"anti-social-behaviour","location_type":"Force","location":{"latitude":"51.493106","street":{"id":953547,"name":"On or near Lambeth High Street"},"longitude":"-0.120257"},"context":"","outcome_status":null,"persistent_id":"","id":87451753,"location_subtype":"","month":"2020-10"},{"category":"anti-social-behaviour","location_type":"Force","location":{"latitude":"51.507078","street":{"id":956300,"name":"On or near Embankment Place"},"longitude":"-0.122925"},"context":"","outcome_status":null,"persistent_id":"","id":87455173,"location_subtype":"","month":"2020-10"},{"category":"anti-social-behaviour","location_type":"Force","location":{"latitude":"51.508592","street":{"id":956519,"name":"On or near Duncannon Street"},"longitude":"-0.126479"},"context":"","outcome_status":null,"persistent_id":"","id":87455221,"location_subtype":"","month":"2020-10"},{"category":"anti-social-behaviour","location_type":"Force","location":{"latitude":"51.503196","street":{"id":953311,"name":"On or near Downing Street"},"longitude":"-0.127032"},"context":"","outcome_status":null,"persistent_id":"","id":87455248,"location_subtype":"","month":"2020-10"},{"category":"anti-social-behaviour","location_type":"Force","location":{"latitude":"51.507309","street":{"id":956645,"name":"On or near Pedestrian Subway"},"longitude":"-0.128348"},"context":"","outcome_status":null,"persistent_id":"","id":87455266,"location_subtype":"","month":"2020-10"},{"category":"anti-social-behaviour","location_type":"Force","location":{"latitude":"51.514710","street":{"id":956262,"name":"On or near Carey Street"},"longitude":"-0.114900"},"context":"","outcome_status":null,"persistent_id":"","id":87455133,"location_subtype":"","month":"2020-10"},{"category":"anti-social-behaviour","location_type":"Force","location":{"latitude":"51.514500","street":{"id":956453,"name":"On or near St Giles Passage"},"longitude":"-0.128139"},"context":"","outcome_status":null,"persistent_id":"","id":87444782,"location_subtype":"","month":"2020-10"},{"category":"anti-social-behaviour","location_type":"Force","location":{"latitude":"51.514500","street":{"id":956453,"name":"On or near St Giles Passage"},"longitude":"-0.128139"},"context":"","outcome_status":null,"persistent_id":"","id":87444783,"location_subtype":"","month":"2020-10"},{"category":"anti-social-behaviour","location_type":"Force","location":{"latitude":"51.515681","street":{"id":956454,"name":"On or near St Giles High Street"},"longitude":"-0.128884"},"context":"","outcome_status":null,"persistent_id":"","id":87444792,"location_subtype":"","month":"2020-10"},{"category":"anti-social-behaviour","location_type":"Force","location":{"latitude":"51.513701","street":{"id":956557,"name":"On or near Theatre/concert Hall"},"longitude":"-0.128273"},"context":"","outcome_status":null,"persistent_id":"","id":87444793,"location_subtype":"","month":"2020-10"},{"category":"anti-social-behaviour","location_type":"Force","location":{"latitude":"51.513701","street":{"id":956557,"name":"On or near Theatre/concert Hall"},"longitude":"-0.128273"},"context":"","outcome_status":null,"persistent_id":"","id":87444794,"location_subtype":"","month":"2020-10"},{"category":"anti-social-behaviour","location_type":"Force","location":{"latitude":"51.513745","street":{"id":956153,"name":"On or near Shelton Street"},"longitude":"-0.125360"},"context":"","outcome_status":null,"persistent_id":"","id":87444706,"location_subtype":"","month":"2020-10"},{"category":"anti-social-behaviour","location_type":"Force","location":{"latitude":"51.513745","street":{"id":956153,"name":"On or near Shelton Street"},"longitude":"-0.125360"},"context":"","outcome_status":null,"persistent_id":"","id":87444707,"location_subtype":"","month":"2020-10"},{"category":"anti-social-behaviour","location_type":"Force","location":{"latitude":"51.514696","street":{"id":956152,"name":"On or near Shorts Gardens"},"longitude":"-0.125234"},"context":"","outcome_status":null,"persistent_id":"","id":87444708,"location_subtype":"","month":"2020-10"},{"category":"anti-social-behaviour","location_type":"Force","location":{"latitude":"51.514696","street":{"id":956152,"name":"On or near Shorts Gardens"},"longitude":"-0.125234"},"context":"","outcome_status":null,"persistent_id":"","id":87444709,"location_subtype":"","month":"2020-10"},{"category":"anti-social-behaviour","location_type":"Force","location":{"latitude":"51.514976","street":{"id":956185,"name":"On or near Endell Street"},"longitude":"-0.125309"},"context":"","outcome_status":null,"persistent_id":"","id":87444714,"location_subtype":"","month":"2020-10"},{"category":"anti-social-behaviour","location_type":"Force","location":{"latitude":"51.516368","street":{"id":956507,"name":"On or near Grape Street"},"longitude":"-0.125742"},"context":"","outcome_status":null,"persistent_id":"","id":87444724,"location_subtype":"","month":"2020-10"},{"category":"anti-social-behaviour","location_type":"Force","location":{"latitude":"51.516275","street":{"id":956555,"name":"On or near Theatre/concert Hall"},"longitude":"-0.126121"},