[{"category":"anti-social-behaviour","location_type":"Force","location":{"latitude":"51.501299","street":{"id":953478,"name":"On or near Tanswell Street"},"longitude":"-0.111333"},"context":"","outcome_status":null,"persistent_id":"","id":76204927,"location_subtype":"","month":"2019-07"},{"category":"anti-social-behaviour","location_type":"Force","location":{"latitude":"51.500076","street":{"id":953512,"name":"On or near Sports/recreation Area"},"longitude":"-0.111902"},"context":"","outcome_status":null,"persistent_id":"","id":76204928,"location_subtype":"","month":"2019-07"},{"category":"anti-social-behaviour","location_type":"Force","location":{"latitude":"51.500076","street":{"id":953512,"name":"On or near Sports/recreation Area"},"longitude":"-0.111902"},"context":"","outcome_status":null,"persistent_id":"","id":76204929,"location_subtype":"","month":"2019-07"},{"category":"anti-social-behaviour","location_type":"Force","location":{"latitude":"51.509371","street":{"id":956452,"name":"On or near St James's Market"},"longitude":"-0.133033"},"context":"","outcome_status":null,"persistent_id":"","id":76220444,"location_subtype":"","month":"2019-07"},{"category":"anti-social-behaviour","location_type":"Force","location":{"latitude":"51.498734","street":{"id":953301,"name":"On or near Police Station"},"longitude":"-0.133122"},"context":"","outcome_status":null,"persistent_id":"","id":76220445,"location_subtype":"","month":"2019-07"},{"category":"anti-social-behaviour","location_type":"Force","location":{"latitude":"51.498734","street":{"id":953301,"name":"On or near Police Station"},"longitude":"-0.133122"},"context":"","outcome_status":null,"persistent_id":"","id":76220450,"location_subtype":"","month":"2019-07"},{"category":"anti-social-behaviour","location_type":"Force","location":{"latitude":"51.498734","street":{"id":953301,"name":"On or near Police Station"},"longitude":"-0.133122"},"context":"","outcome_status":null,"persistent_id":"","id":76220451,"location_subtype":"","month":"2019-07"},{"category":"anti-social-behaviour","location_type":"Force","location":{"latitude":"51.498734","street":{"id":953301,"name":"On or near Police Station"},"longitude":"-0.133122"},"context":"","outcome_status":null,"persistent_id":"","id":76220453,"location_subtype":"","month":"2019-07"},{"category":"anti-social-behaviour","location_type":"Force","location":{"latitude":"51.498734","street":{"id":953301,"name":"On or near Police Station"},"longitude":"-0.133122"},"context":"","outcome_status":null,"persistent_id":"","id":76220454,"location_subtype":"","month":"2019-07"},{"category":"anti-social-behaviour","location_type":"Force","location":{"latitude":"51.498734","street":{"id":953301,"name":"On or near Police Station"},"longitude":"-0.133122"},"context":"","outcome_status":null,"persistent_id":"","id":76220456,"location_subtype":"","month":"2019-07"},{"category":"anti-social-behaviour","location_type":"Force","location":{"latitude":"51.498734","street":{"id":953301,"name":"On or near Police Station"},"longitude":"-0.133122"},"context":"","outcome_status":null,"persistent_id":"","id":76220457,"location_subtype":"","month":"2019-07"},{"category":"anti-social-behaviour","location_type":"Force","location":{"latitude":"51.497235","street":{"id":953261,"name":"On or near Strutton Ground"},"longitude":"-0.133860"},"context":"","outcome_status":null,"persistent_id":"","id":76220469,"location_subtype":"","month":"2019-07"},{"category":"anti-social-behaviour","location_type":"Force","location":{"latitude":"51.511624","street":{"id":956541,"name":"On or near Archer Street"},"longitude":"-0.133878"},"context":"","outcome_status":null,"persistent_id":"","id":76220470,"location_subtype":"","month":"2019-07"},{"category":"anti-social-behaviour","location_type":"Force","location":{"latitude":"51.511624","street":{"id":956541,"name":"On or near Archer Street"},"longitude":"-0.133878"},"context":"","outcome_status":null,"persistent_id":"","id":76220471,"location_subtype":"","month":"2019-07"},{"category":"anti-social-behaviour","location_type":"Force","location":{"latitude":"51.511624","street":{"id":956541,"name":"On or near Archer Street"},"longitude":"-0.133878"},"context":"","outcome_status":null,"persistent_id":"","id":76220472,"location_subtype":"","month":"2019-07"},{"category":"anti-social-behaviour","location_type":"Force","location":{"latitude":"51.511238","street":{"id":956559,"name":"On or near Theatre/concert Hall"},"longitude":"-0.133922"},"context":"","outcome_status":null,"persistent_id":"","id":76220473,"location_subtype":"","month":"2019-07"},{"category":"anti-social-behaviour","location_type":"Force","location":{"latitude":"51.511238","street":{"id":956559,"name":"On or near Theatre/concert Hall"},"longitude":"-0.133922"},"context":"","outcome_status":null,"persistent_id":"","id":76220474,"location_subtype":"","month":"2019-07"},{"category":"anti-social-behaviour","location_type":"Force","location":{"latitude":"51.508499","street":{"id":956497,"name":"On or near Jermyn Street"},"longitude":"-0.136455"},"context":"","outcome_status":null,"persistent_id":"","id":76221446,"location_subtype":"","month":"2019-07"},{"category":"anti-social-behaviour","location_type":"Force","location":{"latitude":"51.508499","street":{"id":956497,"name":"On or near Jermyn Street"},"longitude":"-0.136455"},"context":"","outcome_status":null,"persistent_id":"","id":76221447,"location_subtype":"","month":"2019-07"},{"category":"anti-social-behaviour","location_type":"Force","location":{"latitude":"51.511394","street":{"id":956491,"name":"On or near Lower James Street"},"longitude":"-0.136424"},"context":"","outcome_status":null,"persistent_id":"","id":76221448,"location_subtype":"","month":"2019-07"},{"category":"anti-social-behaviour","location_type":"Force","location":{"latitude":"51.511989","street":{"id":923884,"name":"On or near Bridle Lane"},"longitude":"-0.136486"},"context":"","outcome_status":null,"persistent_id":"","id":76221451,"location_subtype":"","month":"2019-07"},{"category":"anti-social-behaviour","location_type":"Force","location":{"latitude":"51.511989","street":{"id":923884,"name":"On or near Bridle Lane"},"longitude":"-0.136486"},"context":"","outcome_status":null,"persistent_id":"","id":76221452,"location_subtype":"","month":"2019-07"},{"category":"anti-social-behaviour","location_type":"Force","location":{"latitude":"51.511989","street":{"id":923884,"name":"On or near Bridle Lane"},"longitude":"-0.136486"},"context":"","outcome_status":null,"persistent_id":"","id":76221453,"location_subtype":"","month":"2019-07"},{"category":"anti-social-behaviour","location_type":"Force","location":{"latitude":"51.509929","street":{"id":956469,"name":"On or near Regent Street"},"longitude":"-0.136440"},"context":"","outcome_status":null,"persistent_id":"","id":76221454,"location_subtype":"","month":"2019-07"},{"category":"anti-social-behaviour","location_type":"Force","location":{"latitude":"51.498747","street":{"id":923564,"name":"On or near Vandon Street"},"longitude":"-0.136752"},"context":"","outcome_status":null,"persistent_id":"","id":76221456,"location_subtype":"","month":"2019-07"},{"category":"anti-social-behaviour","location_type":"Force","location":{"latitude":"51.496680","street":{"id":953279,"name":"On or near Howick Place"},"longitude":"-0.137427"},"context":"","outcome_status":null,"persistent_id":"","id":76221457,"location_subtype":"","month":"2019-07"},{"category":"anti-social-behaviour","location_type":"Force","location":{"latitude":"51.511394","street":{"id":956491,"name":"On or near Lower James Street"},"longitude":"-0.136424"},"context":"","outcome_status":null,"persistent_id":"","id":76221458,"location_subtype":"","month":"2019-07"},{"category":"anti-social-behaviour","location_type":"Force","location":{"latitude":"51.496680","street":{"id":953279,"name":"On or near Howick Place"},"longitude":"-0.137427"},"context":"","outcome_status":null,"persistent_id":"","id":76221459,"location_subtype":"","month":"2019-07"},{"category":"anti-social-behaviour","location_type":"Force","location":{"latitude":"51.496680","street":{"id":953279,"name":"On or near Howick Place"},"longitude":"-0.137427"},"context":"","outcome_status":null,"persistent_id":"","id":76221460,"location_subtype":"","month":"2019-07"},{"category":"anti-social-behaviour","location_type":"Force","location":{"latitude":"51.496680","street":{"id":953279,"name":"On or near Howick Place"},"longitude":"-0.137427"},"context":"","outcome_status":null,"persistent_id":"","id":76221461,"location_subtype":"","month":"2019-07"},{"category":"anti-social-behaviour","location_type":"Force","location":{"latitude":"51.496680","street":{"id":953279,"name":"On or near Howick Place"},"longitude":"-0.137427"},"context":"","outcome_status":null,"persistent_id":"","id":76221462,"location_subtype":"","month":"2019-07"},{"category":"anti-social-behaviour","location_type":"Force","location":{"latitude":"51.496680","street":{"id":953279,"name":"On or near Howick Place"},"longitude":"-0.137427"},"context":"","outcome_status":null,"persistent_id":"","id":76221463,"location_subtype":"","month":"2019-07"},{"category":"anti-social-behaviour","location_type":"Force","location":{"latitude":"51.496680","street":{"id":953279,"name":"On or near Howick Place"},"longitude":"-0.137427"},"context":"","outcome_status":null,"persistent_id":"","id":76221464,"location_subtype":"","month":"2019-07"},{"category":"anti-social-behaviour","location_type":"Force","location":{"latitude":"51.507386","street":{"id":956682,"name":"On or near Masons Yard"},"longitude":"-0.137682"},"context":"","outcome_status":null,"persistent_id":"","id":76221470,"location_subtype":"","month":"2019-07"},{"category":"anti-social-behaviour","location_type":"Force","location":{"latitude":"51.507386","street":{"id":956682,"name":"On or near Masons Yard"},"longitude":"-0.137682"},"context":"","outcome_status":null,"persistent_id":"","id":76221471,"location_subtype":"","month":"2019-07"},{"category":"anti-social-behaviour","location_type":"Force","location":{"latitude":"51.507386","street":{"id":956682,"name":"On or near Masons Yard"},"longitude":"-0.137682"},"context":"","outcome_status":null,"persistent_id":"","id":76221472,"location_subtype":"","month":"2019-07"},{"category":"anti-social-behaviour","location_type":"Force","location":{"latitude":"51.510362","street":{"id":956221,"name":"On or near Theatre/concert Hall"},"longitude":"-0.122415"},"context":"","outcome_status":null,"persistent_id":"","id":76215889,"location_subtype":"","month":"2019-07"},{"category":"anti-social-behaviour","location_type":"Force","location":{"latitude":"51.510362","street":{"id":956221,"name":"On or near Theatre/concert Hall"},"longitude":"-0.122415"},"context":"","outcome_status":null,"persistent_id":"","id":76215890,"location_subtype":"","month":"2019-07"},{"category":"anti-social-behaviour","location_type":"Force","location":{"latitude":"51.512953","street":{"id":956253,"name":"On or near Strand"},"longitude":"-0.114670"},"context":"","outcome_status":null,"persistent_id":"","id":76226634,"location_subtype":"","month":"2019-07"},{"category":"anti-social-behaviour","location_type":"Force","location":{"latitude":"51.512532","street":{"id":956259,"name":"On or near Little Essex Street"},"longitude":"-0.113088"},"context":"","outcome_status":null,"persistent_id":"","id":76226629,"location_subtype":"","month":"2019-07"},{"category":"anti-social-behaviour","location_type":"Force","location":{"latitude":"51.514710","street":{"id":956262,"name":"On or near Carey Street"},"longitude":"-0.114900"},"context":"","outcome_status":null,"persistent_id":"","id":76226630,"location_subtype":"","month":"2019-07"},{"category":"anti-social-behaviour","location_type":"Force","location":{"latitude":"51.512063","street":{"id":956266,"name":"On or near Arundel Street"},"longitude":"-0.114130"},"context":"","outcome_status":null,"persistent_id":"","id":76226631,"location_subtype":"","month":"2019-07"},{"category":"anti-social-behaviour","location_type":"Force","location":{"latitude":"51.512953","street":{"id":956253,"name":"On or near Strand"},"longitude":"-0.114670"},"context":"","outcome_status":null,"persistent_id":"","id":76226632,"location_subtype":"","month":"2019-07"},{"category":"anti-social-behaviour","location_type":"Force","location":{"latitude":"51.512953","street":{"id":956253,"name":"On or near Strand"},"longitude":"-0.114670"},"context":"","outcome_status":null,"persistent_id":"","id":76226633,"location_subtype":"","month":"2019-07"},{"category":"anti-social-behaviour","location_type":"Force","location":{"latitude":"51.512953","street":{"id":956253,"name":"On or near Strand"},"longitude":"-0.114670"},"context":"","outcome_status":null,"persistent_id":"","id":76226635,"location_subtype":"","month":"2019-07"},{"category":"anti-social-behaviour","location_type":"Force","location":{"latitude":"51.512953","street":{"id":956253,"name":"On or near Strand"},"longitude":"-0.114670"},"context":"","outcome_status":null,"persistent_id":"","id":76226636,"location_subtype":"","month":"2019-07"},{"category":"anti-social-behaviour","location_type":"Force","location":{"latitude":"51.512953","street":{"id":956253,"name":"On or near Strand"},"longitude":"-0.114670"},"context":"","outcome_status":null,"persistent_id":"","id":76226637,"location_subtype":"","month":"2019-07"},{"category":"anti-social-behaviour","location_type":"Force","location":{"latitude":"51.509232","street":{"id":956205,"name":"On or near A301"},"longitude":"-0.117576"},"context":"","outcome_status":null,"persistent_id":"","id":76226638,"location_subtype":"","month":"2019-07"},{"category":"anti-social-behaviour","location_type":"Force","location":{"latitude":"51.513101","street":{"id":956201,"name":"On or near Aldwych"},"longitude":"-0.117719"},"context":"","outcome_status":null,"persistent_id":"","id":76226639,"location_subtype":"","month":"2019-07"},{"category":"anti-social-behaviour","location_type":"Force","location":{"latitude":"51.510570","street":{"id":956171,"name":"On or near Lancaster Place"},"longitude":"-0.118559"},"context":"","outcome_status":null,"persistent_id":"","id":76226640,"location_subtype":"","month":"2019-07"},{"category":"anti-social-behaviour","location_type":"Force","location":{"latitude":"51.510893","street":{"id":956150,"name":"On or near Strand"},"longitude":"-0.120231"},"context":"","outcome_status":null,"persistent_id":"","id":76226674,"location_subtype":"","month":"2019-07"},{"category":"anti-social-behaviour","location_type":"Force","location":{"latitude":"51.513828","street":{"id":956176,"name":"On or near Kean Street"},"longitude":"-0.118741"},"context":"","outcome_status":null,"persistent_id":"","id":76226641,"location_subtype":"","month":"2019-07"},{"category":"anti-social-behaviour","location_type":"Force","location":{"latitude":"51.513828","street":{"id":956176,"name":"On or near Kean Street"},"longitude":"-0.118741"},"context":"","outcome_status":null,"persistent_id":"","id":76226642,"location_subtype":"","month":"2019-07"},{"category":"anti-social-behaviour","location_type":"Force","location":{"latitude":"51.513828","street":{"id":956176,"name":"On or near Kean Street"},"longitude":"-0.118741"},"context":"","outcome_status":null,"persistent_id":"","id":76226643,"location_subtype":"","month":"2019-07"},{"category":"anti-social-behaviour","location_type":"Force","location":{"latitude":"51.513828","street":{"id":956176,"name":"On or near Kean Street"},"longitude":"-0.118741"},"context":"","outcome_status":null,"persistent_id":"","id":76226644,"location_subtype":"","month":"2019-07"},{"category":"anti-social-behaviour","location_type":"Force","location":{"latitude":"51.513828","street":{"id":956176,"name":"On or near Kean Street"},"longitude":"-0.118741"},"context":"","outcome_status":null,"persistent_id":"","id":76226645,"location_subtype":"","month":"2019-07"},{"category":"anti-social-behaviour","location_type":"Force","location":{"latitude":"51.511914","street":{"id":956211,"name":"On or near Theatre/concert Hall"},"longitude":"-0.119425"},"context":"","outcome_status":null,"persistent_id":"","id":76226646,"location_subtype":"","month":"2019-07"},{"category":"anti-social-behaviour","location_type":"Force","location":{"latitude":"51.511914","street":{"id":956211,"name":"On or near Theatre/concert Hall"},"longitude":"-0.119425"},"context":"","outcome_status":null,"persistent_id":"","id":76226647,"location_subtype":"","month":"2019-07"},{"category":"anti-social-behaviour","location_type":"Force","location":{"latitude":"51.511914","street":{"id":956211,"name":"On or near Theatre/concert Hall"},"longitude":"-0.119425"},"context":"","outcome_status":null,"persistent_id":"","id":76226648,"location_subtype":"","month":"2019-07"},{"category":"anti-social-behaviour","location_type":"Force","location":{"latitude":"51.511914","street":{"id":956211,"name":"On or near Theatre/concert Hall"},"longitude":"-0.119425"},"context":"","outcome_status":null,"persistent_id":"","id":76226649,"location_subtype":"","month":"2019-07"},{"category":"anti-social-behaviour","location_type":"Force","location":{"latitude":"51.511914","street":{"id":956211,"name":"On or near Theatre/concert Hall"},"longitude":"-0.119425"},"context":"","outcome_status":null,"persistent_id":"","id":76226650,"location_subtype":"","month":"2019-07"},{"category":"anti-social-behaviour","location_type":"Force","location":{"latitude":"51.511914","street":{"id":956211,"name":"On or near Theatre/concert Hall"},"longitude":"-0.119425"},"context":"","outcome_status":null,"persistent_id":"","id":76226651,"location_subtype":"","month":"2019-07"},{"category":"anti-social-behaviour","location_type":"Force","location":{"latitude":"51.509040","street":{"id":956206,"name":"On or near Ferry Terminal"},"longitude":"-0.119616"},"context":"","outcome_status":null,"persistent_id":"","id":76226652,"location_subtype":"","month":"2019-07"},{"category":"anti-social-behaviour","location_type":"Force","location":{"latitude":"51.509040","street":{"id":956206,"name":"On or near Ferry Terminal"},"longitude":"-0.119616"},"context":"","outcome_status":null,"persistent_id":"","id":76226653,"location_subtype":"","month":"2019-07"},{"category":"anti-social-behaviour","location_type":"Force","location":{"latitude":"51.511315","street":{"id":956213,"name":"On or near Conference/exhibition Centre"},"longitude":"-0.118528"},"context":"","outcome_status":null,"persistent_id":"","id":76226654,"location_subtype":"","month":"2019-07"},{"category":"anti-social-behaviour","location_type":"Force","location":{"latitude":"51.511315","street":{"id":956213,"name":"On or near Conference/exhibition Centre"},"longitude":"-0.118528"},"context":"","outcome_status":null,"persistent_id":"","id":76226655,"location_subtype":"","month":"2019-07"},{"category":"anti-social-behaviour","location_type":"Force","location":{"latitude":"51.511315","street":{"id":956213,"name":"On or near Conference/exhibition Centre"},"longitude":"-0.118528"},"context":"","outcome_status":null,"persistent_id":"","id":76226656,"location_subtype":"","month":"2019-07"},{"category":"anti-social-behaviour","location_type":"Force","location":{"latitude":"51.511315","street":{"id":956213,"name":"On or near Conference/exhibition Centre"},"longitude":"-0.118528"},"context":"","outcome_status":null,"persistent_id":"","id":76226657,"location_subtype":"","month":"2019-07"},{"category":"anti-social-behaviour","location_type":"Force","location":{"latitude":"51.511315","street":{"id":956213,"name":"On or near Conference/exhibition Centre"},"longitude":"-0.118528"},"context":"","outcome_status":null,"persistent_id":"","id":76226658,"location_subtype":"","month":"2019-07"},{"category":"anti-social-behaviour","location_type":"Force","location":{"latitude":"51.511315","street":{"id":956213,"name":"On or near Conference/exhibition Centre"},"longitude":"-0.118528"},"context":"","outcome_status":null,"persistent_id":"","id":76226659,"location_subtype":"","month":"2019-07"},{"category":"anti-social-behaviour","location_type":"Force","location":{"latitude":"51.511315","street":{"id":956213,"name":"On or near Conference/exhibition Centre"},"longitude":"-0.118528"},"context":"","outcome_status":null,"persistent_id":"","id":76226660,"location_subtype":"","month":"2019-07"},{"category":"anti-social-behaviour","location_type":"Force","location":{"latitude":"51.511315","street":{"id":956213,"name":"On or near Conference/exhibition Centre"},"longitude":"-0.118528"},"context":"","outcome_status":null,"persistent_id":"","id":76226661,"location_subtype":"","month":"2019-07"},{"category":"anti-social-behaviour","location_type":"Force","location":{"latitude":"51.511315","street":{"id":956213,"name":"On or near Conference/exhibition Centre"},"longitude":"-0.118528"},"context":"","outcome_status":null,"persistent_id":"","id":76226662,"location_subtype":"","month":"2019-07"},{"category":"anti-social-behaviour","location_type":"Force","location":{"latitude":"51.511315","street":{"id":956213,"name":"On or near Conference/exhibition Centre"},"longitude":"-0.118528"},"context":"","outcome_status":null,"persistent_id":"","id":76226663,"location_subtype":"","month":"2019-07"},{"category":"anti-social-behaviour","location_type":"Force","location":{"latitude":"51.511315","street":{"id":956213,"name":"On or near Conference/exhibition Centre"},"longitude":"-0.118528"},"context":"","outcome_status":null,"persistent_id":"","id":76226664,"location_subtype":"","month":"2019-07"},{"category":"anti-social-behaviour","location_type":"Force","location":{"latitude":"51.511315","street":{"id":956213,"name":"On or near Conference/exhibition Centre"},"longitude":"-0.118528"},"context":"","outcome_status":null,"persistent_id":"","id":76226665,"location_subtype":"","month":"2019-07"},{"category":"anti-social-behaviour","location_type":"Force","location":{"latitude":"51.510761","street":{"id":956157,"name":"On or near Savoy Row"},"longitude":"-0.119833"},"context":"","outcome_status":null,"persistent_id":"","id":76226666,"location_subtype":"","month":"2019-07"},{"category":"anti-social-behaviour","location_type":"Force","location":{"latitude":"51.510761","street":{"id":956157,"name":"On or near Savoy Row"},"longitude":"-0.119833"},"context":"","outcome_status":null,"persistent_id":"","id":76226667,"location_subtype":"","month":"2019-07"},{"category":"anti-social-behaviour","location_type":"Force","location":{"latitude":"51.510761","street":{"id":956157,"name":"On or near Savoy Row"},"longitude":"-0.119833"},"context":"","outcome_status":null,"persistent_id":"","id":76226668,"location_subtype":"","month":"2019-07"},{"category":"anti-social-behaviour","location_type":"Force","location":{"latitude":"51.512427","street":{"id":956193,"name":"On or near Catherine Street"},"longitude":"-0.119966"},"context":"","outcome_status":null,"persistent_id":"","id":76226669,"location_subtype":"","month":"2019-07"},{"category":"anti-social-behaviour","location_type":"Force","location":{"latitude":"51.513734","street":{"id":956189,"name":"On or near Drury Lane"},"longitude":"-0.120158"},"context":"","outcome_status":null,"persistent_id":"","id":76226670,"location_subtype":"","month":"2019-07"},{"category":"anti-social-behaviour","location_type":"Force","location":{"latitude":"51.512427","street":{"id":956193,"name":"On or near Catherine Street"},"longitude":"-0.119966"},"context":"","outcome_status":null,"persistent_id":"","id":76226671,"location_subtype":"","month":"2019-07"},{"category":"anti-social-behaviour","location_type":"Force","location":{"latitude":"51.510893","street":{"id":956150,"name":"On or near Strand"},"longitude":"-0.120231"},"context":"","outcome_status":null,"persistent_id":"","id":76226672,"location_subtype":"","month":"2019-07"},{"category":"anti-social-behaviour","location_type":"Force","location":{"latitude":"51.510893","street":{"id":956150,"name":"On or near Strand"},"longitude":"-0.120231"},"context":"","outcome_status":null,"persistent_id":"","id":76226673,"location_subtype":"","month":"2019-07"},{"category":"anti-social-behaviour","location_type":"Force","location":{"latitude":"51.514639","street":{"id":956146,"name":"On or near Wild Street"},"longitude":"-0.120567"},"context":"","outcome_status":null,"persistent_id":"","id":76226675,"location_subtype":"","month":"2019-07"},{"category":"anti-social-behaviour","location_type":"Force","location":{"latitude":"51.514639","street":{"id":956146,"name":"On or near Wild Street"},"longitude":"-0.120567"},"context":"","outcome_status":null,"persistent_id":"","id":76226676,"location_subtype":"","month":"2019-07"},{"category":"anti-social-behaviour","location_type":"Force","location":{"latitude":"51.514639","street":{"id":956146,"name":"On or near Wild Street"},"longitude":"-0.120567"},"context":"","outcome_status":null,"persistent_id":"","id":76226677,"location_subtype":"","month":"2019-07"},{"category":"anti-social-behaviour","location_type":"Force","location":{"latitude":"51.513734","street":{"id":956189,"name":"On or near Drury Lane"},"longitude":"-0.120158"},"context":"","outcome_status":null,"persistent_id":"","id":76226678,"location_subtype":"","month":"2019-07"},{"category":"anti-social-behaviour","location_type":"Force","location":{"latitude":"51.513734","street":{"id":956189,"name":"On or near Drury Lane"},"longitude":"-0.120158"},"context":"","outcome_status":null,"persistent_id":"","id":76226679,"location_subtype":"","month":"2019-07"},{"category":"anti-social-behaviour","location_type":"Force","location":{"latitude":"51.513734","street":{"id":956189,"name":"On or near Drury Lane"},"longitude":"-0.120158"},"context":"","outcome_status":null,"persistent_id":"","id":76226680,"location_subtype":"","month":"2019-07"},{"category":"anti-social-behaviour","location_type":"Force","location":{"latitude":"51.513734","street":{"id":956189,"name":"On or near Drury Lane"},"longitude":"-0.120158"},"context":"","outcome_status":null,"persistent_id":"","id":76226681,"location_subtype":"","month":"2019-07"},{"category":"anti-social-behaviour","location_type":"Force","location":{"latitude":"51.512103","street":{"id":956149,"name":"On or near Tavistock Street"},"longitude":"-0.120556"},"context":"","outcome_status":null,"persistent_id":"","id":76226682,"location_subtype":"","month":"2019-07"},{"category":"anti-social-behaviour","location_type":"Force","location":{"latitude":"51.512899","street":{"id":956161,"name":"On or near Russell Street"},"longitude":"-0.120812"},"context":"","outcome_status":null,"persistent_id":"","id":76226683,"location_subtype":"","month":"2019-07"},{"category":"anti-social-behaviour","location_type":"Force","location":{"latitude":"51.512899","street":{"id":956161,"name":"On or near Russell Street"},"longitude":"-0.120812"},"context":"","outcome_status":null,"persistent_id":"","id":76226684,"location_subtype":"","month":"2019-07"},{"category":"anti-social-behaviour","location_type":"Force","location":{"latitude":"51.507133","street":{"id":956297,"name":"On or near Victoria Embankment"},"longitude":"-0.121813"},"context":"","outcome_status":null,"persistent_id":"","id":76226685,"location_subtype":"","month":"2019-07"},{"category":"anti-social-behaviour","location_type":"Force","location":{"latitude":"51.513311","street":{"id":956209,"name":"On or near Theatre/concert Hall"},"longitude":"-0.120737"},"context":"","outcome_status":null,"persistent_id":"","id":76226686,"location_subtype":"","month":"2019-07"},{"category":"anti-social-behaviour","location_type":"Force","location":{"latitude":"51.513306","street":{"id":956195,"name":"On or near Bow Street"},"longitude":"-0.122078"},"context":"","outcome_status":null,"persistent_id":"","id":76226687,"location_subtype":"","month":"2019-07"},{"category":"anti-social-behaviour","location_type":"Force","location":{"latitude":"51.513306","street":{"id":956195,"name":"On or near Bow Street"},"longitude":"-0.122078"},"context":"","outcome_status":null,"persistent_id":"","id":76226688,"location_subtype":"","month":"2019-07"},{"category":"anti-social-behaviour","location_type":"Force","location":{"latitude":"51.510362","street":{"id":956221,"name":"On or near Theatre/concert Hall"},"longitude":"-0.122415"},"context":"","outcome_status":null,"persistent_id":"","id":76226689,"location_subtype":"","month":"2019-07"},{"category":"anti-social-behaviour","location_type":"Force","location":{"latitude":"51.510362","street":{"id":956221,"name":"On or near Theatre/concert Hall"},"longitude":"-0.122415"},"context":"","outcome_status":null,"persistent_id":"","id":76226690,"location_subtype":"","month":"2019-07"},{"category":"anti-social-behaviour","location_type":"Force","location":{"latitude":"51.507078","street":{"id":956300,"name":"On or near Embankment Place"},"longitude":"-0.122925"},"context":"","outcome_status":null,"persistent_id":"","id":76215907,"location_subtype":"","month":"2019-07"},{"category":"anti-social-behaviour","location_type":"Force","location":{"latitude":"51.512720","street":{"id":956474,"name":"On or near Peter Street"},"longitude":"-0.134395"},"context":"","outcome_status":null,"persistent_id":"","id":76221375,"location_subtype":"","month":"2019-07"},{"category":"anti-social-behaviour","location_type":"Force","location":{"latitude":"51.498734","street":{"id":953301,"name":"On or near Police Station"},"longitude":"-0.133122"},"context":"","outcome_status":null,"persistent_id":"","id":76220452,"location_subtype":"","month":"2019-07"},{"category":"anti-social-behaviour","location_type":"Force","location":{"latitude":"51.499150","street":{"id":953263,"name":"On or near St Ermin's Hill"},"longitude":"-0.133797"},"context":"","outcome_status":null,"persistent_id":"","id":76220436,"location_subtype":"","month":"2019-07"},{"category":"anti-social-behaviour","location_type":"Force","location":{"latitude":"51.514295","street":{"id":956531,"name":"On or near Chapone Place"},"longitude":"-0.132789"},"context":"","outcome_status":null,"persistent_id":"","id":76220423,"location_subtype":"","month":"2019-07"},{"category":"anti-social-behaviour","location_type":"Force","location":{"latitude":"51.508123","street":{"id":956670,"name":"On or near Theatre/concert Hall"},"longitude":"-0.132032"},"context":"","outcome_status":null,"persistent_id":"","id":76220353,"location_subtype":"","month":"2019-07"},{"category":"anti-social-behaviour","location_type":"Force","location":{"latitude":"51.509037","street":{"id":956591,"name":"On or near Conference/exhibition Centre"},"longitude":"-0.130698"},"context":"","outcome_status":null,"persistent_id":"","id":76220308,"location_subtype":"","month":"2019-07"},{"category":"anti-social-behaviour","location_type":"Force","location":{"latitude":"51.514500","street":{"id":956453,"name":"On or near St Giles Passage"},"longitude":"-0.128139"},"context":"","outcome_status":null,"persistent_id":"","id":76219801,"location_subtype":"","month":"2019-07"},{"category":"anti-social-behaviour","location_type":"Force","location":{"latitude":"51.509902","street":{"id":956586,"name":"On or near Theatre/concert Hall"},"longitude":"-0.126310"},"context":"","outcome_status":null,"persistent_id":"","id":76215989,"location_subtype":"","month":"2019-07"},{"category":"anti-social-behaviour","location_type":"Force","location":{"latitude":"51.509495","street":{"id":956145,"name":"On or near William Iv Street"},"longitude":"-0.125563"},"context":"","outcome_status":null,"persistent_id":"","id":76215953,"location_subtype":"","month":"2019-07"},{"category":"anti-social-behaviour","location_type":"Force","location":{"latitude":"51.491921","street":{"id":953565,"name":"On or near Renfrew Road"},"longitude":"-0.105814"},"context":"","outcome_status":null,"persistent_id":"","id":76204470,"location_subtype":"","month":"2019-07"},{"category":"anti-social-behaviour","location_type":"Force","location":{"latitude":"51.498524","street":{"id":953431,"name":"On or near Westminster Bridge Road"},"longitude":"-0.107125"},"context":"","outcome_status":null,"persistent_id":"","id":76204472,"location_subtype":"","month":"2019-07"},{"category":"anti-social-behaviour","location_type":"Force","location":{"latitude":"51.506340","street":{"id":956280,"name":"On or near Paris Garden"},"longitude":"-0.106110"},"context":"","outcome_status":null,"persistent_id":"","id":76204473,"location_subtype":"","month":"2019-07"},{"category":"anti-social-behaviour","location_type":"Force","location":{"latitude":"51.503350","street":{"id":953517,"name":"On or near Further/higher Educational Building"},"longitude":"-0.105830"},"context":"","outcome_status":null,"persistent_id":"","id":76204490,"location_subtype":"","month":"2019-07"},{"category":"anti-social-behaviour","location_type":"Force","location":{"latitude":"51.491292","street":{"id":949539,"name":"On or near Kempsford Road"},"longitude":"-0.108087"},"context":"","outcome_status":null,"persistent_id":"","id":76204501,"location_subtype":"","month":"2019-07"},{"category":"anti-social-behaviour","location_type":"Force","location":{"latitude":"51.500960","street":{"id":953496,"name":"On or near Gray Street"},"longitude":"-0.107629"},"context":"","outcome_status":null,"persistent_id":"","id":76204511,"location_subtype":"","month":"2019-07"},{"category":"anti-social-behaviour","location_type":"Force","location":{"latitude":"51.498928","street":{"id":953448,"name":"On or near Gerridge Street"},"longitude":"-0.108160"},"context":"","outcome_status":null,"persistent_id":"","id":76204516,"location_subtype":"","month":"2019-07"},{"category":"anti-social-behaviour","location_type":"Force","location":{"latitude":"51.498928","street":{"id":953448,"name":"On or near Gerridge Street"},"longitude":"-0.108160"},"context":"","outcome_status":null,"persistent_id":"","id":76204812,"location_subtype":"","month":"2019-07"},{"category":"anti-social-behaviour","location_type":"Force","location":{"latitude":"51.503856","street":{"id":953467,"name":"On or near Windmill Walk"},"longitude":"-0.108763"},"context":"","outcome_status":null,"persistent_id":"","id":76204823,"location_subtype":"","month":"2019-07"},{"category":"anti-social-behaviour","location_type":"Force","location":{"latitude":"51.506673","street":{"id":956284,"name":"On or near Duchy Street"},"longitude":"-0.108877"},"context":"","outcome_status":null,"persistent_id":"","id":76204850,"location_subtype":"","month":"2019-07"},{"category":"anti-social-behaviour","location_type":"Force","location":{"latitude":"51.500466","street":{"id":953507,"name":"On or near Baylis Road"},"longitude":"-0.110964"},"context":"","outcome_status":null,"persistent_id":"","id":76204874,"location_subtype":"","month":"2019-07"},{"category":"anti-social-behaviour","location_type":"Force","location":{"latitude":"51.506344","street":{"id":956286,"name":"On or near Coin Street"},"longitude":"-0.110216"},"context":"","outcome_status":null,"persistent_id":"","id":76204877,"location_subtype":"","month":"2019-07"},{"category":"anti-social-behaviour","location_type":"Force","location":{"latitude":"51.506344","street":{"id":956286,"name":"On or near Coin Street"},"longitude":"-0.110216"},"context":"","outcome_status":null,"persistent_id":"","id":76204878,"location_subtype":"","month":"2019-07"},{"category":"anti-social-behaviour","location_type":"Force","location":{"latitude":"51.502410","street":{"id":953486,"name":"On or near Pear Place"},"longitude":"-0.110538"},"context":"","outcome_status":null,"persistent_id":"","id":76204885,"location_subtype":"","month":"2019-07"},{"category":"anti-social-behaviour","location_type":"Force","location":{"latitude":"51.498436","street":{"id":953432,"name":"On or near Westminster Bridge Road"},"longitude":"-0.111105"},"context":"","outcome_status":null,"persistent_id":"","id":76204889,"location_subtype":"","month":"2019-07"},{"category":"anti-social-behaviour","location_type":"Force","location":{"latitude":"51.498436","street":{"id":953432,"name":"On or near Westminster Bridge Road"},"longitude":"-0.111105"},"context":"","outcome_status":null,"persistent_id":"","id":76204890,"location_subtype":"","month":"2019-07"},{"category":"anti-social-behaviour","location_type":"Force","location":{"latitude":"51.498436","street":{"id":953432,"name":"On or near Westminster Bridge Road"},"longitude":"-0.111105"},"context":"","outcome_status":null,"persistent_id":"","id":76204891,"location_subtype":"","month":"2019-07"},{"category":"anti-social-behaviour","location_type":"Force","location":{"latitude":"51.490842","street":{"id":949562,"name":"On or near Petrol Station"},"longitude":"-0.111448"},"context":"","outcome_status":null,"persistent_id":"","id":76204896,"location_subtype":"","month":"2019-07"},{"category":"anti-social-behaviour","location_type":"Force","location":{"latitude":"51.490842","street":{"id":949562,"name":"On or near Petrol Station"},"longitude":"-0.111448"},"context":"","outcome_status":null,"persistent_id":"","id":76204897,"location_subtype":"","month":"2019-07"},{"category":"anti-social-behaviour","location_type":"Force","location":{"latitude":"51.504570","street":{"id":953499,"name":"On or near Cornwall Road"},"longitude":"-0.110650"},"context":"","outcome_status":null,"persistent_id":"","id":76204900,"location_subtype":"","month":"2019-07"},{"category":"anti-social-behaviour","location_type":"Force","location":{"latitude":"51.504570","street":{"id":953499,"name":"On or near Cornwall Road"},"longitude":"-0.110650"},"context":"","outcome_status":null,"persistent_id":"","id":76204901,"location_subtype":"","month":"2019-07"},{"category":"anti-social-behaviour","location_type":"Force","location":{"latitude":"51.504570","street":{"id":953499,"name":"On or near Cornwall Road"},"longitude":"-0.110650"},"context":"","outcome_status":null,"persistent_id":"","id":76204902,"location_subtype":"","month":"2019-07"},{"category":"anti-social-behaviour","location_type":"Force","location":{"latitude":"51.504570","street":{"id":953499,"name":"On or near Cornwall Road"},"longitude":"-0.110650"},"context":"","outcome_status":null,"persistent_id":"","id":76204903,"location_subtype":"","month":"2019-07"},{"category":"anti-social-behaviour","location_type":"Force","location":{"latitude":"51.504570","street":{"id":953499,"name":"On or near Cornwall Road"},"longitude":"-0.110650"},"context":"","outcome_status":null,"persistent_id":"","id":76204904,"location_subtype":"","month":"2019-07"},{"category":"anti-social-behaviour","location_type":"Force","location":{"latitude":"51.492512","street":{"id":953580,"name":"On or near Fitzalan Street"},"longitude":"-0.111797"},"context":"","outcome_status":null,"persistent_id":"","id":76204909,"location_subtype":"","month":"2019-07"},{"category":"anti-social-behaviour","location_type":"Force","location":{"latitude":"51.506837","street":{"id":956277,"name":"On or near Upper Ground"},"longitude":"-0.111824"},"context":"","outcome_status":null,"persistent_id":"","id":76204910,"location_subtype":"","month":"2019-07"},{"category":"anti-social-behaviour","location_type":"Force","location":{"latitude":"51.495756","street":{"id":953445,"name":"On or near Kennington Road"},"longitude":"-0.111115"},"context":"","outcome_status":null,"persistent_id":"","id":76204911,"location_subtype":"","month":"2019-07"},{"category":"anti-social-behaviour","location_type":"Force","location":{"latitude":"51.505218","street":{"id":956290,"name":"On or near Theatre/concert Hall"},"longitude":"-0.110090"},"context":"","outcome_status":null,"persistent_id":"","id":76204917,"location_subtype":"","month":"2019-07"},{"category":"anti-social-behaviour","location_type":"Force","location":{"latitude":"51.500076","street":{"id":953512,"name":"On or near Sports/recreation Area"},"longitude":"-0.111902"},"context":"","outcome_status":null,"persistent_id":"","id":76204930,"location_subtype":"","month":"2019-07"},{"category":"anti-social-behaviour","location_type":"Force","location":{"latitude":"51.500076","street":{"id":953512,"name":"On or near Sports/recreation Area"},"longitude":"-0.111902"},"context":"","outcome_status":null,"persistent_id":"","id":76204931,"location_subtype":"","month":"2019-07"},{"category":"anti-social-behaviour","location_type":"Force","location":{"latitude":"51.500076","street":{"id":953512,"name":"On or near Sports/recreation Area"},"longitude":"-0.111902"},"context":"","outcome_status":null,"persistent_id":"","id":76204932,"location_subtype":"","month":"2019-07"},{"category":"anti-social-behaviour","location_type":"Force","location":{"latitude":"51.500076","street":{"id":953512,"name":"On or near Sports/recreation Area"},"longitude":"-0.111902"},"context":"","outcome_status":null,"persistent_id":"","id":76204933,"location_subtype":"","month":"2019-07"},{"category":"anti-social-behaviour","location_type":"Force","location":{"latitude":"51.505203","street":{"id":956126,"name":"On or near Southwark Street"},"longitude":"-0.097511"},"context":"","outcome_status":null,"persistent_id":"","id":76203819,"location_subtype":"","month":"2019-07"},{"category":"anti-social-behaviour","location_type":"Force","location":{"latitude":"51.501776","street":{"id":953716,"name":"On or near Trundle Street"},"longitude":"-0.096876"},"context":"","outcome_status":null,"persistent_id":"","id":76203824,"location_subtype":"","month":"2019-07"},{"category":"anti-social-behaviour","location_type":"Force","location":{"latitude":"51.501776","street":{"id":953716,"name":"On or near Trundle Street"},"longitude":"-0.096876"},"context":"","outcome_status":null,"persistent_id":"","id":76203827,"location_subtype":"","month":"2019-07"},{"category":"anti-social-behaviour","location_type":"Force","location":{"latitude":"51.504736","street":{"id":953740,"name":"On or near Great Guildford Street"},"longitude":"-0.097012"},"context":"","outcome_status":null,"persistent_id":"","id":76203829,"location_subtype":"","month":"2019-07"},{"category":"anti-social-behaviour","location_type":"Force","location":{"latitude":"51.504736","street":{"id":953740,"name":"On or near Great Guildford Street"},"longitude":"-0.097012"},"context":"","outcome_status":null,"persistent_id":"","id":76203830,"location_subtype":"","month":"2019-07"},{"category":"anti-social-behaviour","location_type":"Force","location":{"latitude":"51.500894","street":{"id":953717,"name":"On or near Toulmin Street"},"longitude":"-0.096855"},"context":"","outcome_status":null,"persistent_id":"","id":76203850,"location_subtype":"","month":"2019-07"},{"category":"anti-social-behaviour","location_type":"Force","location":{"latitude":"51.505203","street":{"id":956126,"name":"On or near Southwark Street"},"longitude":"-0.097511"},"context":"","outcome_status":null,"persistent_id":"","id":76203866,"location_subtype":"","month":"2019-07"},{"category":"anti-social-behaviour","location_type":"Force","location":{"latitude":"51.503784","street":{"id":953715,"name":"On or near Union Street"},"longitude":"-0.098147"},"context":"","outcome_status":null,"persistent_id":"","id":76203867,"location_subtype":"","month":"2019-07"},{"category":"anti-social-behaviour","location_type":"Force","location":{"latitude":"51.504391","street":{"id":953714,"name":"On or near Wardens Grove"},"longitude":"-0.097314"},"context":"","outcome_status":null,"persistent_id":"","id":76203871,"location_subtype":"","month":"2019-07"},{"category":"anti-social-behaviour","location_type":"Force","location":{"latitude":"51.500439","street":{"id":953746,"name":"On or near Collinson Street"},"longitude":"-0.098747"},"context":"","outcome_status":null,"persistent_id":"","id":76203872,"location_subtype":"","month":"2019-07"},{"category":"anti-social-behaviour","location_type":"Force","location":{"latitude":"51.498281","street":{"id":953690,"name":"On or near Parking Area"},"longitude":"-0.098750"},"context":"","outcome_status":null,"persistent_id":"","id":76203891,"location_subtype":"","month":"2019-07"},{"category":"anti-social-behaviour","location_type":"Force","location":{"latitude":"51.498281","street":{"id":953690,"name":"On or near Parking Area"},"longitude":"-0.098750"},"context":"","outcome_status":null,"persistent_id":"","id":76203892,"location_subtype":"","month":"2019-07"},{"category":"anti-social-behaviour","location_type":"Force","location":{"latitude":"51.503238","street":{"id":953754,"name":"On or near Supermarket"},"longitude":"-0.098890"},"context":"","outcome_status":null,"persistent_id":"","id":76203897,"location_subtype":"","month":"2019-07"},{"category":"anti-social-behaviour","location_type":"Force","location":{"latitude":"51.500439","street":{"id":953746,"name":"On or near Collinson Street"},"longitude":"-0.098747"},"context":"","outcome_status":null,"persistent_id":"","id":76203901,"location_subtype":"","month":"2019-07"},{"category":"anti-social-behaviour","location_type":"Force","location":{"latitude":"51.503784","street":{"id":953715,"name":"On or near Union Street"},"longitude":"-0.098147"},"context":"","outcome_status":null,"persistent_id":"","id":76203903,"location_subtype":"","month":"2019-07"},{"category":"anti-social-behaviour","location_type":"Force","location":{"latitude":"51.503784","street":{"id":953715,"name":"On or near Union Street"},"longitude":"-0.098147"},"context":"","outcome_status":null,"persistent_id":"","id":76203904,"location_subtype":"","month":"2019-07"},{"category":"anti-social-behaviour","location_type":"Force","location":{"latitude":"51.503784","street":{"id":953715,"name":"On or near Union Street"},"longitude":"-0.098147"},"context":"","outcome_status":null,"persistent_id":"","id":76203905,"location_subtype":"","month":"2019-07"},{"category":"anti-social-behaviour","location_type":"Force","location":{"latitude":"51.495928","street":{"id":953689,"name":"On or near Pedestrian Subway"},"longitude":"-0.100073"},"context":"","outcome_status":null,"persistent_id":"","id":76203923,"location_subtype":"","month":"2019-07"},{"category":"anti-social-behaviour","location_type":"Force","location":{"latitude":"51.495928","street":{"id":953689,"name":"On or near Pedestrian Subway"},"longitude":"-0.100073"},"context":"","outcome_status":null,"persistent_id":"","id":76203924,"location_subtype":"","month":"2019-07"},{"category":"anti-social-behaviour","location_type":"Force","location":{"latitude":"51.495928","street":{"id":953689,"name":"On or near Pedestrian Subway"},"longitude":"-0.100073"},"context":"","outcome_status":null,"persistent_id":"","id":76203925,"location_subtype":"","month":"2019-07"},{"category":"anti-social-behaviour","location_type":"Force","location":{"latitude":"51.495928","street":{"id":953689,"name":"On or near Pedestrian Subway"},"longitude":"-0.100073"},"context":"","outcome_status":null,"persistent_id":"","id":76203926,"location_subtype":"","month":"2019-07"},{"category":"anti-social-behaviour","location_type":"Force","location":{"latitude":"51.495928","street":{"id":953689,"name":"On or near Pedestrian Subway"},"longitude":"-0.100073"},"context":"","outcome_status":null,"persistent_id":"","id":76203927,"location_subtype":"","month":"2019-07"},{"category":"anti-social-behaviour","location_type":"Force","location":{"latitude":"51.495928","street":{"id":953689,"name":"On or near Pedestrian Subway"},"longitude":"-0.100073"},"context":"","outcome_status":null,"persistent_id":"","id":76203928,"location_subtype":"","month":"2019-07"},{"category":"anti-social-behaviour","location_type":"Force","location":{"latitude":"51.501816","street":{"id":953753,"name":"On or near Sports/recreation Area"},"longitude":"-0.099943"},"context":"","outcome_status":null,"persistent_id":"","id":76203930,"location_subtype":"","month":"2019-07"},{"category":"anti-social-behaviour","location_type":"Force","location":{"latitude":"51.503248","street":{"id":953727,"name":"On or near Risborough Street"},"longitude":"-0.100042"},"context":"","outcome_status":null,"persistent_id":"","id":76203932,"location_subtype":"","month":"2019-07"},{"category":"anti-social-behaviour","location_type":"Force","location":{"latitude":"51.499757","street":{"id":953736,"name":"On or near King James Street"},"longitude":"-0.101628"},"context":"","outcome_status":null,"persistent_id":"","id":76203935,"location_subtype":"","month":"2019-07"},{"category":"anti-social-behaviour","location_type":"Force","location":{"latitude":"51.500320","street":{"id":953723,"name":"On or near Silex Street"},"longitude":"-0.101922"},"context":"","outcome_status":null,"persistent_id":"","id":76203936,"location_subtype":"","month":"2019-07"},{"category":"anti-social-behaviour","location_type":"Force","location":{"latitude":"51.497781","street":{"id":953702,"name":"On or near Keyworth Street"},"longitude":"-0.101768"},"context":"","outcome_status":null,"persistent_id":"","id":76203937,"location_subtype":"","month":"2019-07"},{"category":"anti-social-behaviour","location_type":"Force","location":{"latitude":"51.497781","street":{"id":953702,"name":"On or near Keyworth Street"},"longitude":"-0.101768"},"context":"","outcome_status":null,"persistent_id":"","id":76203938,"location_subtype":"","month":"2019-07"},{"category":"anti-social-behaviour","location_type":"Force","location":{"latitude":"51.501153","street":{"id":953726,"name":"On or near Rushworth Street"},"longitude":"-0.101757"},"context":"","outcome_status":null,"persistent_id":"","id":76204100,"location_subtype":"","month":"2019-07"},{"category":"anti-social-behaviour","location_type":"Force","location":{"latitude":"51.507420","street":{"id":956134,"name":"On or near Castle Yard"},"longitude":"-0.101655"},"context":"","outcome_status":null,"persistent_id":"","id":76204101,"location_subtype":"","month":"2019-07"},{"category":"anti-social-behaviour","location_type":"Force","location":{"latitude":"51.497050","street":{"id":953701,"name":"On or near London Road"},"longitude":"-0.102720"},"context":"","outcome_status":null,"persistent_id":"","id":76204103,"location_subtype":"","month":"2019-07"},{"category":"anti-social-behaviour","location_type":"Force","location":{"latitude":"51.495804","street":{"id":953697,"name":"On or near Princess Street"},"longitude":"-0.102383"},"context":"","outcome_status":null,"persistent_id":"","id":76204104,"location_subtype":"","month":"2019-07"},{"category":"anti-social-behaviour","location_type":"Force","location":{"latitude":"51.506064","street":{"id":956135,"name":"On or near Burrell Street"},"longitude":"-0.103470"},"context":"","outcome_status":null,"persistent_id":"","id":76204124,"location_subtype":"","month":"2019-07"},{"category":"anti-social-behaviour","location_type":"Force","location":{"latitude":"51.506064","street":{"id":956135,"name":"On or near Burrell Street"},"longitude":"-0.103470"},"context":"","outcome_status":null,"persistent_id":"","id":76204125,"location_subtype":"","month":"2019-07"},{"category":"anti-social-behaviour","location_type":"Force","location":{"latitude":"51.502369","street":{"id":953718,"name":"On or near Surrey Row"},"longitude":"-0.102975"},"context":"","outcome_status":null,"persistent_id":"","id":76204126,"location_subtype":"","month":"2019-07"},{"category":"anti-social-behaviour","location_type":"Force","location":{"latitude":"51.502369","street":{"id":953718,"name":"On or near Surrey Row"},"longitude":"-0.102975"},"context":"","outcome_status":null,"persistent_id":"","id":76204138,"location_subtype":"","month":"2019-07"},{"category":"anti-social-behaviour","location_type":"Force","location":{"latitude":"51.503219","street":{"id":953731,"name":"On or near Nelson Square"},"longitude":"-0.103271"},"context":"","outcome_status":null,"persistent_id":"","id":76204139,"location_subtype":"","month":"2019-07"},{"category":"anti-social-behaviour","location_type":"Force","location":{"latitude":"51.506064","street":{"id":956135,"name":"On or near Burrell Street"},"longitude":"-0.103470"},"context":"","outcome_status":null,"persistent_id":"","id":76204147,"location_subtype":"","month":"2019-07"},{"category":"anti-social-behaviour","location_type":"Force","location":{"latitude":"51.506064","street":{"id":956135,"name":"On or near Burrell Street"},"longitude":"-0.103470"},"context":"","outcome_status":null,"persistent_id":"","id":76204148,"location_subtype":"","month":"2019-07"},{"category":"anti-social-behaviour","location_type":"Force","location":{"latitude":"51.499219","street":{"id":953755,"name":"On or near Further/higher Educational Building"},"longitude":"-0.104474"},"context":"","outcome_status":null,"persistent_id":"","id":76204149,"location_subtype":"","month":"2019-07"},{"category":"anti-social-behaviour","location_type":"Force","location":{"latitude":"51.494405","street":{"id":953568,"name":"On or near Orient Street"},"longitude":"-0.105409"},"context":"","outcome_status":null,"persistent_id":"","id":76204150,"location_subtype":"","month":"2019-07"},{"category":"anti-social-behaviour","location_type":"Force","location":{"latitude":"51.506623","street":{"id":956671,"name":"On or near Theatre/concert Hall"},"longitude":"-0.127655"},"context":"","outcome_status":null,"persistent_id":"","id":76217743,"location_subtype":"","month":"2019-07"},{"category":"anti-social-behaviour","location_type":"Force","location":{"latitude":"51.510678","street":{"id":956451,"name":"On or near St Martin's Lane"},"longitude":"-0.126999"},"context":"","outcome_status":null,"persistent_id":"","id":76217744,"location_subtype":"","month":"2019-07"},{"category":"anti-social-behaviour","location_type":"Force","location":{"latitude":"51.510678","street":{"id":956451,"name":"On or near St Martin's Lane"},"longitude":"-0.126999"},"context":"","outcome_status":null,"persistent_id":"","id":76217745,"location_subtype":"","month":"2019-07"},{"category":"anti-social-behaviour","location_type":"Force","location":{"latitude":"51.511859","street":{"id":956505,"name":"On or near Great Newport Street"},"longitude":"-0.127772"},"context":"","outcome_status":null,"persistent_id":"","id":76217746,"location_subtype":"","month":"2019-07"},{"category":"anti-social-behaviour","location_type":"Force","location":{"latitude":"51.496780","street":{"id":953297,"name":"On or near Conference/exhibition Centre"},"longitude":"-0.128966"},"context":"","outcome_status":null,"persistent_id":"","id":76217749,"location_subtype":"","month":"2019-07"},{"category":"anti-social-behaviour","location_type":"Force","location":{"latitude":"51.496780","street":{"id":953297,"name":"On or near Conference/exhibition Centre"},"longitude":"-0.128966"},"context":"","outcome_status":null,"persistent_id":"","id":76217750,"location_subtype":"","month":"2019-07"},{"category":"anti-social-behaviour","location_type":"Force","location":{"latitude":"51.514500","street":{"id":956453,"name":"On or near St Giles Passage"},"longitude":"-0.128139"},"context":"","outcome_status":null,"persistent_id":"","id":76217751,"location_subtype":"","month":"2019-07"},{"category":"anti-social-behaviour","location_type":"Force","location":{"latitude":"51.507309","street":{"id":956645,"name":"On or near Pedestrian Subway"},"longitude":"-0.128348"},"context":"","outcome_status":null,"persistent_id":"","id":76217752,"location_subtype":"","month":"2019-07"},{"category":"anti-social-behaviour","location_type":"Force","location":{"latitude":"51.507309","street":{"id":956645,"name":"On or near Pedestrian Subway"},"longitude":"-0.128348"},"context":"","outcome_status":null,"persistent_id":"","id":76217753,"location_subtype":"","month":"2019-07"},{"category":"anti-social-behaviour","location_type":"Force","location":{"latitude":"51.507309","street":{"id":956645,"name":"On or near Pedestrian Subway"},"longitude":"-0.128348"},"context":"","outcome_status":null,"persistent_id":"","id":76217754,"location_subtype":"","month":"2019-07"},{"category":"anti-social-behaviour","location_type":"Force","location":{"latitude":"51.507309","street":{"id":956645,"name":"On or near Pedestrian Subway"},"longitude":"-0.128348"},"context":"","outcome_status":null,"persistent_id":"","id":76217755,"location_subtype":"","month":"2019-07"},{"category":"anti-social-behaviour","location_type":"Force","location":{"latitude":"51.507309","street":{"id":956645,"name":"On or near Pedestrian Subway"},"longitude":"-0.128348"},"context":"","outcome_status":null,"persistent_id":"","id":76217756,"location_subtype":"","month":"2019-07"},{"category":"anti-social-behaviour","location_type":"Force","location":{"latitude":"51.507309","street":{"id":956645,"name":"On or near Pedestrian Subway"},"longitude":"-0.128348"},"context":"","outcome_status":null,"persistent_id":"","id":76217757,"location_subtype":"","month":"2019-07"},{"category":"anti-social-behaviour","location_type":"Force","location":{"latitude":"51.511057","street":{"id":956592,"name":"On or near Theatre/concert Hall"},"longitude":"-0.128237"},"context":"","outcome_status":null,"persistent_id":"","id":76217759,"location_subtype":"","month":"2019-07"},{"category":"anti-social-behaviour","location_type":"Force","location":{"latitude":"51.511057","street":{"id":956592,"name":"On or near Theatre/concert Hall"},"longitude":"-0.128237"},"context":"","outcome_status":null,"persistent_id":"","id":76217760,"location_subtype":"","month":"2019-07"},{"category":"anti-social-behaviour","location_type":"Force","location":{"latitude":"51.512191","street":{"id":956602,"name":"On or near Shopping Area"},"longitude":"-0.128839"},"context":"","outcome_status":null,"persistent_id":"","id":76217761,"location_subtype":"","month":"2019-07"},{"category":"anti-social-behaviour","location_type":"Force","location":{"latitude":"51.512191","street":{"id":956602,"name":"On or near Shopping Area"},"longitude":"-0.128839"},"context":"","outcome_status":null,"persistent_id":"","id":76217762,"location_subtype":"","month":"2019-07"},{"category":"anti-social-behaviour","location_type":"Force","location":{"latitude":"51.512191","street":{"id":956602,"name":"On or near Shopping Area"},"longitude":"-0.128839"},"context":"","outcome_status":null,"persistent_id":"","id":76217763,"location_subtype":"","month":"2019-07"},{"category":"anti-social-behaviour","location_type":"Force","location":{"latitude":"51.512191","street":{"id":956602,"name":"On or near Shopping Area"},"longitude":"-0.128839"},"context":"","outcome_status":null,"persistent_id":"","id":76217764,"location_subtype":"","month":"2019-07"},{"category":"anti-social-behaviour","location_type":"Force","location":{"latitude":"51.512191","street":{"id":956602,"name":"On or near Shopping Area"},"longitude":"-0.128839"},"context":"","outcome_status":null,"persistent_id":"","id":76217765,"location_subtype":"","month":"2019-07"},{"category":"anti-social-behaviour","location_type":"Force","location":{"latitude":"51.512191","street":{"id":956602,"name":"On or near Shopping Area"},"longitude":"-0.128839"},"context":"","outcome_status":null,"persistent_id":"","id":76217766,"location_subtype":"","month":"2019-07"},{"category":"anti-social-behaviour","location_type":"Force","location":{"latitude":"51.490543","street":{"id":949732,"name":"On or near Further/higher Educational Building"},"longitude":"-0.129236"},"context":"","outcome_status":null,"persistent_id":"","id":76217767,"location_subtype":"","month":"2019-07"},{"category":"anti-social-behaviour","location_type":"Force","location":{"latitude":"51.512591","street":{"id":956603,"name":"On or near Further/higher Educational Building"},"longitude":"-0.128578"},"context":"","outcome_status":null,"persistent_id":"","id":76217768,"location_subtype":"","month":"2019-07"},{"category":"anti-social-behaviour","location_type":"Force","location":{"latitude":"51.512591","street":{"id":956603,"name":"On or near Further/higher Educational Building"},"longitude":"-0.128578"},"context":"","outcome_status":null,"persistent_id":"","id":76217769,"location_subtype":"","month":"2019-07"},{"category":"anti-social-behaviour","location_type":"Force","location":{"latitude":"51.512591","street":{"id":956603,"name":"On or near Further/higher Educational Building"},"longitude":"-0.128578"},"context":"","outcome_status":null,"persistent_id":"","id":76217770,"location_subtype":"","month":"2019-07"},{"category":"anti-social-behaviour","location_type":"Force","location":{"latitude":"51.489823","street":{"id":949689,"name":"On or near Ponsonby Place"},"longitude":"-0.129755"},"context":"","outcome_status":null,"persistent_id":"","id":76217771,"location_subtype":"","month":"2019-07"},{"category":"anti-social-behaviour","location_type":"Force","location":{"latitude":"51.510835","street":{"id":956562,"name":"On or near Nightclub"},"longitude":"-0.128996"},"context":"","outcome_status":null,"persistent_id":"","id":76217773,"location_subtype":"","month":"2019-07"},{"category":"anti-social-behaviour","location_type":"Force","location":{"latitude":"51.511715","street":{"id":956493,"name":"On or near Little Newport Street"},"longitude":"-0.128902"},"context":"","outcome_status":null,"persistent_id":"","id":76217774,"location_subtype":"","month":"2019-07"},{"category":"anti-social-behaviour","location_type":"Force","location":{"latitude":"51.507657","street":{"id":956660,"name":"On or near Cockspur Street"},"longitude":"-0.129890"},"context":"","outcome_status":null,"persistent_id":"","id":76217775,"location_subtype":"","month":"2019-07"},{"category":"anti-social-behaviour","location_type":"Force","location":{"latitude":"51.496909","street":{"id":953283,"name":"On or near Great Peter Street"},"longitude":"-0.129739"},"context":"","outcome_status":null,"persistent_id":"","id":76217780,"location_subtype":"","month":"2019-07"},{"category":"anti-social-behaviour","location_type":"Force","location":{"latitude":"51.514046","street":{"id":956529,"name":"On or near Charing Cross Road"},"longitude":"-0.129599"},"context":"","outcome_status":null,"persistent_id":"","id":76217781,"location_subtype":"","month":"2019-07"},{"category":"anti-social-behaviour","location_type":"Force","location":{"latitude":"51.514046","street":{"id":956529,"name":"On or near Charing Cross Road"},"longitude":"-0.129599"},"context":"","outcome_status":null,"persistent_id":"","id":76217782,"location_subtype":"","month":"2019-07"},{"category":"anti-social-behaviour","location_type":"Force","location":{"latitude":"51.514046","street":{"id":956529,"name":"On or near Charing Cross Road"},"longitude":"-0.129599"},"context":"","outcome_status":null,"persistent_id":"","id":76217783,"location_subtype":"","month":"2019-07"},{"category":"anti-social-behaviour","location_type":"Force","location":{"latitude":"51.514046","street":{"id":956529,"name":"On or near Charing Cross Road"},"longitude":"-0.129599"},"context":"","outcome_status":null,"persistent_id":"","id":76217784,"location_subtype":"","month":"2019-07"},{"category":"anti-social-behaviour","location_type":"Force","location":{"latitude":"51.514046","street":{"id":956529,"name":"On or near Charing Cross Road"},"longitude":"-0.129599"},"context":"","outcome_status":null,"persistent_id":"","id":76217785,"location_subtype":"","month":"2019-07"},{"category":"anti-social-behaviour","location_type":"Force","location":{"latitude":"51.508005","street":{"id":956644,"name":"On or near Pall Mall East"},"longitude":"-0.130265"},"context":"","outcome_status":null,"persistent_id":"","id":76217787,"location_subtype":"","month":"2019-07"},{"category":"anti-social-behaviour","location_type":"Force","location":{"latitude":"51.507657","street":{"id":956660,"name":"On or near Cockspur Street"},"longitude":"-0.129890"},"context":"","outcome_status":null,"persistent_id":"","id":76217788,"location_subtype":"","month":"2019-07"},{"category":"anti-social-behaviour","location_type":"Force","location":{"latitude":"51.507657","street":{"id":956660,"name":"On or near Cockspur Street"},"longitude":"-0.129890"},"context":"","outcome_status":null,"persistent_id":"","id":76217789,"location_subtype":"","month":"2019-07"},{"category":"anti-social-behaviour","location_type":"Force","location":{"latitude":"51.511783","street":{"id":956547,"name":"On or near Nightclub"},"longitude":"-0.129778"},"context":"","outcome_status":null,"persistent_id":"","id":76217790,"location_subtype":"","month":"2019-07"},{"category":"anti-social-behaviour","location_type":"Force","location":{"latitude":"51.511783","street":{"id":956547,"name":"On or near Nightclub"},"longitude":"-0.129778"},"context":"","outcome_status":null,"persistent_id":"","id":76217791,"location_subtype":"","month":"2019-07"},{"category":"anti-social-behaviour","location_type":"Force","location":{"latitude":"51.511783","street":{"id":956547,"name":"On or near Nightclub"},"longitude":"-0.129778"},"context":"","outcome_status":null,"persistent_id":"","id":76217792,"location_subtype":"","month":"2019-07"},{"category":"anti-social-behaviour","location_type":"Force","location":{"latitude":"51.507214","street":{"id":956661,"name":"On or near Cockspur Court"},"longitude":"-0.129721"},"context":"","outcome_status":null,"persistent_id":"","id":76217793,"location_subtype":"","month":"2019-07"},{"category":"anti-social-behaviour","location_type":"Force","location":{"latitude":"51.498328","street":{"id":953294,"name":"On or near Abbey Orchard Street"},"longitude":"-0.131338"},"context":"","outcome_status":null,"persistent_id":"","id":76217794,"location_subtype":"","month":"2019-07"},{"category":"anti-social-behaviour","location_type":"Force","location":{"latitude":"51.495874","street":{"id":953273,"name":"On or near Monck Street"},"longitude":"-0.130819"},"context":"","outcome_status":null,"persistent_id":"","id":76217795,"location_subtype":"","month":"2019-07"},{"category":"anti-social-behaviour","location_type":"Force","location":{"latitude":"51.493930","street":{"id":953410,"name":"On or near Page Street"},"longitude":"-0.129573"},"context":"","outcome_status":null,"persistent_id":"","id":76217796,"location_subtype":"","month":"2019-07"},{"category":"anti-social-behaviour","location_type":"Force","location":{"latitude":"51.513474","street":{"id":956484,"name":"On or near Moor Street"},"longitude":"-0.129824"},"context":"","outcome_status":null,"persistent_id":"","id":76217797,"location_subtype":"","month":"2019-07"},{"category":"anti-social-behaviour","location_type":"Force","location":{"latitude":"51.513474","street":{"id":956484,"name":"On or near Moor Street"},"longitude":"-0.129824"},"context":"","outcome_status":null,"persistent_id":"","id":76217798,"location_subtype":"","month":"2019-07"},{"category":"anti-social-behaviour","location_type":"Force","location":{"latitude":"51.513474","street":{"id":956484,"name":"On or near Moor Street"},"longitude":"-0.129824"},"context":"","outcome_status":null,"persistent_id":"","id":76217799,"location_subtype":"","month":"2019-07"},{"category":"anti-social-behaviour","location_type":"Force","location":{"latitude":"51.493930","street":{"id":953410,"name":"On or near Page Street"},"longitude":"-0.129573"},"context":"","outcome_status":null,"persistent_id":"","id":76217801,"location_subtype":"","month":"2019-07"},{"category":"anti-social-behaviour","location_type":"Force","location":{"latitude":"51.492970","street":{"id":953399,"name":"On or near Vincent Street"},"longitude":"-0.131398"},"context":"","outcome_status":null,"persistent_id":"","id":76217802,"location_subtype":"","month":"2019-07"},{"category":"anti-social-behaviour","location_type":"Force","location":{"latitude":"51.492970","street":{"id":953399,"name":"On or near Vincent Street"},"longitude":"-0.131398"},"context":"","outcome_status":null,"persistent_id":"","id":76217803,"location_subtype":"","month":"2019-07"},{"category":"anti-social-behaviour","location_type":"Force","location":{"latitude":"51.509428","street":{"id":956477,"name":"On or near Orange Street"},"longitude":"-0.130379"},"context":"","outcome_status":null,"persistent_id":"","id":76217804,"location_subtype":"","month":"2019-07"},{"category":"anti-social-behaviour","location_type":"Force","location":{"latitude":"51.510827","street":{"id":956579,"name":"On or near Nightclub"},"longitude":"-0.130697"},"context":"","outcome_status":null,"persistent_id":"","id":76217805,"location_subtype":"","month":"2019-07"},{"category":"anti-social-behaviour","location_type":"Force","location":{"latitude":"51.510827","street":{"id":956579,"name":"On or near Nightclub"},"longitude":"-0.130697"},"context":"","outcome_status":null,"persistent_id":"","id":76217806,"location_subtype":"","month":"2019-07"},{"category":"anti-social-behaviour","location_type":"Force","location":{"latitude":"51.510827","street":{"id":956579,"name":"On or near Nightclub"},"longitude":"-0.130697"},"context":"","outcome_status":null,"persistent_id":"","id":76217807,"location_subtype":"","month":"2019-07"},{"category":"anti-social-behaviour","location_type":"Force","location":{"latitude":"51.510827","street":{"id":956579,"name":"On or near Nightclub"},"longitude":"-0.130697"},"context":"","outcome_status":null,"persistent_id":"","id":76217808,"location_subtype":"","month":"2019-07"},{"category":"anti-social-behaviour","location_type":"Force","location":{"latitude":"51.510827","street":{"id":956579,"name":"On or near Nightclub"},"longitude":"-0.130697"},"context":"","outcome_status":null,"persistent_id":"","id":76217809,"location_subtype":"","month":"2019-07"},{"category":"anti-social-behaviour","location_type":"Force","location":{"latitude":"51.510827","street":{"id":956579,"name":"On or near Nightclub"},"longitude":"-0.130697"},"context":"","outcome_status":null,"persistent_id":"","id":76217810,"location_subtype":"","month":"2019-07"},{"category":"anti-social-behaviour","location_type":"Force","location":{"latitude":"51.510827","street":{"id":956579,"name":"On or near Nightclub"},"longitude":"-0.130697"},"context":"","outcome_status":null,"persistent_id":"","id":76217811,"location_subtype":"","month":"2019-07"},{"category":"anti-social-behaviour","location_type":"Force","location":{"latitude":"51.510827","street":{"id":956579,"name":"On or near Nightclub"},"longitude":"-0.130697"},"context":"","outcome_status":null,"persistent_id":"","id":76217812,"location_subtype":"","month":"2019-07"},{"category":"anti-social-behaviour","location_type":"Force","location":{"latitude":"51.508659","street":{"id":956583,"name":"On or near Conference/exhibition Centre"},"longitude":"-0.137443"},"context":"","outcome_status":null,"persistent_id":"","id":76217821,"location_subtype":"","month":"2019-07"},{"category":"anti-social-behaviour","location_type":"Force","location":{"latitude":"51.508659","street":{"id":956583,"name":"On or near Conference/exhibition Centre"},"longitude":"-0.137443"},"context":"","outcome_status":null,"persistent_id":"","id":76217822,"location_subtype":"","month":"2019-07"},{"category":"anti-social-behaviour","location_type":"Force","location":{"latitude":"51.508659","street":{"id":956583,"name":"On or near Conference/exhibition Centre"},"longitude":"-0.137443"},"context":"","outcome_status":null,"persistent_id":"","id":76217823,"location_subtype":"","month":"2019-07"},{"category":"anti-social-behaviour","location_type":"Force","location":{"latitude":"51.510586","street":{"id":956372,"name":"On or near Shopping Area"},"longitude":"-0.138748"},"context":"","outcome_status":null,"persistent_id":"","id":76217831,"location_subtype":"","month":"2019-07"},{"category":"anti-social-behaviour","location_type":"Force","location":{"latitude":"51.506932","street":{"id":956687,"name":"On or near Bury Street"},"longitude":"-0.138594"},"context":"","outcome_status":null,"persistent_id":"","id":76217832,"location_subtype":"","month":"2019-07"},{"category":"anti-social-behaviour","location_type":"Force","location":{"latitude":"51.509554","street":{"id":956316,"name":"On or near Sackville Street"},"longitude":"-0.138343"},"context":"","outcome_status":null,"persistent_id":"","id":76217834,"location_subtype":"","month":"2019-07"},{"category":"anti-social-behaviour","location_type":"Force","location":{"latitude":"51.509554","street":{"id":956316,"name":"On or near Sackville Street"},"longitude":"-0.138343"},"context":"","outcome_status":null,"persistent_id":"","id":76217835,"location_subtype":"","month":"2019-07"},{"category":"anti-social-behaviour","location_type":"Force","location":{"latitude":"51.495905","street":{"id":953353,"name":"On or near Ambrosden Avenue"},"longitude":"-0.139015"},"context":"","outcome_status":null,"persistent_id":"","id":76217836,"location_subtype":"","month":"2019-07"},{"category":"anti-social-behaviour","location_type":"Force","location":{"latitude":"51.510586","street":{"id":956372,"name":"On or near Shopping Area"},"longitude":"-0.138748"},"context":"","outcome_status":null,"persistent_id":"","id":76217841,"location_subtype":"","month":"2019-07"},{"category":"anti-social-behaviour","location_type":"Force","location":{"latitude":"51.499502","street":{"id":953349,"name":"On or near Buckingham Mews"},"longitude":"-0.141245"},"context":"","outcome_status":null,"persistent_id":"","id":76219098,"location_subtype":"","month":"2019-07"},{"category":"anti-social-behaviour","location_type":"Force","location":{"latitude":"51.515050","street":{"id":956712,"name":"On or near Shaftesbury Avenue"},"longitude":"-0.127108"},"context":"","outcome_status":null,"persistent_id":"","id":76219781,"location_subtype":"","month":"2019-07"},{"category":"anti-social-behaviour","location_type":"Force","location":{"latitude":"51.515681","street":{"id":956454,"name":"On or near St Giles High Street"},"longitude":"-0.128884"},"context":"","outcome_status":null,"persistent_id":"","id":76219791,"location_subtype":"","month":"2019-07"},{"category":"anti-social-behaviour","location_type":"Force","location":{"latitude":"51.515681","street":{"id":956454,"name":"On or near St Giles High Street"},"longitude":"-0.128884"},"context":"","outcome_status":null,"persistent_id":"","id":76219792,"location_subtype":"","month":"2019-07"},{"category":"anti-social-behaviour","location_type":"Force","location":{"latitude":"51.514500","street":{"id":956453,"name":"On or near St Giles Passage"},"longitude":"-0.128139"},"context":"","outcome_status":null,"persistent_id":"","id":76219800,"location_subtype":"","month":"2019-07"},{"category":"anti-social-behaviour","location_type":"Force","location":{"latitude":"51.514500","street":{"id":956453,"name":"On or near St Giles Passage"},"longitude":"-0.128139"},"context":"","outcome_status":null,"persistent_id":"","id":76219802,"location_subtype":"","month":"2019-07"},{"category":"anti-social-behaviour","location_type":"Force","location":{"latitude":"51.509037","street":{"id":956591,"name":"On or near Conference/exhibition Centre"},"longitude":"-0.130698"},"context":"","outcome_status":null,"persistent_id":"","id":76220307,"location_subtype":"","month":"2019-07"},{"category":"anti-social-behaviour","location_type":"Force","location":{"latitude":"51.509037","street":{"id":956591,"name":"On or near Conference/exhibition Centre"},"longitude":"-0.130698"},"context":"","outcome_status":null,"persistent_id":"","id":76220309,"location_subtype":"","month":"2019-07"},{"category":"anti-social-behaviour","location_type":"Force","location":{"latitude":"51.507097","street":{"id":956648,"name":"On or near Parking Area"},"longitude":"-0.130864"},"context":"","outcome_status":null,"persistent_id":"","id":76220310,"location_subtype":"","month":"2019-07"},{"category":"anti-social-behaviour","location_type":"Force","location":{"latitude":"51.507097","street":{"id":956648,"name":"On or near Parking Area"},"longitude":"-0.130864"},"context":"","outcome_status":null,"persistent_id":"","id":76220311,"location_subtype":"","month":"2019-07"},{"category":"anti-social-behaviour","location_type":"Force","location":{"latitude":"51.512984","street":{"id":956466,"name":"On or near Romilly Street"},"longitude":"-0.130680"},"context":"","outcome_status":null,"persistent_id":"","id":76220313,"location_subtype":"","month":"2019-07"},{"category":"anti-social-behaviour","location_type":"Force","location":{"latitude":"51.513904","street":{"id":956503,"name":"On or near Greek Street"},"longitude":"-0.130801"},"context":"","outcome_status":null,"persistent_id":"","id":76220317,"location_subtype":"","month":"2019-07"},{"category":"anti-social-behaviour","location_type":"Force","location":{"latitude":"51.507097","street":{"id":956648,"name":"On or near Parking Area"},"longitude":"-0.130864"},"context":"","outcome_status":null,"persistent_id":"","id":76220318,"location_subtype":"","month":"2019-07"},{"category":"anti-social-behaviour","location_type":"Force","location":{"latitude":"51.493702","street":{"id":953419,"name":"On or near Fynes Street"},"longitude":"-0.132809"},"context":"","outcome_status":null,"persistent_id":"","id":76220322,"location_subtype":"","month":"2019-07"},{"category":"anti-social-behaviour","location_type":"Force","location":{"latitude":"51.509634","street":{"id":956475,"name":"On or near Panton Street"},"longitude":"-0.131466"},"context":"","outcome_status":null,"persistent_id":"","id":76220333,"location_subtype":"","month":"2019-07"},{"category":"anti-social-behaviour","location_type":"Force","location":{"latitude":"51.509634","street":{"id":956475,"name":"On or near Panton Street"},"longitude":"-0.131466"},"context":"","outcome_status":null,"persistent_id":"","id":76220334,"location_subtype":"","month":"2019-07"},{"category":"anti-social-behaviour","location_type":"Force","location":{"latitude":"51.509999","street":{"id":956569,"name":"On or near Theatre/concert Hall"},"longitude":"-0.131797"},"context":"","outcome_status":null,"persistent_id":"","id":76220338,"location_subtype":"","month":"2019-07"},{"category":"anti-social-behaviour","location_type":"Force","location":{"latitude":"51.510856","street":{"id":956428,"name":"On or near Parking Area"},"longitude":"-0.131416"},"context":"","outcome_status":null,"persistent_id":"","id":76220339,"location_subtype":"","month":"2019-07"},{"category":"anti-social-behaviour","location_type":"Force","location":{"latitude":"51.497534","street":{"id":953272,"name":"On or near Old Pye Street"},"longitude":"-0.132278"},"context":"","outcome_status":null,"persistent_id":"","id":76220340,"location_subtype":"","month":"2019-07"},{"category":"anti-social-behaviour","location_type":"Force","location":{"latitude":"51.508926","street":{"id":956502,"name":"On or near Haymarket"},"longitude":"-0.132187"},"context":"","outcome_status":null,"persistent_id":"","id":76220356,"location_subtype":"","month":"2019-07"},{"category":"anti-social-behaviour","location_type":"Force","location":{"latitude":"51.507569","street":{"id":956649,"name":"On or near Waterloo Place"},"longitude":"-0.132833"},"context":"","outcome_status":null,"persistent_id":"","id":76220357,"location_subtype":"","month":"2019-07"},{"category":"anti-social-behaviour","location_type":"Force","location":{"latitude":"51.508926","street":{"id":956502,"name":"On or near Haymarket"},"longitude":"-0.132187"},"context":"","outcome_status":null,"persistent_id":"","id":76220359,"location_subtype":"","month":"2019-07"},{"category":"anti-social-behaviour","location_type":"Force","location":{"latitude":"51.509371","street":{"id":956452,"name":"On or near St James's Market"},"longitude":"-0.133033"},"context":"","outcome_status":null,"persistent_id":"","id":76220360,"location_subtype":"","month":"2019-07"},{"category":"anti-social-behaviour","location_type":"Force","location":{"latitude":"51.509371","street":{"id":956452,"name":"On or near St James's Market"},"longitude":"-0.133033"},"context":"","outcome_status":null,"persistent_id":"","id":76220361,"location_subtype":"","month":"2019-07"},{"category":"anti-social-behaviour","location_type":"Force","location":{"latitude":"51.509980","street":{"id":956543,"name":"On or near Motorway Service Area"},"longitude":"-0.132331"},"context":"","outcome_status":null,"persistent_id":"","id":76220362,"location_subtype":"","month":"2019-07"},{"category":"anti-social-behaviour","location_type":"Force","location":{"latitude":"51.509980","street":{"id":956543,"name":"On or near Motorway Service Area"},"longitude":"-0.132331"},"context":"","outcome_status":null,"persistent_id":"","id":76220363,"location_subtype":"","month":"2019-07"},{"category":"anti-social-behaviour","location_type":"Force","location":{"latitude":"51.509980","street":{"id":956543,"name":"On or near Motorway Service Area"},"longitude":"-0.132331"},"context":"","outcome_status":null,"persistent_id":"","id":76220364,"location_subtype":"","month":"2019-07"},{"category":"anti-social-behaviour","location_type":"Force","location":{"latitude":"51.509980","street":{"id":956543,"name":"On or near Motorway Service Area"},"longitude":"-0.132331"},"context":"","outcome_status":null,"persistent_id":"","id":76220365,"location_subtype":"","month":"2019-07"},{"category":"anti-social-behaviour","location_type":"Force","location":{"latitude":"51.509980","street":{"id":956543,"name":"On or near Motorway Service Area"},"longitude":"-0.132331"},"context":"","outcome_status":null,"persistent_id":"","id":76220421,"location_subtype":"","month":"2019-07"},{"category":"anti-social-behaviour","location_type":"Force","location":{"latitude":"51.509980","street":{"id":956543,"name":"On or near Motorway Service Area"},"longitude":"-0.132331"},"context":"","outcome_status":null,"persistent_id":"","id":76220422,"location_subtype":"","month":"2019-07"},{"category":"anti-social-behaviour","location_type":"Force","location":{"latitude":"51.514295","street":{"id":956531,"name":"On or near Chapone Place"},"longitude":"-0.132789"},"context":"","outcome_status":null,"persistent_id":"","id":76220424,"location_subtype":"","month":"2019-07"},{"category":"anti-social-behaviour","location_type":"Force","location":{"latitude":"51.514295","street":{"id":956531,"name":"On or near Chapone Place"},"longitude":"-0.132789"},"context":"","outcome_status":null,"persistent_id":"","id":76220425,"location_subtype":"","month":"2019-07"},{"category":"anti-social-behaviour","location_type":"Force","location":{"latitude":"51.514295","street":{"id":956531,"name":"On or near Chapone Place"},"longitude":"-0.132789"},"context":"","outcome_status":null,"persistent_id":"","id":76220426,"location_subtype":"","month":"2019-07"},{"category":"anti-social-behaviour","location_type":"Force","location":{"latitude":"51.514295","street":{"id":956531,"name":"On or near Chapone Place"},"longitude":"-0.132789"},"context":"","outcome_status":null,"persistent_id":"","id":76220429,"location_subtype":"","month":"2019-07"},{"category":"anti-social-behaviour","location_type":"Force","location":{"latitude":"51.512009","street":{"id":956584,"name":"On or near Theatre/concert Hall"},"longitude":"-0.133242"},"context":"","outcome_status":null,"persistent_id":"","id":76220437,"location_subtype":"","month":"2019-07"},{"category":"anti-social-behaviour","location_type":"Force","location":{"latitude":"51.508712","street":{"id":956532,"name":"On or near Carlton Street"},"longitude":"-0.133435"},"context":"","outcome_status":null,"persistent_id":"","id":76220438,"location_subtype":"","month":"2019-07"},{"category":"anti-social-behaviour","location_type":"Force","location":{"latitude":"51.492249","street":{"id":953416,"name":"On or near Hide Place"},"longitude":"-0.133574"},"context":"","outcome_status":null,"persistent_id":"","id":76220439,"location_subtype":"","month":"2019-07"},{"category":"anti-social-behaviour","location_type":"Force","location":{"latitude":"51.494401","street":{"id":953411,"name":"On or near Maunsel Street"},"longitude":"-0.133213"},"context":"","outcome_status":null,"persistent_id":"","id":76220440,"location_subtype":"","month":"2019-07"},{"category":"anti-social-behaviour","location_type":"Force","location":{"latitude":"51.494401","street":{"id":953411,"name":"On or near Maunsel Street"},"longitude":"-0.133213"},"context":"","outcome_status":null,"persistent_id":"","id":76220441,"location_subtype":"","month":"2019-07"},{"category":"anti-social-behaviour","location_type":"Force","location":{"latitude":"51.509371","street":{"id":956452,"name":"On or near St James's Market"},"longitude":"-0.133033"},"context":"","outcome_status":null,"persistent_id":"","id":76220443,"location_subtype":"","month":"2019-07"},{"category":"anti-social-behaviour","location_type":"Force","location":{"latitude":"51.496930","street":{"id":953705,"name":"On or near Garden Row"},"longitude":"-0.104151"},"context":"","outcome_status":null,"persistent_id":"","id":76204133,"location_subtype":"","month":"2019-07"},{"category":"anti-social-behaviour","location_type":"Force","location":{"latitude":"51.496930","street":{"id":953705,"name":"On or near Garden Row"},"longitude":"-0.104151"},"context":"","outcome_status":null,"persistent_id":"","id":76204134,"location_subtype":"","month":"2019-07"},{"category":"anti-social-behaviour","location_type":"Force","location":{"latitude":"51.513100","street":{"id":956169,"name":"On or near Long Acre"},"longitude":"-0.124406"},"context":"","outcome_status":null,"persistent_id":"","id":76215919,"location_subtype":"","month":"2019-07"},{"category":"anti-social-behaviour","location_type":"Force","location":{"latitude":"51.507473","street":{"id":956299,"name":"On or near Northumberland Street"},"longitude":"-0.125675"},"context":"","outcome_status":null,"persistent_id":"","id":76215979,"location_subtype":"","month":"2019-07"},{"category":"anti-social-behaviour","location_type":"Force","location":{"latitude":"51.513100","street":{"id":956169,"name":"On or near Long Acre"},"longitude":"-0.124406"},"context":"","outcome_status":null,"persistent_id":"","id":76215921,"location_subtype":"","month":"2019-07"},{"category":"anti-social-behaviour","location_type":"Force","location":{"latitude":"51.513100","street":{"id":956169,"name":"On or near Long Acre"},"longitude":"-0.124406"},"context":"","outcome_status":null,"persistent_id":"","id":76215922,"location_subtype":"","month":"2019-07"},{"category":"anti-social-behaviour","location_type":"Force","location":{"latitude":"51.513100","street":{"id":956169,"name":"On or near Long Acre"},"longitude":"-0.124406"},"context":"","outcome_status":null,"persistent_id":"","id":76215923,"location_subtype":"","month":"2019-07"},{"category":"anti-social-behaviour","location_type":"Force","location":{"latitude":"51.510490","street":{"id":956198,"name":"On or near Bedford Street"},"longitude":"-0.124254"},"context":"","outcome_status":null,"persistent_id":"","id":76215924,"location_subtype":"","month":"2019-07"},{"category":"anti-social-behaviour","location_type":"Force","location":{"latitude":"51.498266","street":{"id":953524,"name":"On or near Abingdon Street"},"longitude":"-0.125750"},"context":"","outcome_status":null,"persistent_id":"","id":76215925,"location_subtype":"","month":"2019-07"},{"category":"anti-social-behaviour","location_type":"Force","location":{"latitude":"51.498266","street":{"id":953524,"name":"On or near Abingdon Street"},"longitude":"-0.125750"},"context":"","outcome_status":null,"persistent_id":"","id":76215926,"location_subtype":"","month":"2019-07"},{"category":"anti-social-behaviour","location_type":"Force","location":{"latitude":"51.500969","street":{"id":953533,"name":"On or near Bridge Street"},"longitude":"-0.124933"},"context":"","outcome_status":null,"persistent_id":"","id":76215927,"location_subtype":"","month":"2019-07"},{"category":"anti-social-behaviour","location_type":"Force","location":{"latitude":"51.512165","street":{"id":956143,"name":"On or near Shopping Area"},"longitude":"-0.123825"},"context":"","outcome_status":null,"persistent_id":"","id":76215928,"location_subtype":"","month":"2019-07"},{"category":"anti-social-behaviour","location_type":"Force","location":{"latitude":"51.500969","street":{"id":953533,"name":"On or near Bridge Street"},"longitude":"-0.124933"},"context":"","outcome_status":null,"persistent_id":"","id":76215929,"location_subtype":"","month":"2019-07"},{"category":"anti-social-behaviour","location_type":"Force","location":{"latitude":"51.500969","street":{"id":953533,"name":"On or near Bridge Street"},"longitude":"-0.124933"},"context":"","outcome_status":null,"persistent_id":"","id":76215930,"location_subtype":"","month":"2019-07"},{"category":"anti-social-behaviour","location_type":"Force","location":{"latitude":"51.512505","street":{"id":956183,"name":"On or near Floral Street"},"longitude":"-0.124316"},"context":"","outcome_status":null,"persistent_id":"","id":76215932,"location_subtype":"","month":"2019-07"},{"category":"anti-social-behaviour","location_type":"Force","location":{"latitude":"51.508577","street":{"id":956212,"name":"On or near Nightclub"},"longitude":"-0.124419"},"context":"","outcome_status":null,"persistent_id":"","id":76215933,"location_subtype":"","month":"2019-07"},{"category":"anti-social-behaviour","location_type":"Force","location":{"latitude":"51.514017","street":{"id":956186,"name":"On or near Endell Street"},"longitude":"-0.123850"},"context":"","outcome_status":null,"persistent_id":"","id":76215934,"location_subtype":"","month":"2019-07"},{"category":"anti-social-behaviour","location_type":"Force","location":{"latitude":"51.508577","street":{"id":956212,"name":"On or near Nightclub"},"longitude":"-0.124419"},"context":"","outcome_status":null,"persistent_id":"","id":76215935,"location_subtype":"","month":"2019-07"},{"category":"anti-social-behaviour","location_type":"Force","location":{"latitude":"51.508577","street":{"id":956212,"name":"On or near Nightclub"},"longitude":"-0.124419"},"context":"","outcome_status":null,"persistent_id":"","id":76215936,"location_subtype":"","month":"2019-07"},{"category":"anti-social-behaviour","location_type":"Force","location":{"latitude":"51.509777","street":{"id":956227,"name":"On or near Police Station"},"longitude":"-0.124673"},"context":"","outcome_status":null,"persistent_id":"","id":76215940,"location_subtype":"","month":"2019-07"},{"category":"anti-social-behaviour","location_type":"Force","location":{"latitude":"51.508577","street":{"id":956212,"name":"On or near Nightclub"},"longitude":"-0.124419"},"context":"","outcome_status":null,"persistent_id":"","id":76215941,"location_subtype":"","month":"2019-07"},{"category":"anti-social-behaviour","location_type":"Force","location":{"latitude":"51.508577","street":{"id":956212,"name":"On or near Nightclub"},"longitude":"-0.124419"},"context":"","outcome_status":null,"persistent_id":"","id":76215942,"location_subtype":"","month":"2019-07"},{"category":"anti-social-behaviour","location_type":"Force","location":{"latitude":"51.507321","street":{"id":956301,"name":"On or near Craven Street"},"longitude":"-0.124601"},"context":"","outcome_status":null,"persistent_id":"","id":76215943,"location_subtype":"","month":"2019-07"},{"category":"anti-social-behaviour","location_type":"Force","location":{"latitude":"51.507321","street":{"id":956301,"name":"On or near Craven Street"},"longitude":"-0.124601"},"context":"","outcome_status":null,"persistent_id":"","id":76215944,"location_subtype":"","month":"2019-07"},{"category":"anti-social-behaviour","location_type":"Force","location":{"latitude":"51.511748","street":{"id":956551,"name":"On or near Theatre/concert Hall"},"longitude":"-0.125874"},"context":"","outcome_status":null,"persistent_id":"","id":76215980,"location_subtype":"","month":"2019-07"},{"category":"anti-social-behaviour","location_type":"Force","location":{"latitude":"51.507321","street":{"id":956301,"name":"On or near Craven Street"},"longitude":"-0.124601"},"context":"","outcome_status":null,"persistent_id":"","id":76215945,"location_subtype":"","month":"2019-07"},{"category":"anti-social-behaviour","location_type":"Force","location":{"latitude":"51.507321","street":{"id":956301,"name":"On or near Craven Street"},"longitude":"-0.124601"},"context":"","outcome_status":null,"persistent_id":"","id":76215946,"location_subtype":"","month":"2019-07"},{"category":"anti-social-behaviour","location_type":"Force","location":{"latitude":"51.507321","street":{"id":956301,"name":"On or near Craven Street"},"longitude":"-0.124601"},"context":"","outcome_status":null,"persistent_id":"","id":76215947,"location_subtype":"","month":"2019-07"},{"category":"anti-social-behaviour","location_type":"Force","location":{"latitude":"51.507321","street":{"id":956301,"name":"On or near Craven Street"},"longitude":"-0.124601"},"context":"","outcome_status":null,"persistent_id":"","id":76215948,"location_subtype":"","month":"2019-07"},{"category":"anti-social-behaviour","location_type":"Force","location":{"latitude":"51.506151","street":{"id":956298,"name":"On or near Scotland Place"},"longitude":"-0.125657"},"context":"","outcome_status":null,"persistent_id":"","id":76215949,"location_subtype":"","month":"2019-07"},{"category":"anti-social-behaviour","location_type":"Force","location":{"latitude":"51.506151","street":{"id":956298,"name":"On or near Scotland Place"},"longitude":"-0.125657"},"context":"","outcome_status":null,"persistent_id":"","id":76215950,"location_subtype":"","month":"2019-07"},{"category":"anti-social-behaviour","location_type":"Force","location":{"latitude":"51.506151","street":{"id":956298,"name":"On or near Scotland Place"},"longitude":"-0.125657"},"context":"","outcome_status":null,"persistent_id":"","id":76215951,"location_subtype":"","month":"2019-07"},{"category":"anti-social-behaviour","location_type":"Force","location":{"latitude":"51.510490","street":{"id":956199,"name":"On or near Bedford Court"},"longitude":"-0.125407"},"context":"","outcome_status":null,"persistent_id":"","id":76215952,"location_subtype":"","month":"2019-07"},{"category":"anti-social-behaviour","location_type":"Force","location":{"latitude":"51.507473","street":{"id":956299,"name":"On or near Northumberland Street"},"longitude":"-0.125675"},"context":"","outcome_status":null,"persistent_id":"","id":76215954,"location_subtype":"","month":"2019-07"},{"category":"anti-social-behaviour","location_type":"Force","location":{"latitude":"51.511631","street":{"id":956465,"name":"On or near Rose Street"},"longitude":"-0.125865"},"context":"","outcome_status":null,"persistent_id":"","id":76215955,"location_subtype":"","month":"2019-07"},{"category":"anti-social-behaviour","location_type":"Force","location":{"latitude":"51.511631","street":{"id":956465,"name":"On or near Rose Street"},"longitude":"-0.125865"},"context":"","outcome_status":null,"persistent_id":"","id":76215956,"location_subtype":"","month":"2019-07"},{"category":"anti-social-behaviour","location_type":"Force","location":{"latitude":"51.511631","street":{"id":956465,"name":"On or near Rose Street"},"longitude":"-0.125865"},"context":"","outcome_status":null,"persistent_id":"","id":76215957,"location_subtype":"","month":"2019-07"},{"category":"anti-social-behaviour","location_type":"Force","location":{"latitude":"51.511631","street":{"id":956465,"name":"On or near Rose Street"},"longitude":"-0.125865"},"context":"","outcome_status":null,"persistent_id":"","id":76215960,"location_subtype":"","month":"2019-07"},{"category":"anti-social-behaviour","location_type":"Force","location":{"latitude":"51.511631","street":{"id":956465,"name":"On or near Rose Street"},"longitude":"-0.125865"},"context":"","outcome_status":null,"persistent_id":"","id":76215961,"location_subtype":"","month":"2019-07"},{"category":"anti-social-behaviour","location_type":"Force","location":{"latitude":"51.501490","street":{"id":953532,"name":"On or near Canon Row"},"longitude":"-0.125503"},"context":"","outcome_status":null,"persistent_id":"","id":76215962,"location_subtype":"","month":"2019-07"},{"category":"anti-social-behaviour","location_type":"Force","location":{"latitude":"51.501490","street":{"id":953532,"name":"On or near Canon Row"},"longitude":"-0.125503"},"context":"","outcome_status":null,"persistent_id":"","id":76215963,"location_subtype":"","month":"2019-07"},{"category":"anti-social-behaviour","location_type":"Force","location":{"latitude":"51.503196","street":{"id":953311,"name":"On or near Downing Street"},"longitude":"-0.127032"},"context":"","outcome_status":null,"persistent_id":"","id":76215964,"location_subtype":"","month":"2019-07"},{"category":"anti-social-behaviour","location_type":"Force","location":{"latitude":"51.503196","street":{"id":953311,"name":"On or near Downing Street"},"longitude":"-0.127032"},"context":"","outcome_status":null,"persistent_id":"","id":76215965,"location_subtype":"","month":"2019-07"},{"category":"anti-social-behaviour","location_type":"Force","location":{"latitude":"51.503196","street":{"id":953311,"name":"On or near Downing Street"},"longitude":"-0.127032"},"context":"","outcome_status":null,"persistent_id":"","id":76215966,"location_subtype":"","month":"2019-07"},{"category":"anti-social-behaviour","location_type":"Force","location":{"latitude":"51.503196","street":{"id":953311,"name":"On or near Downing Street"},"longitude":"-0.127032"},"context":"","outcome_status":null,"persistent_id":"","id":76215967,"location_subtype":"","month":"2019-07"},{"category":"anti-social-behaviour","location_type":"Force","location":{"latitude":"51.503196","street":{"id":953311,"name":"On or near Downing Street"},"longitude":"-0.127032"},"context":"","outcome_status":null,"persistent_id":"","id":76215968,"location_subtype":"","month":"2019-07"},{"category":"anti-social-behaviour","location_type":"Force","location":{"latitude":"51.509312","street":{"id":956203,"name":"On or near Adelaide Street"},"longitude":"-0.125931"},"context":"","outcome_status":null,"persistent_id":"","id":76215969,"location_subtype":"","month":"2019-07"},{"category":"anti-social-behaviour","location_type":"Force","location":{"latitude":"51.508592","street":{"id":956519,"name":"On or near Duncannon Street"},"longitude":"-0.126479"},"context":"","outcome_status":null,"persistent_id":"","id":76215970,"location_subtype":"","month":"2019-07"},{"category":"anti-social-behaviour","location_type":"Force","location":{"latitude":"51.507473","street":{"id":956299,"name":"On or near Northumberland Street"},"longitude":"-0.125675"},"context":"","outcome_status":null,"persistent_id":"","id":76215990,"location_subtype":"","month":"2019-07"},{"category":"anti-social-behaviour","location_type":"Force","location":{"latitude":"51.508592","street":{"id":956519,"name":"On or near Duncannon Street"},"longitude":"-0.126479"},"context":"","outcome_status":null,"persistent_id":"","id":76215971,"location_subtype":"","month":"2019-07"},{"category":"anti-social-behaviour","location_type":"Force","location":{"latitude":"51.508592","street":{"id":956519,"name":"On or near Duncannon Street"},"longitude":"-0.126479"},"context":"","outcome_status":null,"persistent_id":"","id":76215972,"location_subtype":"","month":"2019-07"},{"category":"anti-social-behaviour","location_type":"Force","location":{"latitude":"51.511114","street":{"id":956482,"name":"On or near New Row"},"longitude":"-0.126160"},"context":"","outcome_status":null,"persistent_id":"","id":76215973,"location_subtype":"","month":"2019-07"},{"category":"anti-social-behaviour","location_type":"Force","location":{"latitude":"51.511114","street":{"id":956482,"name":"On or near New Row"},"longitude":"-0.126160"},"context":"","outcome_status":null,"persistent_id":"","id":76215974,"location_subtype":"","month":"2019-07"},{"category":"anti-social-behaviour","location_type":"Force","location":{"latitude":"51.511555","street":{"id":956512,"name":"On or near Garrick Street"},"longitude":"-0.126199"},