[{"category":"anti-social-behaviour","location_type":"Force","location":{"latitude":"51.516275","street":{"id":956555,"name":"On or near Theatre/concert Hall"},"longitude":"-0.126121"},"context":"","outcome_status":null,"persistent_id":"","id":77027371,"location_subtype":"","month":"2019-08"},{"category":"anti-social-behaviour","location_type":"Force","location":{"latitude":"51.498266","street":{"id":953524,"name":"On or near Abingdon Street"},"longitude":"-0.125750"},"context":"","outcome_status":null,"persistent_id":"","id":77024148,"location_subtype":"","month":"2019-08"},{"category":"anti-social-behaviour","location_type":"Force","location":{"latitude":"51.511555","street":{"id":956512,"name":"On or near Garrick Street"},"longitude":"-0.126199"},"context":"","outcome_status":null,"persistent_id":"","id":77024149,"location_subtype":"","month":"2019-08"},{"category":"anti-social-behaviour","location_type":"Force","location":{"latitude":"51.511555","street":{"id":956512,"name":"On or near Garrick Street"},"longitude":"-0.126199"},"context":"","outcome_status":null,"persistent_id":"","id":77024150,"location_subtype":"","month":"2019-08"},{"category":"anti-social-behaviour","location_type":"Force","location":{"latitude":"51.507473","street":{"id":956299,"name":"On or near Northumberland Street"},"longitude":"-0.125675"},"context":"","outcome_status":null,"persistent_id":"","id":77024151,"location_subtype":"","month":"2019-08"},{"category":"anti-social-behaviour","location_type":"Force","location":{"latitude":"51.507473","street":{"id":956299,"name":"On or near Northumberland Street"},"longitude":"-0.125675"},"context":"","outcome_status":null,"persistent_id":"","id":77024152,"location_subtype":"","month":"2019-08"},{"category":"anti-social-behaviour","location_type":"Force","location":{"latitude":"51.511748","street":{"id":956551,"name":"On or near Theatre/concert Hall"},"longitude":"-0.125874"},"context":"","outcome_status":null,"persistent_id":"","id":77024153,"location_subtype":"","month":"2019-08"},{"category":"anti-social-behaviour","location_type":"Force","location":{"latitude":"51.506712","street":{"id":956659,"name":"On or near Craig's Court"},"longitude":"-0.126974"},"context":"","outcome_status":null,"persistent_id":"","id":77024169,"location_subtype":"","month":"2019-08"},{"category":"anti-social-behaviour","location_type":"Force","location":{"latitude":"51.511143","street":{"id":956577,"name":"On or near Theatre/concert Hall"},"longitude":"-0.127427"},"context":"","outcome_status":null,"persistent_id":"","id":77024170,"location_subtype":"","month":"2019-08"},{"category":"anti-social-behaviour","location_type":"Force","location":{"latitude":"51.508592","street":{"id":956519,"name":"On or near Duncannon Street"},"longitude":"-0.126479"},"context":"","outcome_status":null,"persistent_id":"","id":77024171,"location_subtype":"","month":"2019-08"},{"category":"anti-social-behaviour","location_type":"Force","location":{"latitude":"51.506623","street":{"id":956671,"name":"On or near Theatre/concert Hall"},"longitude":"-0.127655"},"context":"","outcome_status":null,"persistent_id":"","id":77024172,"location_subtype":"","month":"2019-08"},{"category":"anti-social-behaviour","location_type":"Force","location":{"latitude":"51.511143","street":{"id":956577,"name":"On or near Theatre/concert Hall"},"longitude":"-0.127427"},"context":"","outcome_status":null,"persistent_id":"","id":77024173,"location_subtype":"","month":"2019-08"},{"category":"anti-social-behaviour","location_type":"Force","location":{"latitude":"51.492669","street":{"id":953413,"name":"On or near Marsham Street"},"longitude":"-0.128919"},"context":"","outcome_status":null,"persistent_id":"","id":77024825,"location_subtype":"","month":"2019-08"},{"category":"anti-social-behaviour","location_type":"Force","location":{"latitude":"51.511859","street":{"id":956505,"name":"On or near Great Newport Street"},"longitude":"-0.127772"},"context":"","outcome_status":null,"persistent_id":"","id":77024826,"location_subtype":"","month":"2019-08"},{"category":"anti-social-behaviour","location_type":"Force","location":{"latitude":"51.511057","street":{"id":956592,"name":"On or near Theatre/concert Hall"},"longitude":"-0.128237"},"context":"","outcome_status":null,"persistent_id":"","id":77024827,"location_subtype":"","month":"2019-08"},{"category":"anti-social-behaviour","location_type":"Force","location":{"latitude":"51.511057","street":{"id":956592,"name":"On or near Theatre/concert Hall"},"longitude":"-0.128237"},"context":"","outcome_status":null,"persistent_id":"","id":77024828,"location_subtype":"","month":"2019-08"},{"category":"anti-social-behaviour","location_type":"Force","location":{"latitude":"51.511057","street":{"id":956592,"name":"On or near Theatre/concert Hall"},"longitude":"-0.128237"},"context":"","outcome_status":null,"persistent_id":"","id":77024829,"location_subtype":"","month":"2019-08"},{"category":"anti-social-behaviour","location_type":"Force","location":{"latitude":"51.511057","street":{"id":956592,"name":"On or near Theatre/concert Hall"},"longitude":"-0.128237"},"context":"","outcome_status":null,"persistent_id":"","id":77024830,"location_subtype":"","month":"2019-08"},{"category":"anti-social-behaviour","location_type":"Force","location":{"latitude":"51.510835","street":{"id":956562,"name":"On or near Nightclub"},"longitude":"-0.128996"},"context":"","outcome_status":null,"persistent_id":"","id":77024846,"location_subtype":"","month":"2019-08"},{"category":"anti-social-behaviour","location_type":"Force","location":{"latitude":"51.510835","street":{"id":956562,"name":"On or near Nightclub"},"longitude":"-0.128996"},"context":"","outcome_status":null,"persistent_id":"","id":77024847,"location_subtype":"","month":"2019-08"},{"category":"anti-social-behaviour","location_type":"Force","location":{"latitude":"51.507657","street":{"id":956660,"name":"On or near Cockspur Street"},"longitude":"-0.129890"},"context":"","outcome_status":null,"persistent_id":"","id":77024848,"location_subtype":"","month":"2019-08"},{"category":"anti-social-behaviour","location_type":"Force","location":{"latitude":"51.507657","street":{"id":956660,"name":"On or near Cockspur Street"},"longitude":"-0.129890"},"context":"","outcome_status":null,"persistent_id":"","id":77024849,"location_subtype":"","month":"2019-08"},{"category":"anti-social-behaviour","location_type":"Force","location":{"latitude":"51.511715","street":{"id":956493,"name":"On or near Little Newport Street"},"longitude":"-0.128902"},"context":"","outcome_status":null,"persistent_id":"","id":77024850,"location_subtype":"","month":"2019-08"},{"category":"anti-social-behaviour","location_type":"Force","location":{"latitude":"51.507657","street":{"id":956660,"name":"On or near Cockspur Street"},"longitude":"-0.129890"},"context":"","outcome_status":null,"persistent_id":"","id":77024851,"location_subtype":"","month":"2019-08"},{"category":"anti-social-behaviour","location_type":"Force","location":{"latitude":"51.507657","street":{"id":956660,"name":"On or near Cockspur Street"},"longitude":"-0.129890"},"context":"","outcome_status":null,"persistent_id":"","id":77024852,"location_subtype":"","month":"2019-08"},{"category":"anti-social-behaviour","location_type":"Force","location":{"latitude":"51.493930","street":{"id":953410,"name":"On or near Page Street"},"longitude":"-0.129573"},"context":"","outcome_status":null,"persistent_id":"","id":77024853,"location_subtype":"","month":"2019-08"},{"category":"anti-social-behaviour","location_type":"Force","location":{"latitude":"51.493930","street":{"id":953410,"name":"On or near Page Street"},"longitude":"-0.129573"},"context":"","outcome_status":null,"persistent_id":"","id":77024854,"location_subtype":"","month":"2019-08"},{"category":"anti-social-behaviour","location_type":"Force","location":{"latitude":"51.513158","street":{"id":956593,"name":"On or near Theatre/concert Hall"},"longitude":"-0.129722"},"context":"","outcome_status":null,"persistent_id":"","id":77024855,"location_subtype":"","month":"2019-08"},{"category":"anti-social-behaviour","location_type":"Force","location":{"latitude":"51.513158","street":{"id":956593,"name":"On or near Theatre/concert Hall"},"longitude":"-0.129722"},"context":"","outcome_status":null,"persistent_id":"","id":77024856,"location_subtype":"","month":"2019-08"},{"category":"anti-social-behaviour","location_type":"Force","location":{"latitude":"51.513158","street":{"id":956593,"name":"On or near Theatre/concert Hall"},"longitude":"-0.129722"},"context":"","outcome_status":null,"persistent_id":"","id":77024857,"location_subtype":"","month":"2019-08"},{"category":"anti-social-behaviour","location_type":"Force","location":{"latitude":"51.496909","street":{"id":953283,"name":"On or near Great Peter Street"},"longitude":"-0.129739"},"context":"","outcome_status":null,"persistent_id":"","id":77024858,"location_subtype":"","month":"2019-08"},{"category":"anti-social-behaviour","location_type":"Force","location":{"latitude":"51.496909","street":{"id":953283,"name":"On or near Great Peter Street"},"longitude":"-0.129739"},"context":"","outcome_status":null,"persistent_id":"","id":77024859,"location_subtype":"","month":"2019-08"},{"category":"anti-social-behaviour","location_type":"Force","location":{"latitude":"51.496909","street":{"id":953283,"name":"On or near Great Peter Street"},"longitude":"-0.129739"},"context":"","outcome_status":null,"persistent_id":"","id":77024860,"location_subtype":"","month":"2019-08"},{"category":"anti-social-behaviour","location_type":"Force","location":{"latitude":"51.514046","street":{"id":956529,"name":"On or near Charing Cross Road"},"longitude":"-0.129599"},"context":"","outcome_status":null,"persistent_id":"","id":77024861,"location_subtype":"","month":"2019-08"},{"category":"anti-social-behaviour","location_type":"Force","location":{"latitude":"51.510827","street":{"id":956579,"name":"On or near Nightclub"},"longitude":"-0.130697"},"context":"","outcome_status":null,"persistent_id":"","id":77024879,"location_subtype":"","month":"2019-08"},{"category":"anti-social-behaviour","location_type":"Force","location":{"latitude":"51.510827","street":{"id":956579,"name":"On or near Nightclub"},"longitude":"-0.130697"},"context":"","outcome_status":null,"persistent_id":"","id":77024880,"location_subtype":"","month":"2019-08"},{"category":"anti-social-behaviour","location_type":"Force","location":{"latitude":"51.510827","street":{"id":956579,"name":"On or near Nightclub"},"longitude":"-0.130697"},"context":"","outcome_status":null,"persistent_id":"","id":77024881,"location_subtype":"","month":"2019-08"},{"category":"anti-social-behaviour","location_type":"Force","location":{"latitude":"51.510827","street":{"id":956579,"name":"On or near Nightclub"},"longitude":"-0.130697"},"context":"","outcome_status":null,"persistent_id":"","id":77024882,"location_subtype":"","month":"2019-08"},{"category":"anti-social-behaviour","location_type":"Force","location":{"latitude":"51.510827","street":{"id":956579,"name":"On or near Nightclub"},"longitude":"-0.130697"},"context":"","outcome_status":null,"persistent_id":"","id":77024883,"location_subtype":"","month":"2019-08"},{"category":"anti-social-behaviour","location_type":"Force","location":{"latitude":"51.510827","street":{"id":956579,"name":"On or near Nightclub"},"longitude":"-0.130697"},"context":"","outcome_status":null,"persistent_id":"","id":77024884,"location_subtype":"","month":"2019-08"},{"category":"anti-social-behaviour","location_type":"Force","location":{"latitude":"51.490621","street":{"id":949718,"name":"On or near Causton Street"},"longitude":"-0.131322"},"context":"","outcome_status":null,"persistent_id":"","id":77024885,"location_subtype":"","month":"2019-08"},{"category":"anti-social-behaviour","location_type":"Force","location":{"latitude":"51.495874","street":{"id":953273,"name":"On or near Monck Street"},"longitude":"-0.130819"},"context":"","outcome_status":null,"persistent_id":"","id":77024886,"location_subtype":"","month":"2019-08"},{"category":"anti-social-behaviour","location_type":"Force","location":{"latitude":"51.495874","street":{"id":953273,"name":"On or near Monck Street"},"longitude":"-0.130819"},"context":"","outcome_status":null,"persistent_id":"","id":77024887,"location_subtype":"","month":"2019-08"},{"category":"anti-social-behaviour","location_type":"Force","location":{"latitude":"51.495874","street":{"id":953273,"name":"On or near Monck Street"},"longitude":"-0.130819"},"context":"","outcome_status":null,"persistent_id":"","id":77024888,"location_subtype":"","month":"2019-08"},{"category":"anti-social-behaviour","location_type":"Force","location":{"latitude":"51.511128","street":{"id":956580,"name":"On or near Nightclub"},"longitude":"-0.129834"},"context":"","outcome_status":null,"persistent_id":"","id":77024889,"location_subtype":"","month":"2019-08"},{"category":"anti-social-behaviour","location_type":"Force","location":{"latitude":"51.511128","street":{"id":956580,"name":"On or near Nightclub"},"longitude":"-0.129834"},"context":"","outcome_status":null,"persistent_id":"","id":77024890,"location_subtype":"","month":"2019-08"},{"category":"anti-social-behaviour","location_type":"Force","location":{"latitude":"51.495307","street":{"id":953424,"name":"On or near Arneway Street"},"longitude":"-0.131908"},"context":"","outcome_status":null,"persistent_id":"","id":77024891,"location_subtype":"","month":"2019-08"},{"category":"anti-social-behaviour","location_type":"Force","location":{"latitude":"51.512384","street":{"id":956511,"name":"On or near Gerrard Place"},"longitude":"-0.130258"},"context":"","outcome_status":null,"persistent_id":"","id":77024892,"location_subtype":"","month":"2019-08"},{"category":"anti-social-behaviour","location_type":"Force","location":{"latitude":"51.509037","street":{"id":956591,"name":"On or near Conference/exhibition Centre"},"longitude":"-0.130698"},"context":"","outcome_status":null,"persistent_id":"","id":77024893,"location_subtype":"","month":"2019-08"},{"category":"anti-social-behaviour","location_type":"Force","location":{"latitude":"51.509037","street":{"id":956591,"name":"On or near Conference/exhibition Centre"},"longitude":"-0.130698"},"context":"","outcome_status":null,"persistent_id":"","id":77024894,"location_subtype":"","month":"2019-08"},{"category":"anti-social-behaviour","location_type":"Force","location":{"latitude":"51.510856","street":{"id":956428,"name":"On or near Parking Area"},"longitude":"-0.131416"},"context":"","outcome_status":null,"persistent_id":"","id":77024913,"location_subtype":"","month":"2019-08"},{"category":"anti-social-behaviour","location_type":"Force","location":{"latitude":"51.510856","street":{"id":956428,"name":"On or near Parking Area"},"longitude":"-0.131416"},"context":"","outcome_status":null,"persistent_id":"","id":77024914,"location_subtype":"","month":"2019-08"},{"category":"anti-social-behaviour","location_type":"Force","location":{"latitude":"51.510856","street":{"id":956428,"name":"On or near Parking Area"},"longitude":"-0.131416"},"context":"","outcome_status":null,"persistent_id":"","id":77024915,"location_subtype":"","month":"2019-08"},{"category":"anti-social-behaviour","location_type":"Force","location":{"latitude":"51.495424","street":{"id":953274,"name":"On or near Medway Street"},"longitude":"-0.131918"},"context":"","outcome_status":null,"persistent_id":"","id":77024916,"location_subtype":"","month":"2019-08"},{"category":"anti-social-behaviour","location_type":"Force","location":{"latitude":"51.495424","street":{"id":953274,"name":"On or near Medway Street"},"longitude":"-0.131918"},"context":"","outcome_status":null,"persistent_id":"","id":77024917,"location_subtype":"","month":"2019-08"},{"category":"anti-social-behaviour","location_type":"Force","location":{"latitude":"51.498328","street":{"id":953294,"name":"On or near Abbey Orchard Street"},"longitude":"-0.131338"},"context":"","outcome_status":null,"persistent_id":"","id":77024918,"location_subtype":"","month":"2019-08"},{"category":"anti-social-behaviour","location_type":"Force","location":{"latitude":"51.509514","street":{"id":956429,"name":"On or near Parking Area"},"longitude":"-0.131284"},"context":"","outcome_status":null,"persistent_id":"","id":77024919,"location_subtype":"","month":"2019-08"},{"category":"anti-social-behaviour","location_type":"Force","location":{"latitude":"51.493702","street":{"id":953419,"name":"On or near Fynes Street"},"longitude":"-0.132809"},"context":"","outcome_status":null,"persistent_id":"","id":77024920,"location_subtype":"","month":"2019-08"},{"category":"anti-social-behaviour","location_type":"Force","location":{"latitude":"51.497534","street":{"id":953272,"name":"On or near Old Pye Street"},"longitude":"-0.132278"},"context":"","outcome_status":null,"persistent_id":"","id":77024922,"location_subtype":"","month":"2019-08"},{"category":"anti-social-behaviour","location_type":"Force","location":{"latitude":"51.513664","street":{"id":956513,"name":"On or near Frith Street"},"longitude":"-0.131575"},"context":"","outcome_status":null,"persistent_id":"","id":77024923,"location_subtype":"","month":"2019-08"},{"category":"anti-social-behaviour","location_type":"Force","location":{"latitude":"51.513664","street":{"id":956513,"name":"On or near Frith Street"},"longitude":"-0.131575"},"context":"","outcome_status":null,"persistent_id":"","id":77024924,"location_subtype":"","month":"2019-08"},{"category":"anti-social-behaviour","location_type":"Force","location":{"latitude":"51.513664","street":{"id":956513,"name":"On or near Frith Street"},"longitude":"-0.131575"},"context":"","outcome_status":null,"persistent_id":"","id":77024925,"location_subtype":"","month":"2019-08"},{"category":"anti-social-behaviour","location_type":"Force","location":{"latitude":"51.513664","street":{"id":956513,"name":"On or near Frith Street"},"longitude":"-0.131575"},"context":"","outcome_status":null,"persistent_id":"","id":77024926,"location_subtype":"","month":"2019-08"},{"category":"anti-social-behaviour","location_type":"Force","location":{"latitude":"51.507569","street":{"id":956649,"name":"On or near Waterloo Place"},"longitude":"-0.132833"},"context":"","outcome_status":null,"persistent_id":"","id":77024928,"location_subtype":"","month":"2019-08"},{"category":"anti-social-behaviour","location_type":"Force","location":{"latitude":"51.507569","street":{"id":956649,"name":"On or near Waterloo Place"},"longitude":"-0.132833"},"context":"","outcome_status":null,"persistent_id":"","id":77024929,"location_subtype":"","month":"2019-08"},{"category":"anti-social-behaviour","location_type":"Force","location":{"latitude":"51.491668","street":{"id":949717,"name":"On or near Chapter Street"},"longitude":"-0.133267"},"context":"","outcome_status":null,"persistent_id":"","id":77024947,"location_subtype":"","month":"2019-08"},{"category":"anti-social-behaviour","location_type":"Force","location":{"latitude":"51.491668","street":{"id":949717,"name":"On or near Chapter Street"},"longitude":"-0.133267"},"context":"","outcome_status":null,"persistent_id":"","id":77024948,"location_subtype":"","month":"2019-08"},{"category":"anti-social-behaviour","location_type":"Force","location":{"latitude":"51.505801","street":{"id":956666,"name":"On or near Carlton Gardens"},"longitude":"-0.133583"},"context":"","outcome_status":null,"persistent_id":"","id":77024950,"location_subtype":"","month":"2019-08"},{"category":"anti-social-behaviour","location_type":"Force","location":{"latitude":"51.505801","street":{"id":956666,"name":"On or near Carlton Gardens"},"longitude":"-0.133583"},"context":"","outcome_status":null,"persistent_id":"","id":77024951,"location_subtype":"","month":"2019-08"},{"category":"anti-social-behaviour","location_type":"Force","location":{"latitude":"51.505801","street":{"id":956666,"name":"On or near Carlton Gardens"},"longitude":"-0.133583"},"context":"","outcome_status":null,"persistent_id":"","id":77024952,"location_subtype":"","month":"2019-08"},{"category":"anti-social-behaviour","location_type":"Force","location":{"latitude":"51.495745","street":{"id":953256,"name":"On or near Parking Area"},"longitude":"-0.132308"},"context":"","outcome_status":null,"persistent_id":"","id":77024953,"location_subtype":"","month":"2019-08"},{"category":"anti-social-behaviour","location_type":"Force","location":{"latitude":"51.491248","street":{"id":949711,"name":"On or near Douglas Street"},"longitude":"-0.133414"},"context":"","outcome_status":null,"persistent_id":"","id":77024955,"location_subtype":"","month":"2019-08"},{"category":"anti-social-behaviour","location_type":"Force","location":{"latitude":"51.509980","street":{"id":956543,"name":"On or near Motorway Service Area"},"longitude":"-0.132331"},"context":"","outcome_status":null,"persistent_id":"","id":77024956,"location_subtype":"","month":"2019-08"},{"category":"anti-social-behaviour","location_type":"Force","location":{"latitude":"51.510893","street":{"id":956463,"name":"On or near Rupert Street"},"longitude":"-0.132639"},"context":"","outcome_status":null,"persistent_id":"","id":77024957,"location_subtype":"","month":"2019-08"},{"category":"anti-social-behaviour","location_type":"Force","location":{"latitude":"51.513096","street":{"id":956537,"name":"On or near Bourchier Street"},"longitude":"-0.132593"},"context":"","outcome_status":null,"persistent_id":"","id":77024958,"location_subtype":"","month":"2019-08"},{"category":"anti-social-behaviour","location_type":"Force","location":{"latitude":"51.513096","street":{"id":956537,"name":"On or near Bourchier Street"},"longitude":"-0.132593"},"context":"","outcome_status":null,"persistent_id":"","id":77024959,"location_subtype":"","month":"2019-08"},{"category":"anti-social-behaviour","location_type":"Force","location":{"latitude":"51.513096","street":{"id":956537,"name":"On or near Bourchier Street"},"longitude":"-0.132593"},"context":"","outcome_status":null,"persistent_id":"","id":77024960,"location_subtype":"","month":"2019-08"},{"category":"anti-social-behaviour","location_type":"Force","location":{"latitude":"51.513096","street":{"id":956537,"name":"On or near Bourchier Street"},"longitude":"-0.132593"},"context":"","outcome_status":null,"persistent_id":"","id":77024961,"location_subtype":"","month":"2019-08"},{"category":"anti-social-behaviour","location_type":"Force","location":{"latitude":"51.513096","street":{"id":956537,"name":"On or near Bourchier Street"},"longitude":"-0.132593"},"context":"","outcome_status":null,"persistent_id":"","id":77024962,"location_subtype":"","month":"2019-08"},{"category":"anti-social-behaviour","location_type":"Force","location":{"latitude":"51.513096","street":{"id":956537,"name":"On or near Bourchier Street"},"longitude":"-0.132593"},"context":"","outcome_status":null,"persistent_id":"","id":77024963,"location_subtype":"","month":"2019-08"},{"category":"anti-social-behaviour","location_type":"Force","location":{"latitude":"51.507569","street":{"id":956649,"name":"On or near Waterloo Place"},"longitude":"-0.132833"},"context":"","outcome_status":null,"persistent_id":"","id":77024964,"location_subtype":"","month":"2019-08"},{"category":"anti-social-behaviour","location_type":"Force","location":{"latitude":"51.514295","street":{"id":956531,"name":"On or near Chapone Place"},"longitude":"-0.132789"},"context":"","outcome_status":null,"persistent_id":"","id":77024982,"location_subtype":"","month":"2019-08"},{"category":"anti-social-behaviour","location_type":"Force","location":{"latitude":"51.514295","street":{"id":956531,"name":"On or near Chapone Place"},"longitude":"-0.132789"},"context":"","outcome_status":null,"persistent_id":"","id":77024983,"location_subtype":"","month":"2019-08"},{"category":"anti-social-behaviour","location_type":"Force","location":{"latitude":"51.514295","street":{"id":956531,"name":"On or near Chapone Place"},"longitude":"-0.132789"},"context":"","outcome_status":null,"persistent_id":"","id":77024984,"location_subtype":"","month":"2019-08"},{"category":"anti-social-behaviour","location_type":"Force","location":{"latitude":"51.494401","street":{"id":953411,"name":"On or near Maunsel Street"},"longitude":"-0.133213"},"context":"","outcome_status":null,"persistent_id":"","id":77024985,"location_subtype":"","month":"2019-08"},{"category":"anti-social-behaviour","location_type":"Force","location":{"latitude":"51.492249","street":{"id":953416,"name":"On or near Hide Place"},"longitude":"-0.133574"},"context":"","outcome_status":null,"persistent_id":"","id":77024989,"location_subtype":"","month":"2019-08"},{"category":"anti-social-behaviour","location_type":"Force","location":{"latitude":"51.494401","street":{"id":953411,"name":"On or near Maunsel Street"},"longitude":"-0.133213"},"context":"","outcome_status":null,"persistent_id":"","id":77024990,"location_subtype":"","month":"2019-08"},{"category":"anti-social-behaviour","location_type":"Force","location":{"latitude":"51.505801","street":{"id":956666,"name":"On or near Carlton Gardens"},"longitude":"-0.133583"},"context":"","outcome_status":null,"persistent_id":"","id":77024991,"location_subtype":"","month":"2019-08"},{"category":"anti-social-behaviour","location_type":"Force","location":{"latitude":"51.498734","street":{"id":953301,"name":"On or near Police Station"},"longitude":"-0.133122"},"context":"","outcome_status":null,"persistent_id":"","id":77024992,"location_subtype":"","month":"2019-08"},{"category":"anti-social-behaviour","location_type":"Force","location":{"latitude":"51.495905","street":{"id":953353,"name":"On or near Ambrosden Avenue"},"longitude":"-0.139015"},"context":"","outcome_status":null,"persistent_id":"","id":77025692,"location_subtype":"","month":"2019-08"},{"category":"anti-social-behaviour","location_type":"Force","location":{"latitude":"51.495905","street":{"id":953353,"name":"On or near Ambrosden Avenue"},"longitude":"-0.139015"},"context":"","outcome_status":null,"persistent_id":"","id":77025693,"location_subtype":"","month":"2019-08"},{"category":"anti-social-behaviour","location_type":"Force","location":{"latitude":"51.495905","street":{"id":953353,"name":"On or near Ambrosden Avenue"},"longitude":"-0.139015"},"context":"","outcome_status":null,"persistent_id":"","id":77025694,"location_subtype":"","month":"2019-08"},{"category":"anti-social-behaviour","location_type":"Force","location":{"latitude":"51.512009","street":{"id":956584,"name":"On or near Theatre/concert Hall"},"longitude":"-0.133242"},"context":"","outcome_status":null,"persistent_id":"","id":77026462,"location_subtype":"","month":"2019-08"},{"category":"anti-social-behaviour","location_type":"Force","location":{"latitude":"51.508712","street":{"id":956532,"name":"On or near Carlton Street"},"longitude":"-0.133435"},"context":"","outcome_status":null,"persistent_id":"","id":77026463,"location_subtype":"","month":"2019-08"},{"category":"anti-social-behaviour","location_type":"Force","location":{"latitude":"51.511238","street":{"id":956559,"name":"On or near Theatre/concert Hall"},"longitude":"-0.133922"},"context":"","outcome_status":null,"persistent_id":"","id":77026466,"location_subtype":"","month":"2019-08"},{"category":"anti-social-behaviour","location_type":"Force","location":{"latitude":"51.511238","street":{"id":956559,"name":"On or near Theatre/concert Hall"},"longitude":"-0.133922"},"context":"","outcome_status":null,"persistent_id":"","id":77026467,"location_subtype":"","month":"2019-08"},{"category":"anti-social-behaviour","location_type":"Force","location":{"latitude":"51.511238","street":{"id":956559,"name":"On or near Theatre/concert Hall"},"longitude":"-0.133922"},"context":"","outcome_status":null,"persistent_id":"","id":77026468,"location_subtype":"","month":"2019-08"},{"category":"anti-social-behaviour","location_type":"Force","location":{"latitude":"51.511238","street":{"id":956559,"name":"On or near Theatre/concert Hall"},"longitude":"-0.133922"},"context":"","outcome_status":null,"persistent_id":"","id":77026469,"location_subtype":"","month":"2019-08"},{"category":"anti-social-behaviour","location_type":"Force","location":{"latitude":"51.511238","street":{"id":956559,"name":"On or near Theatre/concert Hall"},"longitude":"-0.133922"},"context":"","outcome_status":null,"persistent_id":"","id":77026470,"location_subtype":"","month":"2019-08"},{"category":"anti-social-behaviour","location_type":"Force","location":{"latitude":"51.511238","street":{"id":956559,"name":"On or near Theatre/concert Hall"},"longitude":"-0.133922"},"context":"","outcome_status":null,"persistent_id":"","id":77026471,"location_subtype":"","month":"2019-08"},{"category":"anti-social-behaviour","location_type":"Force","location":{"latitude":"51.510757","street":{"id":956523,"name":"On or near Denman Street"},"longitude":"-0.134792"},"context":"","outcome_status":null,"persistent_id":"","id":77026472,"location_subtype":"","month":"2019-08"},{"category":"anti-social-behaviour","location_type":"Force","location":{"latitude":"51.516523","street":{"id":956236,"name":"On or near Remnant Street"},"longitude":"-0.119135"},"context":"","outcome_status":null,"persistent_id":"","id":77026626,"location_subtype":"","month":"2019-08"},{"category":"anti-social-behaviour","location_type":"Force","location":{"latitude":"51.516523","street":{"id":956236,"name":"On or near Remnant Street"},"longitude":"-0.119135"},"context":"","outcome_status":null,"persistent_id":"","id":77026627,"location_subtype":"","month":"2019-08"},{"category":"anti-social-behaviour","location_type":"Force","location":{"latitude":"51.516523","street":{"id":956236,"name":"On or near Remnant Street"},"longitude":"-0.119135"},"context":"","outcome_status":null,"persistent_id":"","id":77026628,"location_subtype":"","month":"2019-08"},{"category":"anti-social-behaviour","location_type":"Force","location":{"latitude":"51.516523","street":{"id":956236,"name":"On or near Remnant Street"},"longitude":"-0.119135"},"context":"","outcome_status":null,"persistent_id":"","id":77026629,"location_subtype":"","month":"2019-08"},{"category":"anti-social-behaviour","location_type":"Force","location":{"latitude":"51.516523","street":{"id":956236,"name":"On or near Remnant Street"},"longitude":"-0.119135"},"context":"","outcome_status":null,"persistent_id":"","id":77026630,"location_subtype":"","month":"2019-08"},{"category":"anti-social-behaviour","location_type":"Force","location":{"latitude":"51.516523","street":{"id":956236,"name":"On or near Remnant Street"},"longitude":"-0.119135"},"context":"","outcome_status":null,"persistent_id":"","id":77026631,"location_subtype":"","month":"2019-08"},{"category":"anti-social-behaviour","location_type":"Force","location":{"latitude":"51.516523","street":{"id":956236,"name":"On or near Remnant Street"},"longitude":"-0.119135"},"context":"","outcome_status":null,"persistent_id":"","id":77026632,"location_subtype":"","month":"2019-08"},{"category":"anti-social-behaviour","location_type":"Force","location":{"latitude":"51.516523","street":{"id":956236,"name":"On or near Remnant Street"},"longitude":"-0.119135"},"context":"","outcome_status":null,"persistent_id":"","id":77026633,"location_subtype":"","month":"2019-08"},{"category":"anti-social-behaviour","location_type":"Force","location":{"latitude":"51.516523","street":{"id":956236,"name":"On or near Remnant Street"},"longitude":"-0.119135"},"context":"","outcome_status":null,"persistent_id":"","id":77026634,"location_subtype":"","month":"2019-08"},{"category":"anti-social-behaviour","location_type":"Force","location":{"latitude":"51.516586","street":{"id":956237,"name":"On or near Newton Street"},"longitude":"-0.121395"},"context":"","outcome_status":null,"persistent_id":"","id":77026656,"location_subtype":"","month":"2019-08"},{"category":"anti-social-behaviour","location_type":"Force","location":{"latitude":"51.515441","street":{"id":956165,"name":"On or near Parker Mews"},"longitude":"-0.122321"},"context":"","outcome_status":null,"persistent_id":"","id":77026659,"location_subtype":"","month":"2019-08"},{"category":"anti-social-behaviour","location_type":"Force","location":{"latitude":"51.515441","street":{"id":956165,"name":"On or near Parker Mews"},"longitude":"-0.122321"},"context":"","outcome_status":null,"persistent_id":"","id":77026661,"location_subtype":"","month":"2019-08"},{"category":"anti-social-behaviour","location_type":"Force","location":{"latitude":"51.510108","street":{"id":956542,"name":"On or near Air Street"},"longitude":"-0.136390"},"context":"","outcome_status":null,"persistent_id":"","id":77026959,"location_subtype":"","month":"2019-08"},{"category":"anti-social-behaviour","location_type":"Force","location":{"latitude":"51.498747","street":{"id":923564,"name":"On or near Vandon Street"},"longitude":"-0.136752"},"context":"","outcome_status":null,"persistent_id":"","id":77026963,"location_subtype":"","month":"2019-08"},{"category":"anti-social-behaviour","location_type":"Force","location":{"latitude":"51.498747","street":{"id":923564,"name":"On or near Vandon Street"},"longitude":"-0.136752"},"context":"","outcome_status":null,"persistent_id":"","id":77026965,"location_subtype":"","month":"2019-08"},{"category":"anti-social-behaviour","location_type":"Force","location":{"latitude":"51.494661","street":{"id":953422,"name":"On or near Coburg Close"},"longitude":"-0.137668"},"context":"","outcome_status":null,"persistent_id":"","id":77026968,"location_subtype":"","month":"2019-08"},{"category":"anti-social-behaviour","location_type":"Force","location":{"latitude":"51.509684","street":{"id":956600,"name":"On or near Shopping Area"},"longitude":"-0.137445"},"context":"","outcome_status":null,"persistent_id":"","id":77026973,"location_subtype":"","month":"2019-08"},{"category":"anti-social-behaviour","location_type":"Force","location":{"latitude":"51.507386","street":{"id":956682,"name":"On or near Masons Yard"},"longitude":"-0.137682"},"context":"","outcome_status":null,"persistent_id":"","id":77026974,"location_subtype":"","month":"2019-08"},{"category":"anti-social-behaviour","location_type":"Force","location":{"latitude":"51.507386","street":{"id":956682,"name":"On or near Masons Yard"},"longitude":"-0.137682"},"context":"","outcome_status":null,"persistent_id":"","id":77026975,"location_subtype":"","month":"2019-08"},{"category":"anti-social-behaviour","location_type":"Force","location":{"latitude":"51.507386","street":{"id":956682,"name":"On or near Masons Yard"},"longitude":"-0.137682"},"context":"","outcome_status":null,"persistent_id":"","id":77026976,"location_subtype":"","month":"2019-08"},{"category":"anti-social-behaviour","location_type":"Force","location":{"latitude":"51.516692","street":{"id":956232,"name":"On or near West Central Street"},"longitude":"-0.125225"},"context":"","outcome_status":null,"persistent_id":"","id":77027344,"location_subtype":"","month":"2019-08"},{"category":"anti-social-behaviour","location_type":"Force","location":{"latitude":"51.516692","street":{"id":956232,"name":"On or near West Central Street"},"longitude":"-0.125225"},"context":"","outcome_status":null,"persistent_id":"","id":77027345,"location_subtype":"","month":"2019-08"},{"category":"anti-social-behaviour","location_type":"Force","location":{"latitude":"51.514518","street":{"id":956166,"name":"On or near Nottingham Court"},"longitude":"-0.125343"},"context":"","outcome_status":null,"persistent_id":"","id":77027346,"location_subtype":"","month":"2019-08"},{"category":"anti-social-behaviour","location_type":"Force","location":{"latitude":"51.514518","street":{"id":956166,"name":"On or near Nottingham Court"},"longitude":"-0.125343"},"context":"","outcome_status":null,"persistent_id":"","id":77027347,"location_subtype":"","month":"2019-08"},{"category":"anti-social-behaviour","location_type":"Force","location":{"latitude":"51.514518","street":{"id":956166,"name":"On or near Nottingham Court"},"longitude":"-0.125343"},"context":"","outcome_status":null,"persistent_id":"","id":77027348,"location_subtype":"","month":"2019-08"},{"category":"anti-social-behaviour","location_type":"Force","location":{"latitude":"51.516368","street":{"id":956507,"name":"On or near Grape Street"},"longitude":"-0.125742"},"context":"","outcome_status":null,"persistent_id":"","id":77027351,"location_subtype":"","month":"2019-08"},{"category":"anti-social-behaviour","location_type":"Force","location":{"latitude":"51.514489","street":{"id":956485,"name":"On or near Monmouth Street"},"longitude":"-0.126929"},"context":"","outcome_status":null,"persistent_id":"","id":77027380,"location_subtype":"","month":"2019-08"},{"category":"anti-social-behaviour","location_type":"Force","location":{"latitude":"51.513737","street":{"id":956516,"name":"On or near Earlham Street"},"longitude":"-0.127147"},"context":"","outcome_status":null,"persistent_id":"","id":77027382,"location_subtype":"","month":"2019-08"},{"category":"anti-social-behaviour","location_type":"Force","location":{"latitude":"51.515050","street":{"id":956712,"name":"On or near Shaftesbury Avenue"},"longitude":"-0.127108"},"context":"","outcome_status":null,"persistent_id":"","id":77027383,"location_subtype":"","month":"2019-08"},{"category":"anti-social-behaviour","location_type":"Force","location":{"latitude":"51.515050","street":{"id":956712,"name":"On or near Shaftesbury Avenue"},"longitude":"-0.127108"},"context":"","outcome_status":null,"persistent_id":"","id":77027384,"location_subtype":"","month":"2019-08"},{"category":"anti-social-behaviour","location_type":"Force","location":{"latitude":"51.515050","street":{"id":956712,"name":"On or near Shaftesbury Avenue"},"longitude":"-0.127108"},"context":"","outcome_status":null,"persistent_id":"","id":77027385,"location_subtype":"","month":"2019-08"},{"category":"anti-social-behaviour","location_type":"Force","location":{"latitude":"51.512191","street":{"id":956602,"name":"On or near Shopping Area"},"longitude":"-0.128839"},"context":"","outcome_status":null,"persistent_id":"","id":77027411,"location_subtype":"","month":"2019-08"},{"category":"anti-social-behaviour","location_type":"Force","location":{"latitude":"51.512191","street":{"id":956602,"name":"On or near Shopping Area"},"longitude":"-0.128839"},"context":"","outcome_status":null,"persistent_id":"","id":77027412,"location_subtype":"","month":"2019-08"},{"category":"anti-social-behaviour","location_type":"Force","location":{"latitude":"51.513701","street":{"id":956557,"name":"On or near Theatre/concert Hall"},"longitude":"-0.128273"},"context":"","outcome_status":null,"persistent_id":"","id":77027414,"location_subtype":"","month":"2019-08"},{"category":"anti-social-behaviour","location_type":"Force","location":{"latitude":"51.514046","street":{"id":956529,"name":"On or near Charing Cross Road"},"longitude":"-0.129599"},"context":"","outcome_status":null,"persistent_id":"","id":77027417,"location_subtype":"","month":"2019-08"},{"category":"anti-social-behaviour","location_type":"Force","location":{"latitude":"51.514046","street":{"id":956529,"name":"On or near Charing Cross Road"},"longitude":"-0.129599"},"context":"","outcome_status":null,"persistent_id":"","id":77027418,"location_subtype":"","month":"2019-08"},{"category":"anti-social-behaviour","location_type":"Force","location":{"latitude":"51.514046","street":{"id":956529,"name":"On or near Charing Cross Road"},"longitude":"-0.129599"},"context":"","outcome_status":null,"persistent_id":"","id":77027419,"location_subtype":"","month":"2019-08"},{"category":"anti-social-behaviour","location_type":"Force","location":{"latitude":"51.514046","street":{"id":956529,"name":"On or near Charing Cross Road"},"longitude":"-0.129599"},"context":"","outcome_status":null,"persistent_id":"","id":77027420,"location_subtype":"","month":"2019-08"},{"category":"anti-social-behaviour","location_type":"Force","location":{"latitude":"51.509428","street":{"id":956477,"name":"On or near Orange Street"},"longitude":"-0.130379"},"context":"","outcome_status":null,"persistent_id":"","id":77027440,"location_subtype":"","month":"2019-08"},{"category":"anti-social-behaviour","location_type":"Force","location":{"latitude":"51.497606","street":{"id":953711,"name":"On or near Conference/exhibition Centre"},"longitude":"-0.097611"},"context":"","outcome_status":null,"persistent_id":"","id":77018075,"location_subtype":"","month":"2019-08"},{"category":"anti-social-behaviour","location_type":"Force","location":{"latitude":"51.502688","street":{"id":953722,"name":"On or near Southwark Bridge Road"},"longitude":"-0.097126"},"context":"","outcome_status":null,"persistent_id":"","id":77018080,"location_subtype":"","month":"2019-08"},{"category":"anti-social-behaviour","location_type":"Force","location":{"latitude":"51.506153","street":{"id":956124,"name":"On or near Zoar Street"},"longitude":"-0.098408"},"context":"","outcome_status":null,"persistent_id":"","id":77018099,"location_subtype":"","month":"2019-08"},{"category":"anti-social-behaviour","location_type":"Force","location":{"latitude":"51.500439","street":{"id":953746,"name":"On or near Collinson Street"},"longitude":"-0.098747"},"context":"","outcome_status":null,"persistent_id":"","id":77018102,"location_subtype":"","month":"2019-08"},{"category":"anti-social-behaviour","location_type":"Force","location":{"latitude":"51.494531","street":{"id":953765,"name":"On or near Oswin Street"},"longitude":"-0.102609"},"context":"","outcome_status":null,"persistent_id":"","id":77018489,"location_subtype":"","month":"2019-08"},{"category":"anti-social-behaviour","location_type":"Force","location":{"latitude":"51.502369","street":{"id":953718,"name":"On or near Surrey Row"},"longitude":"-0.102975"},"context":"","outcome_status":null,"persistent_id":"","id":77018492,"location_subtype":"","month":"2019-08"},{"category":"anti-social-behaviour","location_type":"Force","location":{"latitude":"51.502369","street":{"id":953718,"name":"On or near Surrey Row"},"longitude":"-0.102975"},"context":"","outcome_status":null,"persistent_id":"","id":77018493,"location_subtype":"","month":"2019-08"},{"category":"anti-social-behaviour","location_type":"Force","location":{"latitude":"51.499253","street":{"id":953732,"name":"On or near Milcote Street"},"longitude":"-0.103219"},"context":"","outcome_status":null,"persistent_id":"","id":77018494,"location_subtype":"","month":"2019-08"},{"category":"anti-social-behaviour","location_type":"Force","location":{"latitude":"51.499901","street":{"id":953734,"name":"On or near Lancaster Street"},"longitude":"-0.102746"},"context":"","outcome_status":null,"persistent_id":"","id":77018495,"location_subtype":"","month":"2019-08"},{"category":"anti-social-behaviour","location_type":"Force","location":{"latitude":"51.495085","street":{"id":953686,"name":"On or near Pedestrian Subway"},"longitude":"-0.101318"},"context":"","outcome_status":null,"persistent_id":"","id":77018129,"location_subtype":"","month":"2019-08"},{"category":"anti-social-behaviour","location_type":"Force","location":{"latitude":"51.495085","street":{"id":953686,"name":"On or near Pedestrian Subway"},"longitude":"-0.101318"},"context":"","outcome_status":null,"persistent_id":"","id":77018130,"location_subtype":"","month":"2019-08"},{"category":"anti-social-behaviour","location_type":"Force","location":{"latitude":"51.503248","street":{"id":953727,"name":"On or near Risborough Street"},"longitude":"-0.100042"},"context":"","outcome_status":null,"persistent_id":"","id":77018131,"location_subtype":"","month":"2019-08"},{"category":"anti-social-behaviour","location_type":"Force","location":{"latitude":"51.503248","street":{"id":953727,"name":"On or near Risborough Street"},"longitude":"-0.100042"},"context":"","outcome_status":null,"persistent_id":"","id":77018132,"location_subtype":"","month":"2019-08"},{"category":"anti-social-behaviour","location_type":"Force","location":{"latitude":"51.503248","street":{"id":953727,"name":"On or near Risborough Street"},"longitude":"-0.100042"},"context":"","outcome_status":null,"persistent_id":"","id":77018133,"location_subtype":"","month":"2019-08"},{"category":"anti-social-behaviour","location_type":"Force","location":{"latitude":"51.503248","street":{"id":953727,"name":"On or near Risborough Street"},"longitude":"-0.100042"},"context":"","outcome_status":null,"persistent_id":"","id":77018134,"location_subtype":"","month":"2019-08"},{"category":"anti-social-behaviour","location_type":"Force","location":{"latitude":"51.503248","street":{"id":953727,"name":"On or near Risborough Street"},"longitude":"-0.100042"},"context":"","outcome_status":null,"persistent_id":"","id":77018135,"location_subtype":"","month":"2019-08"},{"category":"anti-social-behaviour","location_type":"Force","location":{"latitude":"51.495804","street":{"id":953697,"name":"On or near Princess Street"},"longitude":"-0.102383"},"context":"","outcome_status":null,"persistent_id":"","id":77018161,"location_subtype":"","month":"2019-08"},{"category":"anti-social-behaviour","location_type":"Force","location":{"latitude":"51.495804","street":{"id":953697,"name":"On or near Princess Street"},"longitude":"-0.102383"},"context":"","outcome_status":null,"persistent_id":"","id":77018162,"location_subtype":"","month":"2019-08"},{"category":"anti-social-behaviour","location_type":"Force","location":{"latitude":"51.495804","street":{"id":953697,"name":"On or near Princess Street"},"longitude":"-0.102383"},"context":"","outcome_status":null,"persistent_id":"","id":77018163,"location_subtype":"","month":"2019-08"},{"category":"anti-social-behaviour","location_type":"Force","location":{"latitude":"51.505881","street":{"id":956127,"name":"On or near Price's Street"},"longitude":"-0.101618"},"context":"","outcome_status":null,"persistent_id":"","id":77018165,"location_subtype":"","month":"2019-08"},{"category":"anti-social-behaviour","location_type":"Force","location":{"latitude":"51.502786","street":{"id":953477,"name":"On or near The Cut"},"longitude":"-0.108188"},"context":"","outcome_status":null,"persistent_id":"","id":77019067,"location_subtype":"","month":"2019-08"},{"category":"anti-social-behaviour","location_type":"Force","location":{"latitude":"51.512719","street":{"id":587335,"name":"On or near Playhouse Yard"},"longitude":"-0.102948"},"context":"","outcome_status":null,"persistent_id":"","id":76746229,"location_subtype":"","month":"2019-08"},{"category":"anti-social-behaviour","location_type":"Force","location":{"latitude":"51.511790","street":{"id":956461,"name":"On or near Shaftesbury Avenue"},"longitude":"-0.132473"},"context":"","outcome_status":null,"persistent_id":"","id":77024970,"location_subtype":"","month":"2019-08"},{"category":"anti-social-behaviour","location_type":"Force","location":{"latitude":"51.501136","street":{"id":953530,"name":"On or near Westminster Bridge Road"},"longitude":"-0.117391"},"context":"","outcome_status":null,"persistent_id":"","id":77019797,"location_subtype":"","month":"2019-08"},{"category":"anti-social-behaviour","location_type":"Force","location":{"latitude":"51.492669","street":{"id":953413,"name":"On or near Marsham Street"},"longitude":"-0.128919"},"context":"","outcome_status":null,"persistent_id":"","id":77024824,"location_subtype":"","month":"2019-08"},{"category":"anti-social-behaviour","location_type":"Force","location":{"latitude":"51.496271","street":{"id":953289,"name":"On or near Chadwick Street"},"longitude":"-0.132618"},"context":"","outcome_status":null,"persistent_id":"","id":77024940,"location_subtype":"","month":"2019-08"},{"category":"anti-social-behaviour","location_type":"Force","location":{"latitude":"51.515441","street":{"id":956165,"name":"On or near Parker Mews"},"longitude":"-0.122321"},"context":"","outcome_status":null,"persistent_id":"","id":77026660,"location_subtype":"","month":"2019-08"},{"category":"anti-social-behaviour","location_type":"Force","location":{"latitude":"51.508862","street":{"id":956589,"name":"On or near Sports/recreation Area"},"longitude":"-0.136657"},"context":"","outcome_status":null,"persistent_id":"","id":77026964,"location_subtype":"","month":"2019-08"},{"category":"anti-social-behaviour","location_type":"Force","location":{"latitude":"51.507339","street":{"id":956287,"name":"On or near Broadwall"},"longitude":"-0.108388"},"context":"","outcome_status":null,"persistent_id":"","id":77019090,"location_subtype":"","month":"2019-08"},{"category":"anti-social-behaviour","location_type":"Force","location":{"latitude":"51.499661","street":{"id":953721,"name":"On or near Stones End Street"},"longitude":"-0.096791"},"context":"","outcome_status":null,"persistent_id":"","id":77018032,"location_subtype":"","month":"2019-08"},{"category":"anti-social-behaviour","location_type":"Force","location":{"latitude":"51.499661","street":{"id":953721,"name":"On or near Stones End Street"},"longitude":"-0.096791"},"context":"","outcome_status":null,"persistent_id":"","id":77018033,"location_subtype":"","month":"2019-08"},{"category":"anti-social-behaviour","location_type":"Force","location":{"latitude":"51.500439","street":{"id":953746,"name":"On or near Collinson Street"},"longitude":"-0.098747"},"context":"","outcome_status":null,"persistent_id":"","id":77018071,"location_subtype":"","month":"2019-08"},{"category":"anti-social-behaviour","location_type":"Force","location":{"latitude":"51.505203","street":{"id":956126,"name":"On or near Southwark Street"},"longitude":"-0.097511"},"context":"","outcome_status":null,"persistent_id":"","id":77018072,"location_subtype":"","month":"2019-08"},{"category":"anti-social-behaviour","location_type":"Force","location":{"latitude":"51.505203","street":{"id":956126,"name":"On or near Southwark Street"},"longitude":"-0.097511"},"context":"","outcome_status":null,"persistent_id":"","id":77018073,"location_subtype":"","month":"2019-08"},{"category":"anti-social-behaviour","location_type":"Force","location":{"latitude":"51.505203","street":{"id":956126,"name":"On or near Southwark Street"},"longitude":"-0.097511"},"context":"","outcome_status":null,"persistent_id":"","id":77018074,"location_subtype":"","month":"2019-08"},{"category":"anti-social-behaviour","location_type":"Force","location":{"latitude":"51.490842","street":{"id":949562,"name":"On or near Petrol Station"},"longitude":"-0.111448"},"context":"","outcome_status":null,"persistent_id":"","id":77019387,"location_subtype":"","month":"2019-08"},{"category":"anti-social-behaviour","location_type":"Force","location":{"latitude":"51.490842","street":{"id":949562,"name":"On or near Petrol Station"},"longitude":"-0.111448"},"context":"","outcome_status":null,"persistent_id":"","id":77019388,"location_subtype":"","month":"2019-08"},{"category":"anti-social-behaviour","location_type":"Force","location":{"latitude":"51.490842","street":{"id":949562,"name":"On or near Petrol Station"},"longitude":"-0.111448"},"context":"","outcome_status":null,"persistent_id":"","id":77019389,"location_subtype":"","month":"2019-08"},{"category":"anti-social-behaviour","location_type":"Force","location":{"latitude":"51.490842","street":{"id":949562,"name":"On or near Petrol Station"},"longitude":"-0.111448"},"context":"","outcome_status":null,"persistent_id":"","id":77019390,"location_subtype":"","month":"2019-08"},{"category":"anti-social-behaviour","location_type":"Force","location":{"latitude":"51.490842","street":{"id":949562,"name":"On or near Petrol Station"},"longitude":"-0.111448"},"context":"","outcome_status":null,"persistent_id":"","id":77019391,"location_subtype":"","month":"2019-08"},{"category":"anti-social-behaviour","location_type":"Force","location":{"latitude":"51.495756","street":{"id":953445,"name":"On or near Kennington Road"},"longitude":"-0.111115"},"context":"","outcome_status":null,"persistent_id":"","id":77019394,"location_subtype":"","month":"2019-08"},{"category":"anti-social-behaviour","location_type":"Force","location":{"latitude":"51.501299","street":{"id":953478,"name":"On or near Tanswell Street"},"longitude":"-0.111333"},"context":"","outcome_status":null,"persistent_id":"","id":77019398,"location_subtype":"","month":"2019-08"},{"category":"anti-social-behaviour","location_type":"Force","location":{"latitude":"51.501299","street":{"id":953478,"name":"On or near Tanswell Street"},"longitude":"-0.111333"},"context":"","outcome_status":null,"persistent_id":"","id":77019399,"location_subtype":"","month":"2019-08"},{"category":"anti-social-behaviour","location_type":"Force","location":{"latitude":"51.501299","street":{"id":953478,"name":"On or near Tanswell Street"},"longitude":"-0.111333"},"context":"","outcome_status":null,"persistent_id":"","id":77019400,"location_subtype":"","month":"2019-08"},{"category":"anti-social-behaviour","location_type":"Force","location":{"latitude":"51.490811","street":{"id":949526,"name":"On or near Marylee Way"},"longitude":"-0.114518"},"context":"","outcome_status":null,"persistent_id":"","id":77019511,"location_subtype":"","month":"2019-08"},{"category":"anti-social-behaviour","location_type":"Force","location":{"latitude":"51.490811","street":{"id":949526,"name":"On or near Marylee Way"},"longitude":"-0.114518"},"context":"","outcome_status":null,"persistent_id":"","id":77019512,"location_subtype":"","month":"2019-08"},{"category":"anti-social-behaviour","location_type":"Force","location":{"latitude":"51.503350","street":{"id":953517,"name":"On or near Further/higher Educational Building"},"longitude":"-0.105830"},"context":"","outcome_status":null,"persistent_id":"","id":77019017,"location_subtype":"","month":"2019-08"},{"category":"anti-social-behaviour","location_type":"Force","location":{"latitude":"51.503350","street":{"id":953517,"name":"On or near Further/higher Educational Building"},"longitude":"-0.105830"},"context":"","outcome_status":null,"persistent_id":"","id":77019018,"location_subtype":"","month":"2019-08"},{"category":"anti-social-behaviour","location_type":"Force","location":{"latitude":"51.503350","street":{"id":953517,"name":"On or near Further/higher Educational Building"},"longitude":"-0.105830"},"context":"","outcome_status":null,"persistent_id":"","id":77019019,"location_subtype":"","month":"2019-08"},{"category":"anti-social-behaviour","location_type":"Force","location":{"latitude":"51.503350","street":{"id":953517,"name":"On or near Further/higher Educational Building"},"longitude":"-0.105830"},"context":"","outcome_status":null,"persistent_id":"","id":77019027,"location_subtype":"","month":"2019-08"},{"category":"anti-social-behaviour","location_type":"Force","location":{"latitude":"51.503350","street":{"id":953517,"name":"On or near Further/higher Educational Building"},"longitude":"-0.105830"},"context":"","outcome_status":null,"persistent_id":"","id":77019028,"location_subtype":"","month":"2019-08"},{"category":"anti-social-behaviour","location_type":"Force","location":{"latitude":"51.500483","street":{"id":953469,"name":"On or near Westminster Bridge Road"},"longitude":"-0.115372"},"context":"","outcome_status":null,"persistent_id":"","id":77019675,"location_subtype":"","month":"2019-08"},{"category":"anti-social-behaviour","location_type":"Force","location":{"latitude":"51.500483","street":{"id":953469,"name":"On or near Westminster Bridge Road"},"longitude":"-0.115372"},"context":"","outcome_status":null,"persistent_id":"","id":77019676,"location_subtype":"","month":"2019-08"},{"category":"anti-social-behaviour","location_type":"Force","location":{"latitude":"51.497620","street":{"id":953430,"name":"On or near Parking Area"},"longitude":"-0.115173"},"context":"","outcome_status":null,"persistent_id":"","id":77019680,"location_subtype":"","month":"2019-08"},{"category":"anti-social-behaviour","location_type":"Force","location":{"latitude":"51.500483","street":{"id":953469,"name":"On or near Westminster Bridge Road"},"longitude":"-0.115372"},"context":"","outcome_status":null,"persistent_id":"","id":77019684,"location_subtype":"","month":"2019-08"},{"category":"anti-social-behaviour","location_type":"Force","location":{"latitude":"51.488812","street":{"id":949522,"name":"On or near Newburn Street"},"longitude":"-0.115493"},"context":"","outcome_status":null,"persistent_id":"","id":77019713,"location_subtype":"","month":"2019-08"},{"category":"anti-social-behaviour","location_type":"Force","location":{"latitude":"51.498685","street":{"id":923901,"name":"On or near Royal Street"},"longitude":"-0.115994"},"context":"","outcome_status":null,"persistent_id":"","id":77019719,"location_subtype":"","month":"2019-08"},{"category":"anti-social-behaviour","location_type":"Force","location":{"latitude":"51.489256","street":{"id":949521,"name":"On or near Orsett Street"},"longitude":"-0.116267"},"context":"","outcome_status":null,"persistent_id":"","id":77019720,"location_subtype":"","month":"2019-08"},{"category":"anti-social-behaviour","location_type":"Force","location":{"latitude":"51.503194","street":{"id":953465,"name":"On or near York Road"},"longitude":"-0.115635"},"context":"","outcome_status":null,"persistent_id":"","id":77019725,"location_subtype":"","month":"2019-08"},{"category":"anti-social-behaviour","location_type":"Force","location":{"latitude":"51.503194","street":{"id":953465,"name":"On or near York Road"},"longitude":"-0.115635"},"context":"","outcome_status":null,"persistent_id":"","id":77019726,"location_subtype":"","month":"2019-08"},{"category":"anti-social-behaviour","location_type":"Force","location":{"latitude":"51.503194","street":{"id":953465,"name":"On or near York Road"},"longitude":"-0.115635"},"context":"","outcome_status":null,"persistent_id":"","id":77019727,"location_subtype":"","month":"2019-08"},{"category":"anti-social-behaviour","location_type":"Force","location":{"latitude":"51.500483","street":{"id":953469,"name":"On or near Westminster Bridge Road"},"longitude":"-0.115372"},"context":"","outcome_status":null,"persistent_id":"","id":77019728,"location_subtype":"","month":"2019-08"},{"category":"anti-social-behaviour","location_type":"Force","location":{"latitude":"51.489256","street":{"id":949521,"name":"On or near Orsett Street"},"longitude":"-0.116267"},"context":"","outcome_status":null,"persistent_id":"","id":77019729,"location_subtype":"","month":"2019-08"},{"category":"anti-social-behaviour","location_type":"Force","location":{"latitude":"51.489256","street":{"id":949521,"name":"On or near Orsett Street"},"longitude":"-0.116267"},"context":"","outcome_status":null,"persistent_id":"","id":77019730,"location_subtype":"","month":"2019-08"},{"category":"anti-social-behaviour","location_type":"Force","location":{"latitude":"51.492069","street":{"id":953557,"name":"On or near Wincott Street"},"longitude":"-0.109453"},"context":"","outcome_status":null,"persistent_id":"","id":77019062,"location_subtype":"","month":"2019-08"},{"category":"anti-social-behaviour","location_type":"Force","location":{"latitude":"51.491269","street":{"id":949516,"name":"On or near Reedworth Street"},"longitude":"-0.109471"},"context":"","outcome_status":null,"persistent_id":"","id":77019068,"location_subtype":"","month":"2019-08"},{"category":"anti-social-behaviour","location_type":"Force","location":{"latitude":"51.507133","street":{"id":956297,"name":"On or near Victoria Embankment"},"longitude":"-0.121813"},"context":"","outcome_status":null,"persistent_id":"","id":77019998,"location_subtype":"","month":"2019-08"},{"category":"anti-social-behaviour","location_type":"Force","location":{"latitude":"51.493106","street":{"id":953547,"name":"On or near Lambeth High Street"},"longitude":"-0.120257"},"context":"","outcome_status":null,"persistent_id":"","id":77019999,"location_subtype":"","month":"2019-08"},{"category":"anti-social-behaviour","location_type":"Force","location":{"latitude":"51.489903","street":{"id":949463,"name":"On or near Vauxhall Walk"},"longitude":"-0.120159"},"context":"","outcome_status":null,"persistent_id":"","id":77020001,"location_subtype":"","month":"2019-08"},{"category":"anti-social-behaviour","location_type":"Force","location":{"latitude":"51.491806","street":{"id":949470,"name":"On or near Salamanca Place"},"longitude":"-0.120498"},"context":"","outcome_status":null,"persistent_id":"","id":77020010,"location_subtype":"","month":"2019-08"},{"category":"anti-social-behaviour","location_type":"Force","location":{"latitude":"51.500769","street":{"id":953527,"name":"On or near Pedestrian Subway"},"longitude":"-0.119222"},"context":"","outcome_status":null,"persistent_id":"","id":77020040,"location_subtype":"","month":"2019-08"},{"category":"anti-social-behaviour","location_type":"Force","location":{"latitude":"51.500769","street":{"id":953527,"name":"On or near Pedestrian Subway"},"longitude":"-0.119222"},"context":"","outcome_status":null,"persistent_id":"","id":77020041,"location_subtype":"","month":"2019-08"},{"category":"anti-social-behaviour","location_type":"Force","location":{"latitude":"51.500769","street":{"id":953527,"name":"On or near Pedestrian Subway"},"longitude":"-0.119222"},"context":"","outcome_status":null,"persistent_id":"","id":77020042,"location_subtype":"","month":"2019-08"},{"category":"anti-social-behaviour","location_type":"Force","location":{"latitude":"51.500769","street":{"id":953527,"name":"On or near Pedestrian Subway"},"longitude":"-0.119222"},"context":"","outcome_status":null,"persistent_id":"","id":77020043,"location_subtype":"","month":"2019-08"},{"category":"anti-social-behaviour","location_type":"Force","location":{"latitude":"51.500769","street":{"id":953527,"name":"On or near Pedestrian Subway"},"longitude":"-0.119222"},"context":"","outcome_status":null,"persistent_id":"","id":77020044,"location_subtype":"","month":"2019-08"},{"category":"anti-social-behaviour","location_type":"Force","location":{"latitude":"51.489753","street":{"id":949479,"name":"On or near Jonathan Street"},"longitude":"-0.118623"},"context":"","outcome_status":null,"persistent_id":"","id":77019794,"location_subtype":"","month":"2019-08"},{"category":"anti-social-behaviour","location_type":"Force","location":{"latitude":"51.501136","street":{"id":953530,"name":"On or near Westminster Bridge Road"},"longitude":"-0.117391"},"context":"","outcome_status":null,"persistent_id":"","id":77019796,"location_subtype":"","month":"2019-08"},{"category":"anti-social-behaviour","location_type":"Force","location":{"latitude":"51.489753","street":{"id":949479,"name":"On or near Jonathan Street"},"longitude":"-0.118623"},"context":"","outcome_status":null,"persistent_id":"","id":77019798,"location_subtype":"","month":"2019-08"},{"category":"anti-social-behaviour","location_type":"Force","location":{"latitude":"51.496840","street":{"id":953437,"name":"On or near Morton Place"},"longitude":"-0.112554"},"context":"","outcome_status":null,"persistent_id":"","id":77024020,"location_subtype":"","month":"2019-08"},{"category":"anti-social-behaviour","location_type":"Force","location":{"latitude":"51.511040","street":{"id":956267,"name":"On or near Nightclub"},"longitude":"-0.113726"},"context":"","outcome_status":null,"persistent_id":"","id":77024021,"location_subtype":"","month":"2019-08"},{"category":"anti-social-behaviour","location_type":"Force","location":{"latitude":"51.514710","street":{"id":956262,"name":"On or near Carey Street"},"longitude":"-0.114900"},"context":"","outcome_status":null,"persistent_id":"","id":77024022,"location_subtype":"","month":"2019-08"},{"category":"anti-social-behaviour","location_type":"Force","location":{"latitude":"51.513101","street":{"id":956201,"name":"On or near Aldwych"},"longitude":"-0.117719"},"context":"","outcome_status":null,"persistent_id":"","id":77024023,"location_subtype":"","month":"2019-08"},{"category":"anti-social-behaviour","location_type":"Force","location":{"latitude":"51.510570","street":{"id":956171,"name":"On or near Lancaster Place"},"longitude":"-0.118559"},"context":"","outcome_status":null,"persistent_id":"","id":77024024,"location_subtype":"","month":"2019-08"},{"category":"anti-social-behaviour","location_type":"Force","location":{"latitude":"51.513828","street":{"id":956176,"name":"On or near Kean Street"},"longitude":"-0.118741"},"context":"","outcome_status":null,"persistent_id":"","id":77024025,"location_subtype":"","month":"2019-08"},{"category":"anti-social-behaviour","location_type":"Force","location":{"latitude":"51.513828","street":{"id":956176,"name":"On or near Kean Street"},"longitude":"-0.118741"},"context":"","outcome_status":null,"persistent_id":"","id":77024026,"location_subtype":"","month":"2019-08"},{"category":"anti-social-behaviour","location_type":"Force","location":{"latitude":"51.511914","street":{"id":956211,"name":"On or near Theatre/concert Hall"},"longitude":"-0.119425"},"context":"","outcome_status":null,"persistent_id":"","id":77024027,"location_subtype":"","month":"2019-08"},{"category":"anti-social-behaviour","location_type":"Force","location":{"latitude":"51.511315","street":{"id":956213,"name":"On or near Conference/exhibition Centre"},"longitude":"-0.118528"},"context":"","outcome_status":null,"persistent_id":"","id":77024028,"location_subtype":"","month":"2019-08"},{"category":"anti-social-behaviour","location_type":"Force","location":{"latitude":"51.511315","street":{"id":956213,"name":"On or near Conference/exhibition Centre"},"longitude":"-0.118528"},"context":"","outcome_status":null,"persistent_id":"","id":77024029,"location_subtype":"","month":"2019-08"},{"category":"anti-social-behaviour","location_type":"Force","location":{"latitude":"51.511315","street":{"id":956213,"name":"On or near Conference/exhibition Centre"},"longitude":"-0.118528"},"context":"","outcome_status":null,"persistent_id":"","id":77024030,"location_subtype":"","month":"2019-08"},{"category":"anti-social-behaviour","location_type":"Force","location":{"latitude":"51.507133","street":{"id":956297,"name":"On or near Victoria Embankment"},"longitude":"-0.121813"},"context":"","outcome_status":null,"persistent_id":"","id":77024047,"location_subtype":"","month":"2019-08"},{"category":"anti-social-behaviour","location_type":"Force","location":{"latitude":"51.507133","street":{"id":956297,"name":"On or near Victoria Embankment"},"longitude":"-0.121813"},"context":"","outcome_status":null,"persistent_id":"","id":77024048,"location_subtype":"","month":"2019-08"},{"category":"anti-social-behaviour","location_type":"Force","location":{"latitude":"51.507133","street":{"id":956297,"name":"On or near Victoria Embankment"},"longitude":"-0.121813"},"context":"","outcome_status":null,"persistent_id":"","id":77024049,"location_subtype":"","month":"2019-08"},{"category":"anti-social-behaviour","location_type":"Force","location":{"latitude":"51.507133","street":{"id":956297,"name":"On or near Victoria Embankment"},"longitude":"-0.121813"},"context":"","outcome_status":null,"persistent_id":"","id":77024050,"location_subtype":"","month":"2019-08"},{"category":"anti-social-behaviour","location_type":"Force","location":{"latitude":"51.510362","street":{"id":956221,"name":"On or near Theatre/concert Hall"},"longitude":"-0.122415"},"context":"","outcome_status":null,"persistent_id":"","id":77024051,"location_subtype":"","month":"2019-08"},{"category":"anti-social-behaviour","location_type":"Force","location":{"latitude":"51.510362","street":{"id":956221,"name":"On or near Theatre/concert Hall"},"longitude":"-0.122415"},"context":"","outcome_status":null,"persistent_id":"","id":77024052,"location_subtype":"","month":"2019-08"},{"category":"anti-social-behaviour","location_type":"Force","location":{"latitude":"51.510362","street":{"id":956221,"name":"On or near Theatre/concert Hall"},"longitude":"-0.122415"},"context":"","outcome_status":null,"persistent_id":"","id":77024053,"location_subtype":"","month":"2019-08"},{"category":"anti-social-behaviour","location_type":"Force","location":{"latitude":"51.510362","street":{"id":956221,"name":"On or near Theatre/concert Hall"},"longitude":"-0.122415"},"context":"","outcome_status":null,"persistent_id":"","id":77024054,"location_subtype":"","month":"2019-08"},{"category":"anti-social-behaviour","location_type":"Force","location":{"latitude":"51.510362","street":{"id":956221,"name":"On or near Theatre/concert Hall"},"longitude":"-0.122415"},"context":"","outcome_status":null,"persistent_id":"","id":77024055,"location_subtype":"","month":"2019-08"},{"category":"anti-social-behaviour","location_type":"Force","location":{"latitude":"51.510362","street":{"id":956221,"name":"On or near Theatre/concert Hall"},"longitude":"-0.122415"},"context":"","outcome_status":null,"persistent_id":"","id":77024056,"location_subtype":"","month":"2019-08"},{"category":"anti-social-behaviour","location_type":"Force","location":{"latitude":"51.510362","street":{"id":956221,"name":"On or near Theatre/concert Hall"},"longitude":"-0.122415"},"context":"","outcome_status":null,"persistent_id":"","id":77024057,"location_subtype":"","month":"2019-08"},{"category":"anti-social-behaviour","location_type":"Force","location":{"latitude":"51.510362","street":{"id":956221,"name":"On or near Theatre/concert Hall"},"longitude":"-0.122415"},"context":"","outcome_status":null,"persistent_id":"","id":77024058,"location_subtype":"","month":"2019-08"},{"category":"anti-social-behaviour","location_type":"Force","location":{"latitude":"51.500844","street":{"id":953528,"name":"On or near Westminster Bridge Road"},"longitude":"-0.122777"},"context":"","outcome_status":null,"persistent_id":"","id":77024059,"location_subtype":"","month":"2019-08"},{"category":"anti-social-behaviour","location_type":"Force","location":{"latitude":"51.500844","street":{"id":953528,"name":"On or near Westminster Bridge Road"},"longitude":"-0.122777"},"context":"","outcome_status":null,"persistent_id":"","id":77024060,"location_subtype":"","month":"2019-08"},{"category":"anti-social-behaviour","location_type":"Force","location":{"latitude":"51.500844","street":{"id":953528,"name":"On or near Westminster Bridge Road"},"longitude":"-0.122777"},"context":"","outcome_status":null,"persistent_id":"","id":77024061,"location_subtype":"","month":"2019-08"},{"category":"anti-social-behaviour","location_type":"Force","location":{"latitude":"51.500844","street":{"id":953528,"name":"On or near Westminster Bridge Road"},"longitude":"-0.122777"},"context":"","outcome_status":null,"persistent_id":"","id":77024062,"location_subtype":"","month":"2019-08"},{"category":"anti-social-behaviour","location_type":"Force","location":{"latitude":"51.500844","street":{"id":953528,"name":"On or near Westminster Bridge Road"},"longitude":"-0.122777"},"context":"","outcome_status":null,"persistent_id":"","id":77024078,"location_subtype":"","month":"2019-08"},{"category":"anti-social-behaviour","location_type":"Force","location":{"latitude":"51.500844","street":{"id":953528,"name":"On or near Westminster Bridge Road"},"longitude":"-0.122777"},"context":"","outcome_status":null,"persistent_id":"","id":77024079,"location_subtype":"","month":"2019-08"},{"category":"anti-social-behaviour","location_type":"Force","location":{"latitude":"51.500844","street":{"id":953528,"name":"On or near Westminster Bridge Road"},"longitude":"-0.122777"},"context":"","outcome_status":null,"persistent_id":"","id":77024080,"location_subtype":"","month":"2019-08"},{"category":"anti-social-behaviour","location_type":"Force","location":{"latitude":"51.500844","street":{"id":953528,"name":"On or near Westminster Bridge Road"},"longitude":"-0.122777"},"context":"","outcome_status":null,"persistent_id":"","id":77024081,"location_subtype":"","month":"2019-08"},{"category":"anti-social-behaviour","location_type":"Force","location":{"latitude":"51.507078","street":{"id":956300,"name":"On or near Embankment Place"},"longitude":"-0.122925"},"context":"","outcome_status":null,"persistent_id":"","id":77024082,"location_subtype":"","month":"2019-08"},{"category":"anti-social-behaviour","location_type":"Force","location":{"latitude":"51.507078","street":{"id":956300,"name":"On or near Embankment Place"},"longitude":"-0.122925"},"context":"","outcome_status":null,"persistent_id":"","id":77024083,"location_subtype":"","month":"2019-08"},{"category":"anti-social-behaviour","location_type":"Force","location":{"latitude":"51.507078","street":{"id":956300,"name":"On or near Embankment Place"},"longitude":"-0.122925"},"context":"","outcome_status":null,"persistent_id":"","id":77024084,"location_subtype":"","month":"2019-08"},{"category":"anti-social-behaviour","location_type":"Force","location":{"latitude":"51.508708","street":{"id":956144,"name":"On or near York Buildings"},"longitude":"-0.123074"},"context":"","outcome_status":null,"persistent_id":"","id":77024085,"location_subtype":"","month":"2019-08"},{"category":"anti-social-behaviour","location_type":"Force","location":{"latitude":"51.514656","street":{"id":956188,"name":"On or near Dryden Street"},"longitude":"-0.122757"},"context":"","outcome_status":null,"persistent_id":"","id":77024086,"location_subtype":"","month":"2019-08"},{"category":"anti-social-behaviour","location_type":"Force","location":{"latitude":"51.514656","street":{"id":956188,"name":"On or near Dryden Street"},"longitude":"-0.122757"},"context":"","outcome_status":null,"persistent_id":"","id":77024087,"location_subtype":"","month":"2019-08"},{"category":"anti-social-behaviour","location_type":"Force","location":{"latitude":"51.507078","street":{"id":956300,"name":"On or near Embankment Place"},"longitude":"-0.122925"},"context":"","outcome_status":null,"persistent_id":"","id":77024088,"location_subtype":"","month":"2019-08"},{"category":"anti-social-behaviour","location_type":"Force","location":{"latitude":"51.510490","street":{"id":956198,"name":"On or near Bedford Street"},"longitude":"-0.124254"},"context":"","outcome_status":null,"persistent_id":"","id":77024103,"location_subtype":"","month":"2019-08"},{"category":"anti-social-behaviour","location_type":"Force","location":{"latitude":"51.510490","street":{"id":956198,"name":"On or near Bedford Street"},"longitude":"-0.124254"},"context":"","outcome_status":null,"persistent_id":"","id":77024104,"location_subtype":"","month":"2019-08"},{"category":"anti-social-behaviour","location_type":"Force","location":{"latitude":"51.514963","street":{"id":956196,"name":"On or near Betterton Street"},"longitude":"-0.123912"},"context":"","outcome_status":null,"persistent_id":"","id":77024105,"location_subtype":"","month":"2019-08"},{"category":"anti-social-behaviour","location_type":"Force","location":{"latitude":"51.513100","street":{"id":956169,"name":"On or near Long Acre"},"longitude":"-0.124406"},"context":"","outcome_status":null,"persistent_id":"","id":77024106,"location_subtype":"","month":"2019-08"},{"category":"anti-social-behaviour","location_type":"Force","location":{"latitude":"51.513100","street":{"id":956169,"name":"On or near Long Acre"},"longitude":"-0.124406"},"context":"","outcome_status":null,"persistent_id":"","id":77024107,"location_subtype":"","month":"2019-08"},{"category":"anti-social-behaviour","location_type":"Force","location":{"latitude":"51.505576","street":{"id":956295,"name":"On or near Whitehall Court"},"longitude":"-0.124571"},"context":"","outcome_status":null,"persistent_id":"","id":77024108,"location_subtype":"","month":"2019-08"},{"category":"anti-social-behaviour","location_type":"Force","location":{"latitude":"51.512165","street":{"id":956143,"name":"On or near Shopping Area"},"longitude":"-0.123825"},"context":"","outcome_status":null,"persistent_id":"","id":77024109,"location_subtype":"","month":"2019-08"},{"category":"anti-social-behaviour","location_type":"Force","location":{"latitude":"51.500969","street":{"id":953533,"name":"On or near Bridge Street"},"longitude":"-0.124933"},"context":"","outcome_status":null,"persistent_id":"","id":77024110,"location_subtype":"","month":"2019-08"},{"category":"anti-social-behaviour","location_type":"Force","location":{"latitude":"51.500969","street":{"id":953533,"name":"On or near Bridge Street"},"longitude":"-0.124933"},"context":"","outcome_status":null,"persistent_id":"","id":77024111,"location_subtype":"","month":"2019-08"},{"category":"anti-social-behaviour","location_type":"Force","location":{"latitude":"51.500969","street":{"id":953533,"name":"On or near Bridge Street"},"longitude":"-0.124933"},"context":"","outcome_status":null,"persistent_id":"","id":77024112,"location_subtype":"","month":"2019-08"},{"category":"anti-social-behaviour","location_type":"Force","location":{"latitude":"51.500969","street":{"id":953533,"name":"On or near Bridge Street"},"longitude":"-0.124933"},"context":"","outcome_status":null,"persistent_id":"","id":77024113,"location_subtype":"","month":"2019-08"},{"category":"anti-social-behaviour","location_type":"Force","location":{"latitude":"51.514017","street":{"id":956186,"name":"On or near Endell Street"},"longitude":"-0.123850"},"context":"","outcome_status":null,"persistent_id":"","id":77024114,"location_subtype":"","month":"2019-08"},{"category":"anti-social-behaviour","location_type":"Force","location":{"latitude":"51.514017","street":{"id":956186,"name":"On or near Endell Street"},"longitude":"-0.123850"},"context":"","outcome_status":null,"persistent_id":"","id":77024115,"location_subtype":"","month":"2019-08"},{"category":"anti-social-behaviour","location_type":"Force","location":{"latitude":"51.508577","street":{"id":956212,"name":"On or near Nightclub"},"longitude":"-0.124419"},"context":"","outcome_status":null,"persistent_id":"","id":77024116,"location_subtype":"","month":"2019-08"},{"category":"anti-social-behaviour","location_type":"Force","location":{"latitude":"51.508577","street":{"id":956212,"name":"On or near Nightclub"},"longitude":"-0.124419"},"context":"","outcome_status":null,"persistent_id":"","id":77024117,"location_subtype":"","month":"2019-08"},{"category":"anti-social-behaviour","location_type":"Force","location":{"latitude":"51.509777","street":{"id":956227,"name":"On or near Police Station"},"longitude":"-0.124673"},"context":"","outcome_status":null,"persistent_id":"","id":77024118,"location_subtype":"","month":"2019-08"},{"category":"anti-social-behaviour","location_type":"Force","location":{"latitude":"51.508577","street":{"id":956212,"name":"On or near Nightclub"},"longitude":"-0.124419"},"context":"","outcome_status":null,"persistent_id":"","id":77024119,"location_subtype":"","month":"2019-08"},{"category":"anti-social-behaviour","location_type":"Force","location":{"latitude":"51.509312","street":{"id":956203,"name":"On or near Adelaide Street"},"longitude":"-0.125931"},"context":"","outcome_status":null,"persistent_id":"","id":77024137,"location_subtype":"","month":"2019-08"},{"category":"anti-social-behaviour","location_type":"Force","location":{"latitude":"51.508592","street":{"id":956519,"name":"On or near Duncannon Street"},"longitude":"-0.126479"},"context":"","outcome_status":null,"persistent_id":"","id":77024138,"location_subtype":"","month":"2019-08"},{"category":"anti-social-behaviour","location_type":"Force","location":{"latitude":"51.508592","street":{"id":956519,"name":"On or near Duncannon Street"},"longitude":"-0.126479"},"context":"","outcome_status":null,"persistent_id":"","id":77024139,"location_subtype":"","month":"2019-08"},{"category":"anti-social-behaviour","location_type":"Force","location":{"latitude":"51.497255","street":{"id":953278,"name":"On or near Little College Street"},"longitude":"-0.126656"},"context":"","outcome_status":null,"persistent_id":"","id":77024140,"location_subtype":"","month":"2019-08"},{"category":"anti-social-behaviour","location_type":"Force","location":{"latitude":"51.511114","street":{"id":956482,"name":"On or near New Row"},"longitude":"-0.126160"},"context":"","outcome_status":null,"persistent_id":"","id":77024141,"location_subtype":"","month":"2019-08"},{"category":"anti-social-behaviour","location_type":"Force","location":{"latitude":"51.511114","street":{"id":956482,"name":"On or near New Row"},"longitude":"-0.126160"},"context":"","outcome_status":null,"persistent_id":"","id":77024142,"location_subtype":"","month":"2019-08"},{"category":"anti-social-behaviour","location_type":"Force","location":{"latitude":"51.511114","street":{"id":956482,"name":"On or near New Row"},"longitude":"-0.126160"},"context":"","outcome_status":null,"persistent_id":"","id":77024143,"location_subtype":"","month":"2019-08"},{"category":"anti-social-behaviour","location_type":"Force","location":{"latitude":"51.507473","street":{"id":956299,"name":"On or near Northumberland Street"},"longitude":"-0.125675"},"context":"","outcome_status":null,"persistent_id":"","id":77024144,"location_subtype":"","month":"2019-08"},{"category":"anti-social-behaviour","location_type":"Force","location":{"latitude":"51.507473","street":{"id":956299,"name":"On or near Northumberland Street"},"longitude":"-0.125675"},"context":"","outcome_status":null,"persistent_id":"","id":77024145,"location_subtype":"","month":"2019-08"},{"category":"anti-social-behaviour","location_type":"Force","location":{"latitude":"51.495273","street":{"id":953421,"name":"On or near Dean Bradley Street"},"longitude":"-0.126954"},"context":"","outcome_status":null,"persistent_id":"","id":77024146,"location_subtype":"","month":"2019-08"},{"category":"anti-social-behaviour","location_type":"Force","location":{"latitude":"51.511114","street":{"id":956482,"name":"On or near New Row"},"longitude":"-0.126160"},"context":"","outcome_status":null,"persistent_id":"","id":77024147,"location_subtype":"","month":"2019-08"},{"category":"anti-social-behaviour","location_type":"Force","location":{"latitude":"51.509929","street":{"id":956469,"name":"On or near Regent Street"},"longitude":"-0.136440"},"context":"","outcome_status":null,"persistent_id":"","id":77026950,"location_subtype":"","month":"2019-08"},{"category":"anti-social-behaviour","location_type":"Force","location":{"latitude":"51.509929","street":{"id":956469,"name":"On or near Regent Street"},"longitude":"-0.136440"},"context":"","outcome_status":null,"persistent_id":"","id":77026951,"location_subtype":"","month":"2019-08"},{"category":"anti-social-behaviour","location_type":"Force","location":{"latitude":"51.511394","street":{"id":956491,"name":"On or near Lower James Street"},"longitude":"-0.136424"},"context":"","outcome_status":null,"persistent_id":"","id":77026952,"location_subtype":"","month":"2019-08"},{"category":"anti-social-behaviour","location_type":"Force","location":{"latitude":"51.511394","street":{"id":956491,"name":"On or near Lower James Street"},"longitude":"-0.136424"},"context":"","outcome_status":null,"persistent_id":"","id":77026953,"location_subtype":"","month":"2019-08"},{"category":"anti-social-behaviour","location_type":"Force","location":{"latitude":"51.511394","street":{"id":956491,"name":"On or near Lower James Street"},"longitude":"-0.136424"},"context":"","outcome_status":null,"persistent_id":"","id":77026954,"location_subtype":"","month":"2019-08"},{"category":"anti-social-behaviour","location_type":"Force","location":{"latitude":"51.494972","street":{"id":953418,"name":"On or near Greencoat Place"},"longitude":"-0.136849"},"context":"","outcome_status":null,"persistent_id":"","id":77026955,"location_subtype":"","month":"2019-08"},{"category":"anti-social-behaviour","location_type":"Force","location":{"latitude":"51.494972","street":{"id":953418,"name":"On or near Greencoat Place"},"longitude":"-0.136849"},"context":"","outcome_status":null,"persistent_id":"","id":77026956,"location_subtype":"","month":"2019-08"},{"category":"anti-social-behaviour","location_type":"Force","location":{"latitude":"51.494972","street":{"id":953418,"name":"On or near Greencoat Place"},"longitude":"-0.136849"},"context":"","outcome_status":null,"persistent_id":"","id":77026957,"location_subtype":"","month":"2019-08"},{"category":"anti-social-behaviour","location_type":"Force","location":{"latitude":"51.510108","street":{"id":956542,"name":"On or near Air Street"},"longitude":"-0.136390"},"context":"","outcome_status":null,"persistent_id":"","id":77026958,"location_subtype":"","month":"2019-08"},{"category":"anti-social-behaviour","location_type":"Force","location":{"latitude":"51.507386","street":{"id":956682,"name":"On or near Masons Yard"},"longitude":"-0.137682"},"context":"","outcome_status":null,"persistent_id":"","id":77026977,"location_subtype":"","month":"2019-08"},{"category":"anti-social-behaviour","location_type":"Force","location":{"latitude":"51.503219","street":{"id":953731,"name":"On or near Nelson Square"},"longitude":"-0.103271"},"context":"","outcome_status":null,"persistent_id":"","id":77018498,"location_subtype":"","month":"2019-08"},{"category":"anti-social-behaviour","location_type":"Force","location":{"latitude":"51.506064","street":{"id":956135,"name":"On or near Burrell Street"},"longitude":"-0.103470"},"context":"","outcome_status":null,"persistent_id":"","id":77018499,"location_subtype":"","month":"2019-08"},{"category":"anti-social-behaviour","location_type":"Force","location":{"latitude":"51.496930","street":{"id":953705,"name":"On or near Garden Row"},"longitude":"-0.104151"},"context":"","outcome_status":null,"persistent_id":"","id":77018503,"location_subtype":"","month":"2019-08"},{"category":"anti-social-behaviour","location_type":"Force","location":{"latitude":"51.496930","street":{"id":953705,"name":"On or near Garden Row"},"longitude":"-0.104151"},"context":"","outcome_status":null,"persistent_id":"","id":77018504,"location_subtype":"","month":"2019-08"},{"category":"anti-social-behaviour","location_type":"Force","location":{"latitude":"51.496930","street":{"id":953705,"name":"On or near Garden Row"},"longitude":"-0.104151"},"context":"","outcome_status":null,"persistent_id":"","id":77018505,"location_subtype":"","month":"2019-08"},{"category":"anti-social-behaviour","location_type":"Force","location":{"latitude":"51.499728","street":{"id":953745,"name":"On or near Davidge Street"},"longitude":"-0.103142"},"context":"","outcome_status":null,"persistent_id":"","id":77018508,"location_subtype":"","month":"2019-08"},{"category":"anti-social-behaviour","location_type":"Force","location":{"latitude":"51.499728","street":{"id":953745,"name":"On or near Davidge Street"},"longitude":"-0.103142"},"context":"","outcome_status":null,"persistent_id":"","id":77018509,"location_subtype":"","month":"2019-08"},{"category":"anti-social-behaviour","location_type":"Force","location":{"latitude":"51.499219","street":{"id":953755,"name":"On or near Further/higher Educational Building"},"longitude":"-0.104474"},"context":"","outcome_status":null,"persistent_id":"","id":77018514,"location_subtype":"","month":"2019-08"},{"category":"anti-social-behaviour","location_type":"Force","location":{"latitude":"51.503570","street":{"id":953476,"name":"On or near The Cut"},"longitude":"-0.105504"},"context":"","outcome_status":null,"persistent_id":"","id":77018529,"location_subtype":"","month":"2019-08"},{"category":"anti-social-behaviour","location_type":"Force","location":{"latitude":"51.501767","street":{"id":953473,"name":"On or near Valentine Place"},"longitude":"-0.105781"},"context":"","outcome_status":null,"persistent_id":"","id":77018530,"location_subtype":"","month":"2019-08"},{"category":"anti-social-behaviour","location_type":"Force","location":{"latitude":"51.498524","street":{"id":953431,"name":"On or near Westminster Bridge Road"},"longitude":"-0.107125"},"context":"","outcome_status":null,"persistent_id":"","id":77018532,"location_subtype":"","month":"2019-08"},{"category":"anti-social-behaviour","location_type":"Force","location":{"latitude":"51.503350","street":{"id":953517,"name":"On or near Further/higher Educational Building"},"longitude":"-0.105830"},"context":"","outcome_status":null,"persistent_id":"","id":77018533,"location_subtype":"","month":"2019-08"},{"category":"anti-social-behaviour","location_type":"Force","location":{"latitude":"51.500039","street":{"id":953471,"name":"On or near Webber Row"},"longitude":"-0.107365"},"context":"","outcome_status":null,"persistent_id":"","id":77018536,"location_subtype":"","month":"2019-08"},{"category":"anti-social-behaviour","location_type":"Force","location":{"latitude":"51.499572","street":{"id":953472,"name":"On or near Waterloo Road"},"longitude":"-0.106823"},"context":"","outcome_status":null,"persistent_id":"","id":77018537,"location_subtype":"","month":"2019-08"},{"category":"anti-social-behaviour","location_type":"Force","location":{"latitude":"51.500039","street":{"id":953471,"name":"On or near Webber Row"},"longitude":"-0.107365"},"context":"","outcome_status":null,"persistent_id":"","id":77018538,"location_subtype":"","month":"2019-08"},{"category":"anti-social-behaviour","location_type":"Force","location":{"latitude":"51.500039","street":{"id":953471,"name":"On or near Webber Row"},"longitude":"-0.107365"},"context":"","outcome_status":null,"persistent_id":"","id":77018539,"location_subtype":"","month":"2019-08"},{"category":"anti-social-behaviour","location_type":"Force","location":{"latitude":"51.495030","street":{"id":953455,"name":"On or near Brook Drive"},"longitude":"-0.109604"},"context":"","outcome_status":null,"persistent_id":"","id":77018540,"location_subtype":"","month":"2019-08"},{"category":"anti-social-behaviour","location_type":"Force","location":{"latitude":"51.495756","street":{"id":953445,"name":"On or near Kennington Road"},"longitude":"-0.111115"},"context":"","outcome_status":null,"persistent_id":"","id":77018541,"location_subtype":"","month":"2019-08"},{"category":"anti-social-behaviour","location_type":"Force","location":{"latitude":"51.495756","street":{"id":953445,"name":"On or near Kennington Road"},"longitude":"-0.111115"},"context":"","outcome_status":null,"persistent_id":"","id":77018542,"location_subtype":"","month":"2019-08"},{"category":"anti-social-behaviour","location_type":"Force","location":{"latitude":"51.500439","street":{"id":953746,"name":"On or near Collinson Street"},"longitude":"-0.098747"},"context":"","outcome_status":null,"persistent_id":"","id":77018112,"location_subtype":"","month":"2019-08"},{"category":"anti-social-behaviour","location_type":"Force","location":{"latitude":"51.500439","street":{"id":953746,"name":"On or near Collinson Street"},"longitude":"-0.098747"},"context":"","outcome_status":null,"persistent_id":"","id":77018113,"location_subtype":"","month":"2019-08"},{"category":"anti-social-behaviour","location_type":"Force","location":{"latitude":"51.500894","street":{"id":953717,"name":"On or near Toulmin Street"},"longitude":"-0.096855"},"context":"","outcome_status":null,"persistent_id":"","id":77018054,"location_subtype":"","month":"2019-08"},{"category":"anti-social-behaviour","location_type":"Force","location":{"latitude":"51.514364","street":{"id":956473,"name":"On or near Phoenix Street"},"longitude":"-0.129212"},"context":"","outcome_status":null,"persistent_id":"","id":77027421,"location_subtype":"","month":"2019-08"},{"category":"anti-social-behaviour","location_type":"Force","location":{"latitude":"51.514500","street":{"id":956453,"name":"On or near St Giles Passage"},"longitude":"-0.128139"},"context":"","outcome_status":null,"persistent_id":"","id":77027397,"location_subtype":"","month":"2019-08"},{"category":"anti-social-behaviour","location_type":"Force","location":{"latitude":"51.514500","street":{"id":956453,"name":"On or near St Giles Passage"},"longitude":"-0.128139"},"context":"","outcome_status":null,"persistent_id":"","id":77027396,"location_subtype":"","month":"2019-08"},{"category":"anti-social-behaviour","location_type":"Force","location":{"latitude":"51.514500","street":{"id":956453,"name":"On or near St Giles Passage"},"longitude":"-0.128139"},"context":"","outcome_status":null,"persistent_id":"","id":77027395,"location_subtype":"","month":"2019-08"},{"category":"anti-social-behaviour","location_type":"Force","location":{"latitude":"51.514500","street":{"id":956453,"name":"On or near St Giles Passage"},"longitude":"-0.128139"},"context":"","outcome_status":null,"persistent_id":"","id":77027394,"location_subtype":"","month":"2019-08"},{"category":"anti-social-behaviour","location_type":"Force","location":{"latitude":"51.514500","street":{"id":956453,"name":"On or near St Giles Passage"},"longitude":"-0.128139"},"context":"","outcome_status":null,"persistent_id":"","id":77027393,"location_subtype":"","month":"2019-08"},{"category":"anti-social-behaviour","location_type":"Force","location":{"latitude":"51.503784","street":{"id":953715,"name":"On or near Union Street"},"longitude":"-0.098147"},"context":"","outcome_status":null,"persistent_id":"","id":77018069,"location_subtype":"","month":"2019-08"},{"category":"anti-social-behaviour","location_type":"Force","location":{"latitude":"51.514500","street":{"id":956453,"name":"On or near St Giles Passage"},"longitude":"-0.128139"},"context":"","outcome_status":null,"persistent_id":"","id":77027392,"location_subtype":"","month":"2019-08"},{"category":"anti-social-behaviour","location_type":"Force","location":{"latitude":"51.515681","street":{"id":956454,"name":"On or near St Giles High Street"},"longitude":"-0.128884"},"context":"","outcome_status":null,"persistent_id":"","id":77027391,"location_subtype":"","month":"2019-08"},{"category":"anti-social-behaviour","location_type":"Force","location":{"latitude":"51.500439","street":{"id":953746,"name":"On or near Collinson Street"},"longitude":"-0.098747"},"context":"","outcome_status":null,"persistent_id":"","id":77018090,"location_subtype":"","month":"2019-08"},{"category":"anti-social-behaviour","location_type":"Force","location":{"latitude":"51.498281","street":{"id":953690,"name":"On or near Parking Area"},"longitude":"-0.098750"},"context":"","outcome_status":null,"persistent_id":"","id":77018095,"location_subtype":"","month":"2019-08"},{"category":"anti-social-behaviour","location_type":"Force","location":{"latitude":"51.498281","street":{"id":953690,"name":"On or near Parking Area"},"longitude":"-0.098750"},"context":"","outcome_status":null,"persistent_id":"","id":77018096,"location_subtype":"","month":"2019-08"},{"category":"anti-social-behaviour","location_type":"Force","location":{"latitude":"51.514854","street":{"id":956483,"name":"On or near New Compton Street"},"longitude":"-0.127808"},"context":"","outcome_status":null,"persistent_id":"","id":77027388,"location_subtype":"","month":"2019-08"},{"category":"anti-social-behaviour","location_type":"Force","location":{"latitude":"51.498281","street":{"id":953690,"name":"On or near Parking Area"},"longitude":"-0.098750"},"context":"","outcome_status":null,"persistent_id":"","id":77018097,"location_subtype":"","month":"2019-08"},{"category":"anti-social-behaviour","location_type":"Force","location":{"latitude":"51.500439","street":{"id":953746,"name":"On or near Collinson Street"},"longitude":"-0.098747"},"context":"","outcome_status":null,"persistent_id":"","id":77018103,"location_subtype":"","month":"2019-08"},{"category":"anti-social-behaviour","location_type":"Force","location":{"latitude":"51.500439","street":{"id":953746,"name":"On or near Collinson Street"},"longitude":"-0.098747"},"context":"","outcome_status":null,"persistent_id":"","id":77018104,"location_subtype":"","month":"2019-08"},{"category":"anti-social-behaviour","location_type":"Force","location":{"latitude":"51.500439","street":{"id":953746,"name":"On or near Collinson Street"},"longitude":"-0.098747"},"context":"","outcome_status":null,"persistent_id":"","id":77018105,"location_subtype":"","month":"2019-08"},{"category":"anti-social-behaviour","location_type":"Force","location":{"latitude":"51.513226","street":{"id":956447,"name":"On or near Tower Street"},"longitude":"-0.127774"},"context":"","outcome_status":null,"persistent_id":"","id":77027387,"location_subtype":"","month":"2019-08"},{"category":"anti-social-behaviour","location_type":"Force","location":{"latitude":"51.516275","street":{"id":956555,"name":"On or near Theatre/concert Hall"},"longitude":"-0.126121"},"context":"","outcome_status":null,"persistent_id":"","id":77027370,"location_subtype":"","month":"2019-08"},{"category":"anti-social-behaviour","location_type":"Force","location":{"latitude":"51.514976","street":{"id":956185,"name":"On or near Endell Street"},"longitude":"-0.125309"},"context":"","outcome_status":null,"persistent_id":"","id":77027337,"location_subtype":"","month":"2019-08"},{"category":"anti-social-behaviour","location_type":"Force","location":{"latitude":"51.514976","street":{"id":956185,"name":"On or near Endell Street"},"longitude":"-0.125309"},"context":"","outcome_status":null,"persistent_id":"","id":77027336,"location_subtype":"","month":"2019-08"},{"category":"anti-social-behaviour","location_type":"Force","location":{"latitude":"51.514696","street":{"id":956152,"name":"On or near Shorts Gardens"},"longitude":"-0.125234"},"context":"","outcome_status":null,"persistent_id":"","id":77027334,"location_subtype":"","month":"2019-08"},{"category":"anti-social-behaviour","location_type":"Force","location":{"latitude":"51.514696","street":{"id":956152,"name":"On or near Shorts Gardens"},"longitude":"-0.125234"},"context":"","outcome_status":null,"persistent_id":"","id":77027333,"location_subtype":"","month":"2019-08"},{"category":"anti-social-behaviour","location_type":"Force","location":{"latitude":"51.514696","street":{"id":956152,"name":"On or near Shorts Gardens"},"longitude":"-0.125234"},"context":"","outcome_status":null,"persistent_id":"","id":77027332,"location_subtype":"","month":"2019-08"},{"category":"anti-social-behaviour","location_type":"Force","location":{"latitude":"51.513745","street":{"id":956153,"name":"On or near Shelton Street"},"longitude":"-0.125360"},"context":"","outcome_status":null,"persistent_id":"","id":77027331,"location_subtype":"","month":"2019-08"},{"category":"anti-social-behaviour","location_type":"Force","location":{"latitude":"51.515412","street":{"id":956190,"name":"On or near Drury Lane"},"longitude":"-0.123317"},"context":"","outcome_status":null,"persistent_id":"","id":77027302,"location_subtype":"","month":"2019-08"},{"category":"anti-social-behaviour","location_type":"Force","location":{"latitude":"51.515412","street":{"id":956190,"name":"On or near Drury Lane"},"longitude":"-0.123317"},"context":"","outcome_status":null,"persistent_id":"","id":77027301,"location_subtype":"","month":"2019-08"},{"category":"anti-social-behaviour","location_type":"Force","location":{"latitude":"51.515412","street":{"id":956190,"name":"On or near Drury Lane"},"longitude":"-0.123317"},"context":"","outcome_status":null,"persistent_id":"","id":77027298,"location_subtype":"","month":"2019-08"},{"category":"anti-social-behaviour","location_type":"Force","location":{"latitude":"51.515412","street":{"id":956190,"name":"On or near Drury Lane"},"longitude":"-0.123317"},"context":"","outcome_status":null,"persistent_id":"","id":77027297,"location_subtype":"","month":"2019-08"},{"category":"anti-social-behaviour","location_type":"Force","location":{"latitude":"51.495085","street":{"id":953392,"name":"On or near Francis Street"},"longitude":"-0.138313"},"context":"","outcome_status":null,"persistent_id":"","id":77026993,"location_subtype":"","month":"2019-08"},