[{"category":"anti-social-behaviour","location_type":"Force","location":{"latitude":"51.508577","street":{"id":956212,"name":"On or near Nightclub"},"longitude":"-0.124419"},"context":"","outcome_status":null,"persistent_id":"","id":73030053,"location_subtype":"","month":"2019-03"},{"category":"anti-social-behaviour","location_type":"Force","location":{"latitude":"51.511486","street":{"id":956458,"name":"On or near Smith's Court"},"longitude":"-0.134849"},"context":"","outcome_status":null,"persistent_id":"","id":73032022,"location_subtype":"","month":"2019-03"},{"category":"anti-social-behaviour","location_type":"Force","location":{"latitude":"51.505179","street":{"id":956283,"name":"On or near Hatfields"},"longitude":"-0.106547"},"context":"","outcome_status":null,"persistent_id":"","id":73032374,"location_subtype":"","month":"2019-03"},{"category":"anti-social-behaviour","location_type":"Force","location":{"latitude":"51.505179","street":{"id":956283,"name":"On or near Hatfields"},"longitude":"-0.106547"},"context":"","outcome_status":null,"persistent_id":"","id":73032373,"location_subtype":"","month":"2019-03"},{"category":"anti-social-behaviour","location_type":"Force","location":{"latitude":"51.504326","street":{"id":953505,"name":"On or near Brad Street"},"longitude":"-0.108859"},"context":"","outcome_status":null,"persistent_id":"","id":73032413,"location_subtype":"","month":"2019-03"},{"category":"anti-social-behaviour","location_type":"Force","location":{"latitude":"51.490842","street":{"id":949562,"name":"On or near Petrol Station"},"longitude":"-0.111448"},"context":"","outcome_status":null,"persistent_id":"","id":73032436,"location_subtype":"","month":"2019-03"},{"category":"anti-social-behaviour","location_type":"Force","location":{"latitude":"51.503637","street":{"id":953483,"name":"On or near Sandell Street"},"longitude":"-0.110804"},"context":"","outcome_status":null,"persistent_id":"","id":73032993,"location_subtype":"","month":"2019-03"},{"category":"anti-social-behaviour","location_type":"Force","location":{"latitude":"51.494015","street":{"id":953558,"name":"On or near Walnut Tree Walk"},"longitude":"-0.112469"},"context":"","outcome_status":null,"persistent_id":"","id":73032997,"location_subtype":"","month":"2019-03"},{"category":"anti-social-behaviour","location_type":"Force","location":{"latitude":"51.506837","street":{"id":956277,"name":"On or near Upper Ground"},"longitude":"-0.111824"},"context":"","outcome_status":null,"persistent_id":"","id":73033057,"location_subtype":"","month":"2019-03"},{"category":"anti-social-behaviour","location_type":"Force","location":{"latitude":"51.500769","street":{"id":953527,"name":"On or near Pedestrian Subway"},"longitude":"-0.119222"},"context":"","outcome_status":null,"persistent_id":"","id":73033533,"location_subtype":"","month":"2019-03"},{"category":"anti-social-behaviour","location_type":"Force","location":{"latitude":"51.491750","street":{"id":949708,"name":"On or near Erasmus Street"},"longitude":"-0.129936"},"context":"","outcome_status":null,"persistent_id":"","id":73030800,"location_subtype":"","month":"2019-03"},{"category":"anti-social-behaviour","location_type":"Force","location":{"latitude":"51.491750","street":{"id":949708,"name":"On or near Erasmus Street"},"longitude":"-0.129936"},"context":"","outcome_status":null,"persistent_id":"","id":73030801,"location_subtype":"","month":"2019-03"},{"category":"anti-social-behaviour","location_type":"Force","location":{"latitude":"51.497928","street":{"id":953295,"name":"On or near Conference/exhibition Centre"},"longitude":"-0.129366"},"context":"","outcome_status":null,"persistent_id":"","id":73030802,"location_subtype":"","month":"2019-03"},{"category":"anti-social-behaviour","location_type":"Force","location":{"latitude":"51.513158","street":{"id":956593,"name":"On or near Theatre/concert Hall"},"longitude":"-0.129722"},"context":"","outcome_status":null,"persistent_id":"","id":73030803,"location_subtype":"","month":"2019-03"},{"category":"anti-social-behaviour","location_type":"Force","location":{"latitude":"51.496909","street":{"id":953283,"name":"On or near Great Peter Street"},"longitude":"-0.129739"},"context":"","outcome_status":null,"persistent_id":"","id":73030804,"location_subtype":"","month":"2019-03"},{"category":"anti-social-behaviour","location_type":"Force","location":{"latitude":"51.514046","street":{"id":956529,"name":"On or near Charing Cross Road"},"longitude":"-0.129599"},"context":"","outcome_status":null,"persistent_id":"","id":73030806,"location_subtype":"","month":"2019-03"},{"category":"anti-social-behaviour","location_type":"Force","location":{"latitude":"51.514046","street":{"id":956529,"name":"On or near Charing Cross Road"},"longitude":"-0.129599"},"context":"","outcome_status":null,"persistent_id":"","id":73030807,"location_subtype":"","month":"2019-03"},{"category":"anti-social-behaviour","location_type":"Force","location":{"latitude":"51.514046","street":{"id":956529,"name":"On or near Charing Cross Road"},"longitude":"-0.129599"},"context":"","outcome_status":null,"persistent_id":"","id":73030808,"location_subtype":"","month":"2019-03"},{"category":"anti-social-behaviour","location_type":"Force","location":{"latitude":"51.508005","street":{"id":956644,"name":"On or near Pall Mall East"},"longitude":"-0.130265"},"context":"","outcome_status":null,"persistent_id":"","id":73030809,"location_subtype":"","month":"2019-03"},{"category":"anti-social-behaviour","location_type":"Force","location":{"latitude":"51.507657","street":{"id":956660,"name":"On or near Cockspur Street"},"longitude":"-0.129890"},"context":"","outcome_status":null,"persistent_id":"","id":73030810,"location_subtype":"","month":"2019-03"},{"category":"anti-social-behaviour","location_type":"Force","location":{"latitude":"51.511783","street":{"id":956547,"name":"On or near Nightclub"},"longitude":"-0.129778"},"context":"","outcome_status":null,"persistent_id":"","id":73030811,"location_subtype":"","month":"2019-03"},{"category":"anti-social-behaviour","location_type":"Force","location":{"latitude":"51.513474","street":{"id":956484,"name":"On or near Moor Street"},"longitude":"-0.129824"},"context":"","outcome_status":null,"persistent_id":"","id":73030831,"location_subtype":"","month":"2019-03"},{"category":"anti-social-behaviour","location_type":"Force","location":{"latitude":"51.513474","street":{"id":956484,"name":"On or near Moor Street"},"longitude":"-0.129824"},"context":"","outcome_status":null,"persistent_id":"","id":73030832,"location_subtype":"","month":"2019-03"},{"category":"anti-social-behaviour","location_type":"Force","location":{"latitude":"51.510827","street":{"id":956579,"name":"On or near Nightclub"},"longitude":"-0.130697"},"context":"","outcome_status":null,"persistent_id":"","id":73030834,"location_subtype":"","month":"2019-03"},{"category":"anti-social-behaviour","location_type":"Force","location":{"latitude":"51.510827","street":{"id":956579,"name":"On or near Nightclub"},"longitude":"-0.130697"},"context":"","outcome_status":null,"persistent_id":"","id":73030835,"location_subtype":"","month":"2019-03"},{"category":"anti-social-behaviour","location_type":"Force","location":{"latitude":"51.510827","street":{"id":956579,"name":"On or near Nightclub"},"longitude":"-0.130697"},"context":"","outcome_status":null,"persistent_id":"","id":73030836,"location_subtype":"","month":"2019-03"},{"category":"anti-social-behaviour","location_type":"Force","location":{"latitude":"51.510827","street":{"id":956579,"name":"On or near Nightclub"},"longitude":"-0.130697"},"context":"","outcome_status":null,"persistent_id":"","id":73030837,"location_subtype":"","month":"2019-03"},{"category":"anti-social-behaviour","location_type":"Force","location":{"latitude":"51.510827","street":{"id":956579,"name":"On or near Nightclub"},"longitude":"-0.130697"},"context":"","outcome_status":null,"persistent_id":"","id":73030838,"location_subtype":"","month":"2019-03"},{"category":"anti-social-behaviour","location_type":"Force","location":{"latitude":"51.510827","street":{"id":956579,"name":"On or near Nightclub"},"longitude":"-0.130697"},"context":"","outcome_status":null,"persistent_id":"","id":73030839,"location_subtype":"","month":"2019-03"},{"category":"anti-social-behaviour","location_type":"Force","location":{"latitude":"51.510827","street":{"id":956579,"name":"On or near Nightclub"},"longitude":"-0.130697"},"context":"","outcome_status":null,"persistent_id":"","id":73030840,"location_subtype":"","month":"2019-03"},{"category":"anti-social-behaviour","location_type":"Force","location":{"latitude":"51.510827","street":{"id":956579,"name":"On or near Nightclub"},"longitude":"-0.130697"},"context":"","outcome_status":null,"persistent_id":"","id":73030841,"location_subtype":"","month":"2019-03"},{"category":"anti-social-behaviour","location_type":"Force","location":{"latitude":"51.510827","street":{"id":956579,"name":"On or near Nightclub"},"longitude":"-0.130697"},"context":"","outcome_status":null,"persistent_id":"","id":73030842,"location_subtype":"","month":"2019-03"},{"category":"anti-social-behaviour","location_type":"Force","location":{"latitude":"51.490621","street":{"id":949718,"name":"On or near Causton Street"},"longitude":"-0.131322"},"context":"","outcome_status":null,"persistent_id":"","id":73030843,"location_subtype":"","month":"2019-03"},{"category":"anti-social-behaviour","location_type":"Force","location":{"latitude":"51.494730","street":{"id":953409,"name":"On or near Regency Street"},"longitude":"-0.132393"},"context":"","outcome_status":null,"persistent_id":"","id":73030850,"location_subtype":"","month":"2019-03"},{"category":"anti-social-behaviour","location_type":"Force","location":{"latitude":"51.494730","street":{"id":953409,"name":"On or near Regency Street"},"longitude":"-0.132393"},"context":"","outcome_status":null,"persistent_id":"","id":73030851,"location_subtype":"","month":"2019-03"},{"category":"anti-social-behaviour","location_type":"Force","location":{"latitude":"51.497183","street":{"id":953270,"name":"On or near Perkin's Rents"},"longitude":"-0.132249"},"context":"","outcome_status":null,"persistent_id":"","id":73030866,"location_subtype":"","month":"2019-03"},{"category":"anti-social-behaviour","location_type":"Force","location":{"latitude":"51.513664","street":{"id":956513,"name":"On or near Frith Street"},"longitude":"-0.131575"},"context":"","outcome_status":null,"persistent_id":"","id":73030868,"location_subtype":"","month":"2019-03"},{"category":"anti-social-behaviour","location_type":"Force","location":{"latitude":"51.513664","street":{"id":956513,"name":"On or near Frith Street"},"longitude":"-0.131575"},"context":"","outcome_status":null,"persistent_id":"","id":73030869,"location_subtype":"","month":"2019-03"},{"category":"anti-social-behaviour","location_type":"Force","location":{"latitude":"51.513664","street":{"id":956513,"name":"On or near Frith Street"},"longitude":"-0.131575"},"context":"","outcome_status":null,"persistent_id":"","id":73030870,"location_subtype":"","month":"2019-03"},{"category":"anti-social-behaviour","location_type":"Force","location":{"latitude":"51.513664","street":{"id":956513,"name":"On or near Frith Street"},"longitude":"-0.131575"},"context":"","outcome_status":null,"persistent_id":"","id":73030871,"location_subtype":"","month":"2019-03"},{"category":"anti-social-behaviour","location_type":"Force","location":{"latitude":"51.513664","street":{"id":956513,"name":"On or near Frith Street"},"longitude":"-0.131575"},"context":"","outcome_status":null,"persistent_id":"","id":73030872,"location_subtype":"","month":"2019-03"},{"category":"anti-social-behaviour","location_type":"Force","location":{"latitude":"51.511981","street":{"id":956462,"name":"On or near Shaftesbury Avenue"},"longitude":"-0.132019"},"context":"","outcome_status":null,"persistent_id":"","id":73030876,"location_subtype":"","month":"2019-03"},{"category":"anti-social-behaviour","location_type":"Force","location":{"latitude":"51.492264","street":{"id":953408,"name":"On or near Regency Street"},"longitude":"-0.132277"},"context":"","outcome_status":null,"persistent_id":"","id":73030877,"location_subtype":"","month":"2019-03"},{"category":"anti-social-behaviour","location_type":"Force","location":{"latitude":"51.509980","street":{"id":956543,"name":"On or near Motorway Service Area"},"longitude":"-0.132331"},"context":"","outcome_status":null,"persistent_id":"","id":73030878,"location_subtype":"","month":"2019-03"},{"category":"anti-social-behaviour","location_type":"Force","location":{"latitude":"51.509980","street":{"id":956543,"name":"On or near Motorway Service Area"},"longitude":"-0.132331"},"context":"","outcome_status":null,"persistent_id":"","id":73031405,"location_subtype":"","month":"2019-03"},{"category":"anti-social-behaviour","location_type":"Force","location":{"latitude":"51.509980","street":{"id":956543,"name":"On or near Motorway Service Area"},"longitude":"-0.132331"},"context":"","outcome_status":null,"persistent_id":"","id":73031406,"location_subtype":"","month":"2019-03"},{"category":"anti-social-behaviour","location_type":"Force","location":{"latitude":"51.514502","street":{"id":956594,"name":"On or near Theatre/concert Hall"},"longitude":"-0.132780"},"context":"","outcome_status":null,"persistent_id":"","id":73031408,"location_subtype":"","month":"2019-03"},{"category":"anti-social-behaviour","location_type":"Force","location":{"latitude":"51.511790","street":{"id":956461,"name":"On or near Shaftesbury Avenue"},"longitude":"-0.132473"},"context":"","outcome_status":null,"persistent_id":"","id":73031410,"location_subtype":"","month":"2019-03"},{"category":"anti-social-behaviour","location_type":"Force","location":{"latitude":"51.491668","street":{"id":949717,"name":"On or near Chapter Street"},"longitude":"-0.133267"},"context":"","outcome_status":null,"persistent_id":"","id":73031417,"location_subtype":"","month":"2019-03"},{"category":"anti-social-behaviour","location_type":"Force","location":{"latitude":"51.491668","street":{"id":949717,"name":"On or near Chapter Street"},"longitude":"-0.133267"},"context":"","outcome_status":null,"persistent_id":"","id":73031418,"location_subtype":"","month":"2019-03"},{"category":"anti-social-behaviour","location_type":"Force","location":{"latitude":"51.491248","street":{"id":949711,"name":"On or near Douglas Street"},"longitude":"-0.133414"},"context":"","outcome_status":null,"persistent_id":"","id":73031420,"location_subtype":"","month":"2019-03"},{"category":"anti-social-behaviour","location_type":"Force","location":{"latitude":"51.491248","street":{"id":949711,"name":"On or near Douglas Street"},"longitude":"-0.133414"},"context":"","outcome_status":null,"persistent_id":"","id":73031423,"location_subtype":"","month":"2019-03"},{"category":"anti-social-behaviour","location_type":"Force","location":{"latitude":"51.499482","street":{"id":953269,"name":"On or near Petty France"},"longitude":"-0.136016"},"context":"","outcome_status":null,"persistent_id":"","id":73032060,"location_subtype":"","month":"2019-03"},{"category":"anti-social-behaviour","location_type":"Force","location":{"latitude":"51.511394","street":{"id":956491,"name":"On or near Lower James Street"},"longitude":"-0.136424"},"context":"","outcome_status":null,"persistent_id":"","id":73032061,"location_subtype":"","month":"2019-03"},{"category":"anti-social-behaviour","location_type":"Force","location":{"latitude":"51.494972","street":{"id":953418,"name":"On or near Greencoat Place"},"longitude":"-0.136849"},"context":"","outcome_status":null,"persistent_id":"","id":73032063,"location_subtype":"","month":"2019-03"},{"category":"anti-social-behaviour","location_type":"Force","location":{"latitude":"51.494972","street":{"id":953418,"name":"On or near Greencoat Place"},"longitude":"-0.136849"},"context":"","outcome_status":null,"persistent_id":"","id":73032065,"location_subtype":"","month":"2019-03"},{"category":"anti-social-behaviour","location_type":"Force","location":{"latitude":"51.495085","street":{"id":953392,"name":"On or near Francis Street"},"longitude":"-0.138313"},"context":"","outcome_status":null,"persistent_id":"","id":73032083,"location_subtype":"","month":"2019-03"},{"category":"anti-social-behaviour","location_type":"Force","location":{"latitude":"51.495085","street":{"id":953392,"name":"On or near Francis Street"},"longitude":"-0.138313"},"context":"","outcome_status":null,"persistent_id":"","id":73032084,"location_subtype":"","month":"2019-03"},{"category":"anti-social-behaviour","location_type":"Force","location":{"latitude":"51.511045","street":{"id":956490,"name":"On or near Lower John Street"},"longitude":"-0.137086"},"context":"","outcome_status":null,"persistent_id":"","id":73032085,"location_subtype":"","month":"2019-03"},{"category":"anti-social-behaviour","location_type":"Force","location":{"latitude":"51.511045","street":{"id":956490,"name":"On or near Lower John Street"},"longitude":"-0.137086"},"context":"","outcome_status":null,"persistent_id":"","id":73032086,"location_subtype":"","month":"2019-03"},{"category":"anti-social-behaviour","location_type":"Force","location":{"latitude":"51.508266","street":{"id":956694,"name":"On or near Nightclub"},"longitude":"-0.139866"},"context":"","outcome_status":null,"persistent_id":"","id":73032121,"location_subtype":"","month":"2019-03"},{"category":"anti-social-behaviour","location_type":"Force","location":{"latitude":"51.509428","street":{"id":956477,"name":"On or near Orange Street"},"longitude":"-0.130379"},"context":"","outcome_status":null,"persistent_id":"","id":73031440,"location_subtype":"","month":"2019-03"},{"category":"anti-social-behaviour","location_type":"Force","location":{"latitude":"51.506344","street":{"id":956286,"name":"On or near Coin Street"},"longitude":"-0.110216"},"context":"","outcome_status":null,"persistent_id":"","id":73032425,"location_subtype":"","month":"2019-03"},{"category":"anti-social-behaviour","location_type":"Force","location":{"latitude":"51.513392","street":{"id":956488,"name":"On or near Meard Street"},"longitude":"-0.132566"},"context":"","outcome_status":null,"persistent_id":"","id":73031955,"location_subtype":"","month":"2019-03"},{"category":"anti-social-behaviour","location_type":"Force","location":{"latitude":"51.513096","street":{"id":956537,"name":"On or near Bourchier Street"},"longitude":"-0.132593"},"context":"","outcome_status":null,"persistent_id":"","id":73031956,"location_subtype":"","month":"2019-03"},{"category":"anti-social-behaviour","location_type":"Force","location":{"latitude":"51.513096","street":{"id":956537,"name":"On or near Bourchier Street"},"longitude":"-0.132593"},"context":"","outcome_status":null,"persistent_id":"","id":73031958,"location_subtype":"","month":"2019-03"},{"category":"anti-social-behaviour","location_type":"Force","location":{"latitude":"51.513096","street":{"id":956537,"name":"On or near Bourchier Street"},"longitude":"-0.132593"},"context":"","outcome_status":null,"persistent_id":"","id":73031959,"location_subtype":"","month":"2019-03"},{"category":"anti-social-behaviour","location_type":"Force","location":{"latitude":"51.513096","street":{"id":956537,"name":"On or near Bourchier Street"},"longitude":"-0.132593"},"context":"","outcome_status":null,"persistent_id":"","id":73031961,"location_subtype":"","month":"2019-03"},{"category":"anti-social-behaviour","location_type":"Force","location":{"latitude":"51.513096","street":{"id":956537,"name":"On or near Bourchier Street"},"longitude":"-0.132593"},"context":"","outcome_status":null,"persistent_id":"","id":73031964,"location_subtype":"","month":"2019-03"},{"category":"anti-social-behaviour","location_type":"Force","location":{"latitude":"51.511790","street":{"id":956461,"name":"On or near Shaftesbury Avenue"},"longitude":"-0.132473"},"context":"","outcome_status":null,"persistent_id":"","id":73031967,"location_subtype":"","month":"2019-03"},{"category":"anti-social-behaviour","location_type":"Force","location":{"latitude":"51.498734","street":{"id":953301,"name":"On or near Police Station"},"longitude":"-0.133122"},"context":"","outcome_status":null,"persistent_id":"","id":73031992,"location_subtype":"","month":"2019-03"},{"category":"anti-social-behaviour","location_type":"Force","location":{"latitude":"51.498734","street":{"id":953301,"name":"On or near Police Station"},"longitude":"-0.133122"},"context":"","outcome_status":null,"persistent_id":"","id":73031993,"location_subtype":"","month":"2019-03"},{"category":"anti-social-behaviour","location_type":"Force","location":{"latitude":"51.498734","street":{"id":953301,"name":"On or near Police Station"},"longitude":"-0.133122"},"context":"","outcome_status":null,"persistent_id":"","id":73031995,"location_subtype":"","month":"2019-03"},{"category":"anti-social-behaviour","location_type":"Force","location":{"latitude":"51.498734","street":{"id":953301,"name":"On or near Police Station"},"longitude":"-0.133122"},"context":"","outcome_status":null,"persistent_id":"","id":73031996,"location_subtype":"","month":"2019-03"},{"category":"anti-social-behaviour","location_type":"Force","location":{"latitude":"51.498734","street":{"id":953301,"name":"On or near Police Station"},"longitude":"-0.133122"},"context":"","outcome_status":null,"persistent_id":"","id":73031997,"location_subtype":"","month":"2019-03"},{"category":"anti-social-behaviour","location_type":"Force","location":{"latitude":"51.498734","street":{"id":953301,"name":"On or near Police Station"},"longitude":"-0.133122"},"context":"","outcome_status":null,"persistent_id":"","id":73031998,"location_subtype":"","month":"2019-03"},{"category":"anti-social-behaviour","location_type":"Force","location":{"latitude":"51.498734","street":{"id":953301,"name":"On or near Police Station"},"longitude":"-0.133122"},"context":"","outcome_status":null,"persistent_id":"","id":73031999,"location_subtype":"","month":"2019-03"},{"category":"anti-social-behaviour","location_type":"Force","location":{"latitude":"51.498734","street":{"id":953301,"name":"On or near Police Station"},"longitude":"-0.133122"},"context":"","outcome_status":null,"persistent_id":"","id":73032000,"location_subtype":"","month":"2019-03"},{"category":"anti-social-behaviour","location_type":"Force","location":{"latitude":"51.498734","street":{"id":953301,"name":"On or near Police Station"},"longitude":"-0.133122"},"context":"","outcome_status":null,"persistent_id":"","id":73032001,"location_subtype":"","month":"2019-03"},{"category":"anti-social-behaviour","location_type":"Force","location":{"latitude":"51.510757","street":{"id":956523,"name":"On or near Denman Street"},"longitude":"-0.134792"},"context":"","outcome_status":null,"persistent_id":"","id":73032014,"location_subtype":"","month":"2019-03"},{"category":"anti-social-behaviour","location_type":"Force","location":{"latitude":"51.508581","street":{"id":956540,"name":"On or near Babmaes Street"},"longitude":"-0.134838"},"context":"","outcome_status":null,"persistent_id":"","id":73032025,"location_subtype":"","month":"2019-03"},{"category":"anti-social-behaviour","location_type":"Force","location":{"latitude":"51.510006","street":{"id":956472,"name":"On or near Piccadilly Circus"},"longitude":"-0.135054"},"context":"","outcome_status":null,"persistent_id":"","id":73032027,"location_subtype":"","month":"2019-03"},{"category":"anti-social-behaviour","location_type":"Force","location":{"latitude":"51.510006","street":{"id":956472,"name":"On or near Piccadilly Circus"},"longitude":"-0.135054"},"context":"","outcome_status":null,"persistent_id":"","id":73032028,"location_subtype":"","month":"2019-03"},{"category":"anti-social-behaviour","location_type":"Force","location":{"latitude":"51.512764","street":{"id":956604,"name":"On or near Further/higher Educational Building"},"longitude":"-0.134898"},"context":"","outcome_status":null,"persistent_id":"","id":73032029,"location_subtype":"","month":"2019-03"},{"category":"anti-social-behaviour","location_type":"Force","location":{"latitude":"51.500039","street":{"id":953471,"name":"On or near Webber Row"},"longitude":"-0.107365"},"context":"","outcome_status":null,"persistent_id":"","id":73032385,"location_subtype":"","month":"2019-03"},{"category":"anti-social-behaviour","location_type":"Force","location":{"latitude":"51.503337","street":{"id":953502,"name":"On or near Cons Street"},"longitude":"-0.107776"},"context":"","outcome_status":null,"persistent_id":"","id":73032386,"location_subtype":"","month":"2019-03"},{"category":"anti-social-behaviour","location_type":"Force","location":{"latitude":"51.503337","street":{"id":953502,"name":"On or near Cons Street"},"longitude":"-0.107776"},"context":"","outcome_status":null,"persistent_id":"","id":73032387,"location_subtype":"","month":"2019-03"},{"category":"anti-social-behaviour","location_type":"Force","location":{"latitude":"51.498928","street":{"id":953448,"name":"On or near Gerridge Street"},"longitude":"-0.108160"},"context":"","outcome_status":null,"persistent_id":"","id":73032388,"location_subtype":"","month":"2019-03"},{"category":"anti-social-behaviour","location_type":"Force","location":{"latitude":"51.490842","street":{"id":949562,"name":"On or near Petrol Station"},"longitude":"-0.111448"},"context":"","outcome_status":null,"persistent_id":"","id":73032975,"location_subtype":"","month":"2019-03"},{"category":"anti-social-behaviour","location_type":"Force","location":{"latitude":"51.501299","street":{"id":953478,"name":"On or near Tanswell Street"},"longitude":"-0.111333"},"context":"","outcome_status":null,"persistent_id":"","id":73032979,"location_subtype":"","month":"2019-03"},{"category":"anti-social-behaviour","location_type":"Force","location":{"latitude":"51.501299","street":{"id":953478,"name":"On or near Tanswell Street"},"longitude":"-0.111333"},"context":"","outcome_status":null,"persistent_id":"","id":73032980,"location_subtype":"","month":"2019-03"},{"category":"anti-social-behaviour","location_type":"Force","location":{"latitude":"51.501299","street":{"id":953478,"name":"On or near Tanswell Street"},"longitude":"-0.111333"},"context":"","outcome_status":null,"persistent_id":"","id":73032981,"location_subtype":"","month":"2019-03"},{"category":"anti-social-behaviour","location_type":"Force","location":{"latitude":"51.500076","street":{"id":953512,"name":"On or near Sports/recreation Area"},"longitude":"-0.111902"},"context":"","outcome_status":null,"persistent_id":"","id":73032982,"location_subtype":"","month":"2019-03"},{"category":"anti-social-behaviour","location_type":"Force","location":{"latitude":"51.500019","street":{"id":953487,"name":"On or near Murphy Street"},"longitude":"-0.112265"},"context":"","outcome_status":null,"persistent_id":"","id":73033027,"location_subtype":"","month":"2019-03"},{"category":"anti-social-behaviour","location_type":"Force","location":{"latitude":"51.500019","street":{"id":953487,"name":"On or near Murphy Street"},"longitude":"-0.112265"},"context":"","outcome_status":null,"persistent_id":"","id":73033028,"location_subtype":"","month":"2019-03"},{"category":"anti-social-behaviour","location_type":"Force","location":{"latitude":"51.500019","street":{"id":953487,"name":"On or near Murphy Street"},"longitude":"-0.112265"},"context":"","outcome_status":null,"persistent_id":"","id":73033029,"location_subtype":"","month":"2019-03"},{"category":"anti-social-behaviour","location_type":"Force","location":{"latitude":"51.500019","street":{"id":953487,"name":"On or near Murphy Street"},"longitude":"-0.112265"},"context":"","outcome_status":null,"persistent_id":"","id":73033030,"location_subtype":"","month":"2019-03"},{"category":"anti-social-behaviour","location_type":"Force","location":{"latitude":"51.500019","street":{"id":953487,"name":"On or near Murphy Street"},"longitude":"-0.112265"},"context":"","outcome_status":null,"persistent_id":"","id":73033031,"location_subtype":"","month":"2019-03"},{"category":"anti-social-behaviour","location_type":"Force","location":{"latitude":"51.500019","street":{"id":953487,"name":"On or near Murphy Street"},"longitude":"-0.112265"},"context":"","outcome_status":null,"persistent_id":"","id":73033032,"location_subtype":"","month":"2019-03"},{"category":"anti-social-behaviour","location_type":"Force","location":{"latitude":"51.500019","street":{"id":953487,"name":"On or near Murphy Street"},"longitude":"-0.112265"},"context":"","outcome_status":null,"persistent_id":"","id":73033033,"location_subtype":"","month":"2019-03"},{"category":"anti-social-behaviour","location_type":"Force","location":{"latitude":"51.500019","street":{"id":953487,"name":"On or near Murphy Street"},"longitude":"-0.112265"},"context":"","outcome_status":null,"persistent_id":"","id":73033035,"location_subtype":"","month":"2019-03"},{"category":"anti-social-behaviour","location_type":"Force","location":{"latitude":"51.504031","street":{"id":953461,"name":"On or near Pedestrian Subway"},"longitude":"-0.114001"},"context":"","outcome_status":null,"persistent_id":"","id":73033037,"location_subtype":"","month":"2019-03"},{"category":"anti-social-behaviour","location_type":"Force","location":{"latitude":"51.504031","street":{"id":953461,"name":"On or near Pedestrian Subway"},"longitude":"-0.114001"},"context":"","outcome_status":null,"persistent_id":"","id":73033038,"location_subtype":"","month":"2019-03"},{"category":"anti-social-behaviour","location_type":"Force","location":{"latitude":"51.504764","street":{"id":953460,"name":"On or near Pedestrian Subway"},"longitude":"-0.113192"},"context":"","outcome_status":null,"persistent_id":"","id":73033051,"location_subtype":"","month":"2019-03"},{"category":"anti-social-behaviour","location_type":"Force","location":{"latitude":"51.505458","street":{"id":956276,"name":"On or near Waterloo Road"},"longitude":"-0.114389"},"context":"","outcome_status":null,"persistent_id":"","id":73033085,"location_subtype":"","month":"2019-03"},{"category":"anti-social-behaviour","location_type":"Force","location":{"latitude":"51.501309","street":{"id":953509,"name":"On or near Addington Street"},"longitude":"-0.116419"},"context":"","outcome_status":null,"persistent_id":"","id":73033086,"location_subtype":"","month":"2019-03"},{"category":"anti-social-behaviour","location_type":"Force","location":{"latitude":"51.492659","street":{"id":953563,"name":"On or near Saunders Street"},"longitude":"-0.114269"},"context":"","outcome_status":null,"persistent_id":"","id":73033088,"location_subtype":"","month":"2019-03"},{"category":"anti-social-behaviour","location_type":"Force","location":{"latitude":"51.489256","street":{"id":949521,"name":"On or near Orsett Street"},"longitude":"-0.116267"},"context":"","outcome_status":null,"persistent_id":"","id":73033089,"location_subtype":"","month":"2019-03"},{"category":"anti-social-behaviour","location_type":"Force","location":{"latitude":"51.513683","street":{"id":956260,"name":"On or near Fleet Street"},"longitude":"-0.111974"},"context":"","outcome_status":null,"persistent_id":"","id":73029927,"location_subtype":"","month":"2019-03"},{"category":"anti-social-behaviour","location_type":"Force","location":{"latitude":"51.513683","street":{"id":956260,"name":"On or near Fleet Street"},"longitude":"-0.111974"},"context":"","outcome_status":null,"persistent_id":"","id":73029928,"location_subtype":"","month":"2019-03"},{"category":"anti-social-behaviour","location_type":"Force","location":{"latitude":"51.513683","street":{"id":956260,"name":"On or near Fleet Street"},"longitude":"-0.111974"},"context":"","outcome_status":null,"persistent_id":"","id":73029929,"location_subtype":"","month":"2019-03"},{"category":"anti-social-behaviour","location_type":"Force","location":{"latitude":"51.511040","street":{"id":956267,"name":"On or near Nightclub"},"longitude":"-0.113726"},"context":"","outcome_status":null,"persistent_id":"","id":73029930,"location_subtype":"","month":"2019-03"},{"category":"anti-social-behaviour","location_type":"Force","location":{"latitude":"51.512953","street":{"id":956253,"name":"On or near Strand"},"longitude":"-0.114670"},"context":"","outcome_status":null,"persistent_id":"","id":73029937,"location_subtype":"","month":"2019-03"},{"category":"anti-social-behaviour","location_type":"Force","location":{"latitude":"51.510678","street":{"id":956451,"name":"On or near St Martin's Lane"},"longitude":"-0.126999"},"context":"","outcome_status":null,"persistent_id":"","id":73030768,"location_subtype":"","month":"2019-03"},{"category":"anti-social-behaviour","location_type":"Force","location":{"latitude":"51.510678","street":{"id":956451,"name":"On or near St Martin's Lane"},"longitude":"-0.126999"},"context":"","outcome_status":null,"persistent_id":"","id":73030772,"location_subtype":"","month":"2019-03"},{"category":"anti-social-behaviour","location_type":"Force","location":{"latitude":"51.514046","street":{"id":956529,"name":"On or near Charing Cross Road"},"longitude":"-0.129599"},"context":"","outcome_status":null,"persistent_id":"","id":73030805,"location_subtype":"","month":"2019-03"},{"category":"anti-social-behaviour","location_type":"Force","location":{"latitude":"51.509428","street":{"id":956477,"name":"On or near Orange Street"},"longitude":"-0.130379"},"context":"","outcome_status":null,"persistent_id":"","id":73030821,"location_subtype":"","month":"2019-03"},{"category":"anti-social-behaviour","location_type":"Force","location":{"latitude":"51.495874","street":{"id":953273,"name":"On or near Monck Street"},"longitude":"-0.130819"},"context":"","outcome_status":null,"persistent_id":"","id":73030824,"location_subtype":"","month":"2019-03"},{"category":"anti-social-behaviour","location_type":"Force","location":{"latitude":"51.510827","street":{"id":956579,"name":"On or near Nightclub"},"longitude":"-0.130697"},"context":"","outcome_status":null,"persistent_id":"","id":73030833,"location_subtype":"","month":"2019-03"},{"category":"anti-social-behaviour","location_type":"Force","location":{"latitude":"51.508123","street":{"id":956670,"name":"On or near Theatre/concert Hall"},"longitude":"-0.132032"},"context":"","outcome_status":null,"persistent_id":"","id":73030873,"location_subtype":"","month":"2019-03"},{"category":"anti-social-behaviour","location_type":"Force","location":{"latitude":"51.495648","street":{"id":953282,"name":"On or near Greencoat Row"},"longitude":"-0.136936"},"context":"","outcome_status":null,"persistent_id":"","id":73032057,"location_subtype":"","month":"2019-03"},{"category":"anti-social-behaviour","location_type":"Force","location":{"latitude":"51.508712","street":{"id":956532,"name":"On or near Carlton Street"},"longitude":"-0.133435"},"context":"","outcome_status":null,"persistent_id":"","id":73031982,"location_subtype":"","month":"2019-03"},{"category":"anti-social-behaviour","location_type":"Force","location":{"latitude":"51.491248","street":{"id":949711,"name":"On or near Douglas Street"},"longitude":"-0.133414"},"context":"","outcome_status":null,"persistent_id":"","id":73031422,"location_subtype":"","month":"2019-03"},{"category":"anti-social-behaviour","location_type":"Force","location":{"latitude":"51.507420","street":{"id":956134,"name":"On or near Castle Yard"},"longitude":"-0.101655"},"context":"","outcome_status":null,"persistent_id":"","id":73031713,"location_subtype":"","month":"2019-03"},{"category":"anti-social-behaviour","location_type":"Force","location":{"latitude":"51.499219","street":{"id":953755,"name":"On or near Further/higher Educational Building"},"longitude":"-0.104474"},"context":"","outcome_status":null,"persistent_id":"","id":73031731,"location_subtype":"","month":"2019-03"},{"category":"anti-social-behaviour","location_type":"Force","location":{"latitude":"51.495222","street":{"id":953406,"name":"On or near Rochester Street"},"longitude":"-0.135038"},"context":"","outcome_status":null,"persistent_id":"","id":73032037,"location_subtype":"","month":"2019-03"},{"category":"anti-social-behaviour","location_type":"Force","location":{"latitude":"51.508080","street":{"id":956658,"name":"On or near Duke Of York Street"},"longitude":"-0.136098"},"context":"","outcome_status":null,"persistent_id":"","id":73032058,"location_subtype":"","month":"2019-03"},{"category":"anti-social-behaviour","location_type":"Force","location":{"latitude":"51.494202","street":{"id":953559,"name":"On or near Walcot Square"},"longitude":"-0.108961"},"context":"","outcome_status":null,"persistent_id":"","id":73032383,"location_subtype":"","month":"2019-03"},{"category":"anti-social-behaviour","location_type":"Force","location":{"latitude":"51.512063","street":{"id":956266,"name":"On or near Arundel Street"},"longitude":"-0.114130"},"context":"","outcome_status":null,"persistent_id":"","id":73029931,"location_subtype":"","month":"2019-03"},{"category":"anti-social-behaviour","location_type":"Force","location":{"latitude":"51.512063","street":{"id":956266,"name":"On or near Arundel Street"},"longitude":"-0.114130"},"context":"","outcome_status":null,"persistent_id":"","id":73029932,"location_subtype":"","month":"2019-03"},{"category":"anti-social-behaviour","location_type":"Force","location":{"latitude":"51.512953","street":{"id":956253,"name":"On or near Strand"},"longitude":"-0.114670"},"context":"","outcome_status":null,"persistent_id":"","id":73029933,"location_subtype":"","month":"2019-03"},{"category":"anti-social-behaviour","location_type":"Force","location":{"latitude":"51.512953","street":{"id":956253,"name":"On or near Strand"},"longitude":"-0.114670"},"context":"","outcome_status":null,"persistent_id":"","id":73029934,"location_subtype":"","month":"2019-03"},{"category":"anti-social-behaviour","location_type":"Force","location":{"latitude":"51.512953","street":{"id":956253,"name":"On or near Strand"},"longitude":"-0.114670"},"context":"","outcome_status":null,"persistent_id":"","id":73029935,"location_subtype":"","month":"2019-03"},{"category":"anti-social-behaviour","location_type":"Force","location":{"latitude":"51.512953","street":{"id":956253,"name":"On or near Strand"},"longitude":"-0.114670"},"context":"","outcome_status":null,"persistent_id":"","id":73029936,"location_subtype":"","month":"2019-03"},{"category":"anti-social-behaviour","location_type":"Force","location":{"latitude":"51.512953","street":{"id":956253,"name":"On or near Strand"},"longitude":"-0.114670"},"context":"","outcome_status":null,"persistent_id":"","id":73029938,"location_subtype":"","month":"2019-03"},{"category":"anti-social-behaviour","location_type":"Force","location":{"latitude":"51.510893","street":{"id":956150,"name":"On or near Strand"},"longitude":"-0.120231"},"context":"","outcome_status":null,"persistent_id":"","id":73029960,"location_subtype":"","month":"2019-03"},{"category":"anti-social-behaviour","location_type":"Force","location":{"latitude":"51.514639","street":{"id":956146,"name":"On or near Wild Street"},"longitude":"-0.120567"},"context":"","outcome_status":null,"persistent_id":"","id":73029963,"location_subtype":"","month":"2019-03"},{"category":"anti-social-behaviour","location_type":"Force","location":{"latitude":"51.514639","street":{"id":956146,"name":"On or near Wild Street"},"longitude":"-0.120567"},"context":"","outcome_status":null,"persistent_id":"","id":73029964,"location_subtype":"","month":"2019-03"},{"category":"anti-social-behaviour","location_type":"Force","location":{"latitude":"51.514639","street":{"id":956146,"name":"On or near Wild Street"},"longitude":"-0.120567"},"context":"","outcome_status":null,"persistent_id":"","id":73029965,"location_subtype":"","month":"2019-03"},{"category":"anti-social-behaviour","location_type":"Force","location":{"latitude":"51.513734","street":{"id":956189,"name":"On or near Drury Lane"},"longitude":"-0.120158"},"context":"","outcome_status":null,"persistent_id":"","id":73029967,"location_subtype":"","month":"2019-03"},{"category":"anti-social-behaviour","location_type":"Force","location":{"latitude":"51.510050","street":{"id":956155,"name":"On or near Savoy Way"},"longitude":"-0.120396"},"context":"","outcome_status":null,"persistent_id":"","id":73029968,"location_subtype":"","month":"2019-03"},{"category":"anti-social-behaviour","location_type":"Force","location":{"latitude":"51.513734","street":{"id":956189,"name":"On or near Drury Lane"},"longitude":"-0.120158"},"context":"","outcome_status":null,"persistent_id":"","id":73029969,"location_subtype":"","month":"2019-03"},{"category":"anti-social-behaviour","location_type":"Force","location":{"latitude":"51.512103","street":{"id":956149,"name":"On or near Tavistock Street"},"longitude":"-0.120556"},"context":"","outcome_status":null,"persistent_id":"","id":73029970,"location_subtype":"","month":"2019-03"},{"category":"anti-social-behaviour","location_type":"Force","location":{"latitude":"51.512103","street":{"id":956149,"name":"On or near Tavistock Street"},"longitude":"-0.120556"},"context":"","outcome_status":null,"persistent_id":"","id":73029971,"location_subtype":"","month":"2019-03"},{"category":"anti-social-behaviour","location_type":"Force","location":{"latitude":"51.507133","street":{"id":956297,"name":"On or near Victoria Embankment"},"longitude":"-0.121813"},"context":"","outcome_status":null,"persistent_id":"","id":73029972,"location_subtype":"","month":"2019-03"},{"category":"anti-social-behaviour","location_type":"Force","location":{"latitude":"51.513311","street":{"id":956209,"name":"On or near Theatre/concert Hall"},"longitude":"-0.120737"},"context":"","outcome_status":null,"persistent_id":"","id":73029973,"location_subtype":"","month":"2019-03"},{"category":"anti-social-behaviour","location_type":"Force","location":{"latitude":"51.513311","street":{"id":956209,"name":"On or near Theatre/concert Hall"},"longitude":"-0.120737"},"context":"","outcome_status":null,"persistent_id":"","id":73029974,"location_subtype":"","month":"2019-03"},{"category":"anti-social-behaviour","location_type":"Force","location":{"latitude":"51.513306","street":{"id":956195,"name":"On or near Bow Street"},"longitude":"-0.122078"},"context":"","outcome_status":null,"persistent_id":"","id":73029975,"location_subtype":"","month":"2019-03"},{"category":"anti-social-behaviour","location_type":"Force","location":{"latitude":"51.513306","street":{"id":956195,"name":"On or near Bow Street"},"longitude":"-0.122078"},"context":"","outcome_status":null,"persistent_id":"","id":73029976,"location_subtype":"","month":"2019-03"},{"category":"anti-social-behaviour","location_type":"Force","location":{"latitude":"51.510362","street":{"id":956221,"name":"On or near Theatre/concert Hall"},"longitude":"-0.122415"},"context":"","outcome_status":null,"persistent_id":"","id":73029977,"location_subtype":"","month":"2019-03"},{"category":"anti-social-behaviour","location_type":"Force","location":{"latitude":"51.510362","street":{"id":956221,"name":"On or near Theatre/concert Hall"},"longitude":"-0.122415"},"context":"","outcome_status":null,"persistent_id":"","id":73029978,"location_subtype":"","month":"2019-03"},{"category":"anti-social-behaviour","location_type":"Force","location":{"latitude":"51.510362","street":{"id":956221,"name":"On or near Theatre/concert Hall"},"longitude":"-0.122415"},"context":"","outcome_status":null,"persistent_id":"","id":73029980,"location_subtype":"","month":"2019-03"},{"category":"anti-social-behaviour","location_type":"Force","location":{"latitude":"51.510362","street":{"id":956221,"name":"On or near Theatre/concert Hall"},"longitude":"-0.122415"},"context":"","outcome_status":null,"persistent_id":"","id":73029981,"location_subtype":"","month":"2019-03"},{"category":"anti-social-behaviour","location_type":"Force","location":{"latitude":"51.510362","street":{"id":956221,"name":"On or near Theatre/concert Hall"},"longitude":"-0.122415"},"context":"","outcome_status":null,"persistent_id":"","id":73029982,"location_subtype":"","month":"2019-03"},{"category":"anti-social-behaviour","location_type":"Force","location":{"latitude":"51.500844","street":{"id":953528,"name":"On or near Westminster Bridge Road"},"longitude":"-0.122777"},"context":"","outcome_status":null,"persistent_id":"","id":73029998,"location_subtype":"","month":"2019-03"},{"category":"anti-social-behaviour","location_type":"Force","location":{"latitude":"51.500844","street":{"id":953528,"name":"On or near Westminster Bridge Road"},"longitude":"-0.122777"},"context":"","outcome_status":null,"persistent_id":"","id":73029999,"location_subtype":"","month":"2019-03"},{"category":"anti-social-behaviour","location_type":"Force","location":{"latitude":"51.500844","street":{"id":953528,"name":"On or near Westminster Bridge Road"},"longitude":"-0.122777"},"context":"","outcome_status":null,"persistent_id":"","id":73030000,"location_subtype":"","month":"2019-03"},{"category":"anti-social-behaviour","location_type":"Force","location":{"latitude":"51.511096","street":{"id":956151,"name":"On or near Southampton Street"},"longitude":"-0.122226"},"context":"","outcome_status":null,"persistent_id":"","id":73030001,"location_subtype":"","month":"2019-03"},{"category":"anti-social-behaviour","location_type":"Force","location":{"latitude":"51.511096","street":{"id":956151,"name":"On or near Southampton Street"},"longitude":"-0.122226"},"context":"","outcome_status":null,"persistent_id":"","id":73030002,"location_subtype":"","month":"2019-03"},{"category":"anti-social-behaviour","location_type":"Force","location":{"latitude":"51.508945","street":{"id":956162,"name":"On or near Robert Street"},"longitude":"-0.122660"},"context":"","outcome_status":null,"persistent_id":"","id":73030003,"location_subtype":"","month":"2019-03"},{"category":"anti-social-behaviour","location_type":"Force","location":{"latitude":"51.508945","street":{"id":956162,"name":"On or near Robert Street"},"longitude":"-0.122660"},"context":"","outcome_status":null,"persistent_id":"","id":73030004,"location_subtype":"","month":"2019-03"},{"category":"anti-social-behaviour","location_type":"Force","location":{"latitude":"51.514472","street":{"id":956200,"name":"On or near Arne Street"},"longitude":"-0.123053"},"context":"","outcome_status":null,"persistent_id":"","id":73030005,"location_subtype":"","month":"2019-03"},{"category":"anti-social-behaviour","location_type":"Force","location":{"latitude":"51.514472","street":{"id":956200,"name":"On or near Arne Street"},"longitude":"-0.123053"},"context":"","outcome_status":null,"persistent_id":"","id":73030006,"location_subtype":"","month":"2019-03"},{"category":"anti-social-behaviour","location_type":"Force","location":{"latitude":"51.514472","street":{"id":956200,"name":"On or near Arne Street"},"longitude":"-0.123053"},"context":"","outcome_status":null,"persistent_id":"","id":73030007,"location_subtype":"","month":"2019-03"},{"category":"anti-social-behaviour","location_type":"Force","location":{"latitude":"51.514472","street":{"id":956200,"name":"On or near Arne Street"},"longitude":"-0.123053"},"context":"","outcome_status":null,"persistent_id":"","id":73030008,"location_subtype":"","month":"2019-03"},{"category":"anti-social-behaviour","location_type":"Force","location":{"latitude":"51.507078","street":{"id":956300,"name":"On or near Embankment Place"},"longitude":"-0.122925"},"context":"","outcome_status":null,"persistent_id":"","id":73030010,"location_subtype":"","month":"2019-03"},{"category":"anti-social-behaviour","location_type":"Force","location":{"latitude":"51.507078","street":{"id":956300,"name":"On or near Embankment Place"},"longitude":"-0.122925"},"context":"","outcome_status":null,"persistent_id":"","id":73030011,"location_subtype":"","month":"2019-03"},{"category":"anti-social-behaviour","location_type":"Force","location":{"latitude":"51.507980","street":{"id":956296,"name":"On or near Villiers Street"},"longitude":"-0.123651"},"context":"","outcome_status":null,"persistent_id":"","id":73030012,"location_subtype":"","month":"2019-03"},{"category":"anti-social-behaviour","location_type":"Force","location":{"latitude":"51.511067","street":{"id":956180,"name":"On or near Henrietta Street"},"longitude":"-0.123798"},"context":"","outcome_status":null,"persistent_id":"","id":73030014,"location_subtype":"","month":"2019-03"},{"category":"anti-social-behaviour","location_type":"Force","location":{"latitude":"51.512505","street":{"id":956183,"name":"On or near Floral Street"},"longitude":"-0.124316"},"context":"","outcome_status":null,"persistent_id":"","id":73030040,"location_subtype":"","month":"2019-03"},{"category":"anti-social-behaviour","location_type":"Force","location":{"latitude":"51.512505","street":{"id":956183,"name":"On or near Floral Street"},"longitude":"-0.124316"},"context":"","outcome_status":null,"persistent_id":"","id":73030041,"location_subtype":"","month":"2019-03"},{"category":"anti-social-behaviour","location_type":"Force","location":{"latitude":"51.512505","street":{"id":956183,"name":"On or near Floral Street"},"longitude":"-0.124316"},"context":"","outcome_status":null,"persistent_id":"","id":73030042,"location_subtype":"","month":"2019-03"},{"category":"anti-social-behaviour","location_type":"Force","location":{"latitude":"51.509777","street":{"id":956227,"name":"On or near Police Station"},"longitude":"-0.124673"},"context":"","outcome_status":null,"persistent_id":"","id":73030048,"location_subtype":"","month":"2019-03"},{"category":"anti-social-behaviour","location_type":"Force","location":{"latitude":"51.509777","street":{"id":956227,"name":"On or near Police Station"},"longitude":"-0.124673"},"context":"","outcome_status":null,"persistent_id":"","id":73030049,"location_subtype":"","month":"2019-03"},{"category":"anti-social-behaviour","location_type":"Force","location":{"latitude":"51.506095","street":{"id":956294,"name":"On or near Whitehall Place"},"longitude":"-0.124997"},"context":"","outcome_status":null,"persistent_id":"","id":73030050,"location_subtype":"","month":"2019-03"},{"category":"anti-social-behaviour","location_type":"Force","location":{"latitude":"51.506095","street":{"id":956294,"name":"On or near Whitehall Place"},"longitude":"-0.124997"},"context":"","outcome_status":null,"persistent_id":"","id":73030051,"location_subtype":"","month":"2019-03"},{"category":"anti-social-behaviour","location_type":"Force","location":{"latitude":"51.508577","street":{"id":956212,"name":"On or near Nightclub"},"longitude":"-0.124419"},"context":"","outcome_status":null,"persistent_id":"","id":73030052,"location_subtype":"","month":"2019-03"},{"category":"anti-social-behaviour","location_type":"Force","location":{"latitude":"51.508577","street":{"id":956212,"name":"On or near Nightclub"},"longitude":"-0.124419"},"context":"","outcome_status":null,"persistent_id":"","id":73030054,"location_subtype":"","month":"2019-03"},{"category":"anti-social-behaviour","location_type":"Force","location":{"latitude":"51.508577","street":{"id":956212,"name":"On or near Nightclub"},"longitude":"-0.124419"},"context":"","outcome_status":null,"persistent_id":"","id":73030055,"location_subtype":"","month":"2019-03"},{"category":"anti-social-behaviour","location_type":"Force","location":{"latitude":"51.507321","street":{"id":956301,"name":"On or near Craven Street"},"longitude":"-0.124601"},"context":"","outcome_status":null,"persistent_id":"","id":73030056,"location_subtype":"","month":"2019-03"},{"category":"anti-social-behaviour","location_type":"Force","location":{"latitude":"51.507321","street":{"id":956301,"name":"On or near Craven Street"},"longitude":"-0.124601"},"context":"","outcome_status":null,"persistent_id":"","id":73030057,"location_subtype":"","month":"2019-03"},{"category":"anti-social-behaviour","location_type":"Force","location":{"latitude":"51.513745","street":{"id":956153,"name":"On or near Shelton Street"},"longitude":"-0.125360"},"context":"","outcome_status":null,"persistent_id":"","id":73030312,"location_subtype":"","month":"2019-03"},{"category":"anti-social-behaviour","location_type":"Force","location":{"latitude":"51.515050","street":{"id":956712,"name":"On or near Shaftesbury Avenue"},"longitude":"-0.127108"},"context":"","outcome_status":null,"persistent_id":"","id":73030367,"location_subtype":"","month":"2019-03"},{"category":"anti-social-behaviour","location_type":"Force","location":{"latitude":"51.513226","street":{"id":956447,"name":"On or near Tower Street"},"longitude":"-0.127774"},"context":"","outcome_status":null,"persistent_id":"","id":73030371,"location_subtype":"","month":"2019-03"},{"category":"anti-social-behaviour","location_type":"Force","location":{"latitude":"51.513226","street":{"id":956447,"name":"On or near Tower Street"},"longitude":"-0.127774"},"context":"","outcome_status":null,"persistent_id":"","id":73030372,"location_subtype":"","month":"2019-03"},{"category":"anti-social-behaviour","location_type":"Force","location":{"latitude":"51.512191","street":{"id":956602,"name":"On or near Shopping Area"},"longitude":"-0.128839"},"context":"","outcome_status":null,"persistent_id":"","id":73030396,"location_subtype":"","month":"2019-03"},{"category":"anti-social-behaviour","location_type":"Force","location":{"latitude":"51.516523","street":{"id":956236,"name":"On or near Remnant Street"},"longitude":"-0.119135"},"context":"","outcome_status":null,"persistent_id":"","id":73029814,"location_subtype":"","month":"2019-03"},{"category":"anti-social-behaviour","location_type":"Force","location":{"latitude":"51.516523","street":{"id":956236,"name":"On or near Remnant Street"},"longitude":"-0.119135"},"context":"","outcome_status":null,"persistent_id":"","id":73029815,"location_subtype":"","month":"2019-03"},{"category":"anti-social-behaviour","location_type":"Force","location":{"latitude":"51.517041","street":{"id":956243,"name":"On or near Gate Street"},"longitude":"-0.118955"},"context":"","outcome_status":null,"persistent_id":"","id":73030213,"location_subtype":"","month":"2019-03"},{"category":"anti-social-behaviour","location_type":"Force","location":{"latitude":"51.517041","street":{"id":956243,"name":"On or near Gate Street"},"longitude":"-0.118955"},"context":"","outcome_status":null,"persistent_id":"","id":73030214,"location_subtype":"","month":"2019-03"},{"category":"anti-social-behaviour","location_type":"Force","location":{"latitude":"51.516213","street":{"id":956172,"name":"On or near Kingsway"},"longitude":"-0.119450"},"context":"","outcome_status":null,"persistent_id":"","id":73030221,"location_subtype":"","month":"2019-03"},{"category":"anti-social-behaviour","location_type":"Force","location":{"latitude":"51.515678","street":{"id":956181,"name":"On or near Great Queen Street"},"longitude":"-0.120841"},"context":"","outcome_status":null,"persistent_id":"","id":73030237,"location_subtype":"","month":"2019-03"},{"category":"anti-social-behaviour","location_type":"Force","location":{"latitude":"51.516586","street":{"id":956237,"name":"On or near Newton Street"},"longitude":"-0.121395"},"context":"","outcome_status":null,"persistent_id":"","id":73030238,"location_subtype":"","month":"2019-03"},{"category":"anti-social-behaviour","location_type":"Force","location":{"latitude":"51.515957","street":{"id":956164,"name":"On or near Parker Street"},"longitude":"-0.121421"},"context":"","outcome_status":null,"persistent_id":"","id":73030239,"location_subtype":"","month":"2019-03"},{"category":"anti-social-behaviour","location_type":"Force","location":{"latitude":"51.514887","street":{"id":587564,"name":"On or near Fetter Lane"},"longitude":"-0.109647"},"context":"","outcome_status":null,"persistent_id":"","id":72867686,"location_subtype":"","month":"2019-03"},{"category":"anti-social-behaviour","location_type":"Force","location":{"latitude":"51.516036","street":{"id":956168,"name":"On or near Macklin Street"},"longitude":"-0.122412"},"context":"","outcome_status":null,"persistent_id":"","id":73030282,"location_subtype":"","month":"2019-03"},{"category":"anti-social-behaviour","location_type":"Force","location":{"latitude":"51.516421","street":{"id":956233,"name":"On or near Stukeley Street"},"longitude":"-0.122858"},"context":"","outcome_status":null,"persistent_id":"","id":73030284,"location_subtype":"","month":"2019-03"},{"category":"anti-social-behaviour","location_type":"Force","location":{"latitude":"51.515431","street":{"id":956220,"name":"On or near Theatre/concert Hall"},"longitude":"-0.122812"},"context":"","outcome_status":null,"persistent_id":"","id":73030285,"location_subtype":"","month":"2019-03"},{"category":"anti-social-behaviour","location_type":"Force","location":{"latitude":"51.506340","street":{"id":956280,"name":"On or near Paris Garden"},"longitude":"-0.106110"},"context":"","outcome_status":null,"persistent_id":"","id":73031736,"location_subtype":"","month":"2019-03"},{"category":"anti-social-behaviour","location_type":"Force","location":{"latitude":"51.506340","street":{"id":956280,"name":"On or near Paris Garden"},"longitude":"-0.106110"},"context":"","outcome_status":null,"persistent_id":"","id":73031737,"location_subtype":"","month":"2019-03"},{"category":"anti-social-behaviour","location_type":"Force","location":{"latitude":"51.503350","street":{"id":953517,"name":"On or near Further/higher Educational Building"},"longitude":"-0.105830"},"context":"","outcome_status":null,"persistent_id":"","id":73031738,"location_subtype":"","month":"2019-03"},{"category":"anti-social-behaviour","location_type":"Force","location":{"latitude":"51.500793","street":{"id":953508,"name":"On or near Baron's Place"},"longitude":"-0.107262"},"context":"","outcome_status":null,"persistent_id":"","id":73031739,"location_subtype":"","month":"2019-03"},{"category":"anti-social-behaviour","location_type":"Force","location":{"latitude":"51.509991","street":{"id":956192,"name":"On or near Chandos Place"},"longitude":"-0.125096"},"context":"","outcome_status":null,"persistent_id":"","id":73030713,"location_subtype":"","month":"2019-03"},{"category":"anti-social-behaviour","location_type":"Force","location":{"latitude":"51.498266","street":{"id":953524,"name":"On or near Abingdon Street"},"longitude":"-0.125750"},"context":"","outcome_status":null,"persistent_id":"","id":73030714,"location_subtype":"","month":"2019-03"},{"category":"anti-social-behaviour","location_type":"Force","location":{"latitude":"51.506151","street":{"id":956298,"name":"On or near Scotland Place"},"longitude":"-0.125657"},"context":"","outcome_status":null,"persistent_id":"","id":73030715,"location_subtype":"","month":"2019-03"},{"category":"anti-social-behaviour","location_type":"Force","location":{"latitude":"51.493239","street":{"id":953414,"name":"On or near John Islip Street"},"longitude":"-0.127411"},"context":"","outcome_status":null,"persistent_id":"","id":73030716,"location_subtype":"","month":"2019-03"},{"category":"anti-social-behaviour","location_type":"Force","location":{"latitude":"51.509495","street":{"id":956145,"name":"On or near William Iv Street"},"longitude":"-0.125563"},"context":"","outcome_status":null,"persistent_id":"","id":73030717,"location_subtype":"","month":"2019-03"},{"category":"anti-social-behaviour","location_type":"Force","location":{"latitude":"51.501490","street":{"id":953532,"name":"On or near Canon Row"},"longitude":"-0.125503"},"context":"","outcome_status":null,"persistent_id":"","id":73030718,"location_subtype":"","month":"2019-03"},{"category":"anti-social-behaviour","location_type":"Force","location":{"latitude":"51.503196","street":{"id":953311,"name":"On or near Downing Street"},"longitude":"-0.127032"},"context":"","outcome_status":null,"persistent_id":"","id":73030719,"location_subtype":"","month":"2019-03"},{"category":"anti-social-behaviour","location_type":"Force","location":{"latitude":"51.509312","street":{"id":956203,"name":"On or near Adelaide Street"},"longitude":"-0.125931"},"context":"","outcome_status":null,"persistent_id":"","id":73030720,"location_subtype":"","month":"2019-03"},{"category":"anti-social-behaviour","location_type":"Force","location":{"latitude":"51.509312","street":{"id":956203,"name":"On or near Adelaide Street"},"longitude":"-0.125931"},"context":"","outcome_status":null,"persistent_id":"","id":73030721,"location_subtype":"","month":"2019-03"},{"category":"anti-social-behaviour","location_type":"Force","location":{"latitude":"51.509312","street":{"id":956203,"name":"On or near Adelaide Street"},"longitude":"-0.125931"},"context":"","outcome_status":null,"persistent_id":"","id":73030722,"location_subtype":"","month":"2019-03"},{"category":"anti-social-behaviour","location_type":"Force","location":{"latitude":"51.508592","street":{"id":956519,"name":"On or near Duncannon Street"},"longitude":"-0.126479"},"context":"","outcome_status":null,"persistent_id":"","id":73030725,"location_subtype":"","month":"2019-03"},{"category":"anti-social-behaviour","location_type":"Force","location":{"latitude":"51.509902","street":{"id":956586,"name":"On or near Theatre/concert Hall"},"longitude":"-0.126310"},"context":"","outcome_status":null,"persistent_id":"","id":73030747,"location_subtype":"","month":"2019-03"},{"category":"anti-social-behaviour","location_type":"Force","location":{"latitude":"51.509902","street":{"id":956586,"name":"On or near Theatre/concert Hall"},"longitude":"-0.126310"},"context":"","outcome_status":null,"persistent_id":"","id":73030748,"location_subtype":"","month":"2019-03"},{"category":"anti-social-behaviour","location_type":"Force","location":{"latitude":"51.509902","street":{"id":956586,"name":"On or near Theatre/concert Hall"},"longitude":"-0.126310"},"context":"","outcome_status":null,"persistent_id":"","id":73030749,"location_subtype":"","month":"2019-03"},{"category":"anti-social-behaviour","location_type":"Force","location":{"latitude":"51.509902","street":{"id":956586,"name":"On or near Theatre/concert Hall"},"longitude":"-0.126310"},"context":"","outcome_status":null,"persistent_id":"","id":73030750,"location_subtype":"","month":"2019-03"},{"category":"anti-social-behaviour","location_type":"Force","location":{"latitude":"51.508592","street":{"id":956519,"name":"On or near Duncannon Street"},"longitude":"-0.126479"},"context":"","outcome_status":null,"persistent_id":"","id":73030751,"location_subtype":"","month":"2019-03"},{"category":"anti-social-behaviour","location_type":"Force","location":{"latitude":"51.507473","street":{"id":956299,"name":"On or near Northumberland Street"},"longitude":"-0.125675"},"context":"","outcome_status":null,"persistent_id":"","id":73030752,"location_subtype":"","month":"2019-03"},{"category":"anti-social-behaviour","location_type":"Force","location":{"latitude":"51.507473","street":{"id":956299,"name":"On or near Northumberland Street"},"longitude":"-0.125675"},"context":"","outcome_status":null,"persistent_id":"","id":73030753,"location_subtype":"","month":"2019-03"},{"category":"anti-social-behaviour","location_type":"Force","location":{"latitude":"51.498266","street":{"id":953524,"name":"On or near Abingdon Street"},"longitude":"-0.125750"},"context":"","outcome_status":null,"persistent_id":"","id":73030754,"location_subtype":"","month":"2019-03"},{"category":"anti-social-behaviour","location_type":"Force","location":{"latitude":"51.501490","street":{"id":953532,"name":"On or near Canon Row"},"longitude":"-0.125503"},"context":"","outcome_status":null,"persistent_id":"","id":73030757,"location_subtype":"","month":"2019-03"},{"category":"anti-social-behaviour","location_type":"Force","location":{"latitude":"51.496706","street":{"id":953276,"name":"On or near Lord North Street"},"longitude":"-0.127154"},"context":"","outcome_status":null,"persistent_id":"","id":73030758,"location_subtype":"","month":"2019-03"},{"category":"anti-social-behaviour","location_type":"Force","location":{"latitude":"51.496706","street":{"id":953276,"name":"On or near Lord North Street"},"longitude":"-0.127154"},"context":"","outcome_status":null,"persistent_id":"","id":73030759,"location_subtype":"","month":"2019-03"},{"category":"anti-social-behaviour","location_type":"Force","location":{"latitude":"51.511910","street":{"id":587560,"name":"On or near John Carpenter Street"},"longitude":"-0.106282"},"context":"","outcome_status":null,"persistent_id":"","id":72867683,"location_subtype":"","month":"2019-03"},{"category":"anti-social-behaviour","location_type":"Force","location":{"latitude":"51.496706","street":{"id":953276,"name":"On or near Lord North Street"},"longitude":"-0.127154"},"context":"","outcome_status":null,"persistent_id":"","id":73030760,"location_subtype":"","month":"2019-03"},{"category":"anti-social-behaviour","location_type":"Force","location":{"latitude":"51.496706","street":{"id":953276,"name":"On or near Lord North Street"},"longitude":"-0.127154"},"context":"","outcome_status":null,"persistent_id":"","id":73030761,"location_subtype":"","month":"2019-03"},{"category":"anti-social-behaviour","location_type":"Force","location":{"latitude":"51.513330","street":{"id":587570,"name":"On or near Theatre/concert Hall"},"longitude":"-0.105157"},"context":"","outcome_status":null,"persistent_id":"","id":72867668,"location_subtype":"","month":"2019-03"},{"category":"anti-social-behaviour","location_type":"Force","location":{"latitude":"51.513914","street":{"id":587562,"name":"On or near Fleet Street"},"longitude":"-0.110710"},"context":"","outcome_status":null,"persistent_id":"","id":72867658,"location_subtype":"","month":"2019-03"},{"category":"anti-social-behaviour","location_type":"Force","location":{"latitude":"51.511449","street":{"id":587321,"name":"On or near Victoria Embankment"},"longitude":"-0.104500"},"context":"","outcome_status":null,"persistent_id":"","id":72867652,"location_subtype":"","month":"2019-03"},{"category":"anti-social-behaviour","location_type":"Force","location":{"latitude":"51.512420","street":{"id":587557,"name":"On or near Middle Temple Lane"},"longitude":"-0.111132"},"context":"","outcome_status":null,"persistent_id":"","id":72867630,"location_subtype":"","month":"2019-03"},{"category":"anti-social-behaviour","location_type":"Force","location":{"latitude":"51.511449","street":{"id":587321,"name":"On or near Victoria Embankment"},"longitude":"-0.104500"},"context":"","outcome_status":null,"persistent_id":"","id":72867601,"location_subtype":"","month":"2019-03"},{"category":"anti-social-behaviour","location_type":"Force","location":{"latitude":"51.512719","street":{"id":587335,"name":"On or near Playhouse Yard"},"longitude":"-0.102948"},"context":"","outcome_status":null,"persistent_id":"","id":72867595,"location_subtype":"","month":"2019-03"},{"category":"anti-social-behaviour","location_type":"Force","location":{"latitude":"51.509848","street":{"id":587368,"name":"On or near A201"},"longitude":"-0.104494"},"context":"","outcome_status":null,"persistent_id":"","id":72867584,"location_subtype":"","month":"2019-03"},{"category":"anti-social-behaviour","location_type":"Force","location":{"latitude":"51.496706","street":{"id":953276,"name":"On or near Lord North Street"},"longitude":"-0.127154"},"context":"","outcome_status":null,"persistent_id":"","id":73030762,"location_subtype":"","month":"2019-03"},{"category":"anti-social-behaviour","location_type":"Force","location":{"latitude":"51.513330","street":{"id":587570,"name":"On or near Theatre/concert Hall"},"longitude":"-0.105157"},"context":"","outcome_status":null,"persistent_id":"","id":72867694,"location_subtype":"","month":"2019-03"},{"category":"anti-social-behaviour","location_type":"Force","location":{"latitude":"51.496706","street":{"id":953276,"name":"On or near Lord North Street"},"longitude":"-0.127154"},"context":"","outcome_status":null,"persistent_id":"","id":73030763,"location_subtype":"","month":"2019-03"},{"category":"anti-social-behaviour","location_type":"Force","location":{"latitude":"51.496706","street":{"id":953276,"name":"On or near Lord North Street"},"longitude":"-0.127154"},"context":"","outcome_status":null,"persistent_id":"","id":73030764,"location_subtype":"","month":"2019-03"},{"category":"anti-social-behaviour","location_type":"Force","location":{"latitude":"51.495903","street":{"id":953275,"name":"On or near Marsham Street"},"longitude":"-0.129262"},"context":"","outcome_status":null,"persistent_id":"","id":73030795,"location_subtype":"","month":"2019-03"},{"category":"anti-social-behaviour","location_type":"Force","location":{"latitude":"51.513701","street":{"id":956557,"name":"On or near Theatre/concert Hall"},"longitude":"-0.128273"},"context":"","outcome_status":null,"persistent_id":"","id":73030796,"location_subtype":"","month":"2019-03"},{"category":"anti-social-behaviour","location_type":"Force","location":{"latitude":"51.501776","street":{"id":953716,"name":"On or near Trundle Street"},"longitude":"-0.096876"},"context":"","outcome_status":null,"persistent_id":"","id":73031644,"location_subtype":"","month":"2019-03"},{"category":"anti-social-behaviour","location_type":"Force","location":{"latitude":"51.504736","street":{"id":953740,"name":"On or near Great Guildford Street"},"longitude":"-0.097012"},"context":"","outcome_status":null,"persistent_id":"","id":73031646,"location_subtype":"","month":"2019-03"},{"category":"anti-social-behaviour","location_type":"Force","location":{"latitude":"51.500894","street":{"id":953717,"name":"On or near Toulmin Street"},"longitude":"-0.096855"},"context":"","outcome_status":null,"persistent_id":"","id":73031649,"location_subtype":"","month":"2019-03"},{"category":"anti-social-behaviour","location_type":"Force","location":{"latitude":"51.495928","street":{"id":953689,"name":"On or near Pedestrian Subway"},"longitude":"-0.100073"},"context":"","outcome_status":null,"persistent_id":"","id":73031692,"location_subtype":"","month":"2019-03"},{"category":"anti-social-behaviour","location_type":"Force","location":{"latitude":"51.495928","street":{"id":953689,"name":"On or near Pedestrian Subway"},"longitude":"-0.100073"},"context":"","outcome_status":null,"persistent_id":"","id":73031693,"location_subtype":"","month":"2019-03"},{"category":"anti-social-behaviour","location_type":"Force","location":{"latitude":"51.495928","street":{"id":953689,"name":"On or near Pedestrian Subway"},"longitude":"-0.100073"},"context":"","outcome_status":null,"persistent_id":"","id":73031694,"location_subtype":"","month":"2019-03"},{"category":"anti-social-behaviour","location_type":"Force","location":{"latitude":"51.495928","street":{"id":953689,"name":"On or near Pedestrian Subway"},"longitude":"-0.100073"},"context":"","outcome_status":null,"persistent_id":"","id":73031695,"location_subtype":"","month":"2019-03"},{"category":"anti-social-behaviour","location_type":"Force","location":{"latitude":"51.495928","street":{"id":953689,"name":"On or near Pedestrian Subway"},"longitude":"-0.100073"},"context":"","outcome_status":null,"persistent_id":"","id":73031696,"location_subtype":"","month":"2019-03"},{"category":"anti-social-behaviour","location_type":"Force","location":{"latitude":"51.495928","street":{"id":953689,"name":"On or near Pedestrian Subway"},"longitude":"-0.100073"},"context":"","outcome_status":null,"persistent_id":"","id":73031697,"location_subtype":"","month":"2019-03"},{"category":"anti-social-behaviour","location_type":"Force","location":{"latitude":"51.498996","street":{"id":953708,"name":"On or near Borough Road"},"longitude":"-0.100723"},"context":"","outcome_status":null,"persistent_id":"","id":73031698,"location_subtype":"","month":"2019-03"},{"category":"anti-social-behaviour","location_type":"Force","location":{"latitude":"51.513701","street":{"id":956557,"name":"On or near Theatre/concert Hall"},"longitude":"-0.128273"},"context":"","outcome_status":null,"persistent_id":"","id":73030797,"location_subtype":"","month":"2019-03"},{"category":"anti-social-behaviour","location_type":"Force","location":{"latitude":"51.507657","street":{"id":956660,"name":"On or near Cockspur Street"},"longitude":"-0.129890"},"context":"","outcome_status":null,"persistent_id":"","id":73030798,"location_subtype":"","month":"2019-03"},{"category":"anti-social-behaviour","location_type":"Force","location":{"latitude":"51.509787","street":{"id":956556,"name":"On or near Nightclub"},"longitude":"-0.129240"},"context":"","outcome_status":null,"persistent_id":"","id":73030799,"location_subtype":"","month":"2019-03"},{"category":"anti-social-behaviour","location_type":"Force","location":{"latitude":"51.500844","street":{"id":953528,"name":"On or near Westminster Bridge Road"},"longitude":"-0.122777"},"context":"","outcome_status":null,"persistent_id":"","id":73029990,"location_subtype":"","month":"2019-03"},{"category":"anti-social-behaviour","location_type":"Force","location":{"latitude":"51.501992","street":{"id":953531,"name":"On or near Derby Gate"},"longitude":"-0.125381"},"context":"","outcome_status":null,"persistent_id":"","id":73030013,"location_subtype":"","month":"2019-03"},{"category":"anti-social-behaviour","location_type":"Force","location":{"latitude":"51.510490","street":{"id":956198,"name":"On or near Bedford Street"},"longitude":"-0.124254"},"context":"","outcome_status":null,"persistent_id":"","id":73030027,"location_subtype":"","month":"2019-03"},{"category":"anti-social-behaviour","location_type":"Force","location":{"latitude":"51.510490","street":{"id":956198,"name":"On or near Bedford Street"},"longitude":"-0.124254"},"context":"","outcome_status":null,"persistent_id":"","id":73030026,"location_subtype":"","month":"2019-03"},{"category":"anti-social-behaviour","location_type":"Force","location":{"latitude":"51.508577","street":{"id":956212,"name":"On or near Nightclub"},"longitude":"-0.124419"},"context":"","outcome_status":null,"persistent_id":"","id":73030047,"location_subtype":"","month":"2019-03"},{"category":"anti-social-behaviour","location_type":"Force","location":{"latitude":"51.500894","street":{"id":953717,"name":"On or near Toulmin Street"},"longitude":"-0.096855"},"context":"","outcome_status":null,"persistent_id":"","id":73031650,"location_subtype":"","month":"2019-03"},{"category":"anti-social-behaviour","location_type":"Force","location":{"latitude":"51.505203","street":{"id":956126,"name":"On or near Southwark Street"},"longitude":"-0.097511"},"context":"","outcome_status":null,"persistent_id":"","id":73031654,"location_subtype":"","month":"2019-03"},{"category":"anti-social-behaviour","location_type":"Force","location":{"latitude":"51.505203","street":{"id":956126,"name":"On or near Southwark Street"},"longitude":"-0.097511"},"context":"","outcome_status":null,"persistent_id":"","id":73031655,"location_subtype":"","month":"2019-03"},{"category":"anti-social-behaviour","location_type":"Force","location":{"latitude":"51.501210","street":{"id":953719,"name":"On or near Sudrey Street"},"longitude":"-0.098038"},"context":"","outcome_status":null,"persistent_id":"","id":73031672,"location_subtype":"","month":"2019-03"},{"category":"anti-social-behaviour","location_type":"Force","location":{"latitude":"51.498281","street":{"id":953690,"name":"On or near Parking Area"},"longitude":"-0.098750"},"context":"","outcome_status":null,"persistent_id":"","id":73031677,"location_subtype":"","month":"2019-03"},{"category":"anti-social-behaviour","location_type":"Force","location":{"latitude":"51.503784","street":{"id":953715,"name":"On or near Union Street"},"longitude":"-0.098147"},"context":"","outcome_status":null,"persistent_id":"","id":73031682,"location_subtype":"","month":"2019-03"},{"category":"anti-social-behaviour","location_type":"Force","location":{"latitude":"51.504831","street":{"id":953744,"name":"On or near Dolben Street"},"longitude":"-0.102311"},"context":"","outcome_status":null,"persistent_id":"","id":73031711,"location_subtype":"","month":"2019-03"},{"category":"anti-social-behaviour","location_type":"Force","location":{"latitude":"51.503219","street":{"id":953731,"name":"On or near Nelson Square"},"longitude":"-0.103271"},"context":"","outcome_status":null,"persistent_id":"","id":73031718,"location_subtype":"","month":"2019-03"},{"category":"anti-social-behaviour","location_type":"Force","location":{"latitude":"51.503570","street":{"id":953476,"name":"On or near The Cut"},"longitude":"-0.105504"},"context":"","outcome_status":null,"persistent_id":"","id":73031735,"location_subtype":"","month":"2019-03"},{"category":"anti-social-behaviour","location_type":"Force","location":{"latitude":"51.513096","street":{"id":956537,"name":"On or near Bourchier Street"},"longitude":"-0.132593"},"context":"","outcome_status":null,"persistent_id":"","id":73031960,"location_subtype":"","month":"2019-03"},{"category":"anti-social-behaviour","location_type":"Force","location":{"latitude":"51.513096","street":{"id":956537,"name":"On or near Bourchier Street"},"longitude":"-0.132593"},"context":"","outcome_status":null,"persistent_id":"","id":73031962,"location_subtype":"","month":"2019-03"},{"category":"anti-social-behaviour","location_type":"Force","location":{"latitude":"51.511790","street":{"id":956461,"name":"On or near Shaftesbury Avenue"},"longitude":"-0.132473"},"context":"","outcome_status":null,"persistent_id":"","id":73031966,"location_subtype":"","month":"2019-03"},{"category":"anti-social-behaviour","location_type":"Force","location":{"latitude":"51.507569","street":{"id":956649,"name":"On or near Waterloo Place"},"longitude":"-0.132833"},"context":"","outcome_status":null,"persistent_id":"","id":73031965,"location_subtype":"","month":"2019-03"},{"category":"anti-social-behaviour","location_type":"Force","location":{"latitude":"51.508712","street":{"id":956532,"name":"On or near Carlton Street"},"longitude":"-0.133435"},"context":"","outcome_status":null,"persistent_id":"","id":73031981,"location_subtype":"","month":"2019-03"},{"category":"anti-social-behaviour","location_type":"Force","location":{"latitude":"51.498734","street":{"id":953301,"name":"On or near Police Station"},"longitude":"-0.133122"},"context":"","outcome_status":null,"persistent_id":"","id":73031994,"location_subtype":"","month":"2019-03"},{"category":"anti-social-behaviour","location_type":"Force","location":{"latitude":"51.491806","street":{"id":949470,"name":"On or near Salamanca Place"},"longitude":"-0.120498"},"context":"","outcome_status":null,"persistent_id":"","id":73033552,"location_subtype":"","month":"2019-03"},{"category":"anti-social-behaviour","location_type":"Force","location":{"latitude":"51.494437","street":{"id":953551,"name":"On or near A3203"},"longitude":"-0.121960"},"context":"","outcome_status":null,"persistent_id":"","id":73033554,"location_subtype":"","month":"2019-03"},{"category":"anti-social-behaviour","location_type":"Force","location":{"latitude":"51.508577","street":{"id":956212,"name":"On or near Nightclub"},"longitude":"-0.124419"},"context":"","outcome_status":null,"persistent_id":"","id":73030046,"location_subtype":"","month":"2019-03"},{"category":"anti-social-behaviour","location_type":"Force","location":{"latitude":"51.497534","street":{"id":953272,"name":"On or near Old Pye Street"},"longitude":"-0.132278"},"context":"","outcome_status":null,"persistent_id":"","id":73030865,"location_subtype":"","month":"2019-03"},{"category":"anti-social-behaviour","location_type":"Force","location":{"latitude":"51.511790","street":{"id":956461,"name":"On or near Shaftesbury Avenue"},"longitude":"-0.132473"},"context":"","outcome_status":null,"persistent_id":"","id":73031411,"location_subtype":"","month":"2019-03"},{"category":"anti-social-behaviour","location_type":"Force","location":{"latitude":"51.511790","street":{"id":956461,"name":"On or near Shaftesbury Avenue"},"longitude":"-0.132473"},"context":"","outcome_status":null,"persistent_id":"","id":73031412,"location_subtype":"","month":"2019-03"},{"category":"anti-social-behaviour","location_type":"Force","location":{"latitude":"51.511790","street":{"id":956461,"name":"On or near Shaftesbury Avenue"},"longitude":"-0.132473"},"context":"","outcome_status":null,"persistent_id":"","id":73031413,"location_subtype":"","month":"2019-03"},{"category":"anti-social-behaviour","location_type":"Force","location":{"latitude":"51.511790","street":{"id":956461,"name":"On or near Shaftesbury Avenue"},"longitude":"-0.132473"},"context":"","outcome_status":null,"persistent_id":"","id":73031416,"location_subtype":"","month":"2019-03"},{"category":"anti-social-behaviour","location_type":"Force","location":{"latitude":"51.508581","street":{"id":956540,"name":"On or near Babmaes Street"},"longitude":"-0.134838"},"context":"","outcome_status":null,"persistent_id":"","id":73032040,"location_subtype":"","month":"2019-03"},{"category":"anti-social-behaviour","location_type":"Force","location":{"latitude":"51.511046","street":{"id":956549,"name":"On or near Theatre/concert Hall"},"longitude":"-0.135415"},"context":"","outcome_status":null,"persistent_id":"","id":73032041,"location_subtype":"","month":"2019-03"},{"category":"anti-social-behaviour","location_type":"Force","location":{"latitude":"51.511046","street":{"id":956549,"name":"On or near Theatre/concert Hall"},"longitude":"-0.135415"},"context":"","outcome_status":null,"persistent_id":"","id":73032042,"location_subtype":"","month":"2019-03"},{"category":"anti-social-behaviour","location_type":"Force","location":{"latitude":"51.508862","street":{"id":956589,"name":"On or near Sports/recreation Area"},"longitude":"-0.136657"},"context":"","outcome_status":null,"persistent_id":"","id":73032078,"location_subtype":"","month":"2019-03"},{"category":"anti-social-behaviour","location_type":"Force","location":{"latitude":"51.508862","street":{"id":956589,"name":"On or near Sports/recreation Area"},"longitude":"-0.136657"},"context":"","outcome_status":null,"persistent_id":"","id":73032079,"location_subtype":"","month":"2019-03"},{"category":"anti-social-behaviour","location_type":"Force","location":{"latitude":"51.510441","street":{"id":956510,"name":"On or near Glasshouse Street"},"longitude":"-0.136405"},"context":"","outcome_status":null,"persistent_id":"","id":73032080,"location_subtype":"","month":"2019-03"},{"category":"anti-social-behaviour","location_type":"Force","location":{"latitude":"51.509554","street":{"id":956316,"name":"On or near Sackville Street"},"longitude":"-0.138343"},"context":"","outcome_status":null,"persistent_id":"","id":73032095,"location_subtype":"","month":"2019-03"},{"category":"anti-social-behaviour","location_type":"Force","location":{"latitude":"51.508266","street":{"id":956694,"name":"On or near Nightclub"},"longitude":"-0.139866"},"context":"","outcome_status":null,"persistent_id":"","id":73032105,"location_subtype":"","month":"2019-03"},{"category":"anti-social-behaviour","location_type":"Force","location":{"latitude":"51.505719","street":{"id":956676,"name":"On or near St James's Place"},"longitude":"-0.139768"},"context":"","outcome_status":null,"persistent_id":"","id":73032122,"location_subtype":"","month":"2019-03"},{"category":"anti-social-behaviour","location_type":"Force","location":{"latitude":"51.504735","street":{"id":953459,"name":"On or near Pedestrian Subway"},"longitude":"-0.114188"},"context":"","outcome_status":null,"persistent_id":"","id":73033107,"location_subtype":"","month":"2019-03"},{"category":"anti-social-behaviour","location_type":"Force","location":{"latitude":"51.512505","street":{"id":956183,"name":"On or near Floral Street"},"longitude":"-0.124316"},"context":"","outcome_status":null,"persistent_id":"","id":73030043,"location_subtype":"","month":"2019-03"},{"category":"anti-social-behaviour","location_type":"Force","location":{"latitude":"51.503194","street":{"id":953465,"name":"On or near York Road"},"longitude":"-0.115635"},"context":"","outcome_status":null,"persistent_id":"","id":73033108,"location_subtype":"","month":"2019-03"},{"category":"anti-social-behaviour","location_type":"Force","location":{"latitude":"51.503194","street":{"id":953465,"name":"On or near York Road"},"longitude":"-0.115635"},"context":"","outcome_status":null,"persistent_id":"","id":73033109,"location_subtype":"","month":"2019-03"},{"category":"anti-social-behaviour","location_type":"Force","location":{"latitude":"51.500483","street":{"id":953469,"name":"On or near Westminster Bridge Road"},"longitude":"-0.115372"},"context":"","outcome_status":null,"persistent_id":"","id":73033110,"location_subtype":"","month":"2019-03"},{"category":"anti-social-behaviour","location_type":"Force","location":{"latitude":"51.498685","street":{"id":923901,"name":"On or near Royal Street"},"longitude":"-0.115994"},"context":"","outcome_status":null,"persistent_id":"","id":73033111,"location_subtype":"","month":"2019-03"},{"category":"anti-social-behaviour","location_type":"Force","location":{"latitude":"51.503194","street":{"id":953465,"name":"On or near York Road"},"longitude":"-0.115635"},"context":"","outcome_status":null,"persistent_id":"","id":73033122,"location_subtype":"","month":"2019-03"},{"category":"anti-social-behaviour","location_type":"Force","location":{"latitude":"51.491656","street":{"id":949543,"name":"On or near Gibson Road"},"longitude":"-0.116744"},"context":"","outcome_status":null,"persistent_id":"","id":73033129,"location_subtype":"","month":"2019-03"},{"category":"anti-social-behaviour","location_type":"Force","location":{"latitude":"51.501136","street":{"id":953530,"name":"On or near Westminster Bridge Road"},"longitude":"-0.117391"},"context":"","outcome_status":null,"persistent_id":"","id":73033464,"location_subtype":"","month":"2019-03"},{"category":"anti-social-behaviour","location_type":"Force","location":{"latitude":"51.501136","street":{"id":953530,"name":"On or near Westminster Bridge Road"},"longitude":"-0.117391"},"context":"","outcome_status":null,"persistent_id":"","id":73033465,"location_subtype":"","month":"2019-03"},{"category":"anti-social-behaviour","location_type":"Force","location":{"latitude":"51.510893","street":{"id":956150,"name":"On or near Strand"},"longitude":"-0.120231"},"context":"","outcome_status":null,"persistent_id":"","id":73029961,"location_subtype":"","month":"2019-03"},{"category":"anti-social-behaviour","location_type":"Force","location":{"latitude":"51.512998","street":{"id":956208,"name":"On or near Theatre/concert Hall"},"longitude":"-0.120260"},"context":"","outcome_status":null,"persistent_id":"","id":73029962,"location_subtype":"","month":"2019-03"},{"category":"anti-social-behaviour","location_type":"Force","location":{"latitude":"51.502820","street":{"id":953537,"name":"On or near Theme/adventure Park"},"longitude":"-0.119267"},"context":"","outcome_status":null,"persistent_id":"","id":73033472,"location_subtype":"","month":"2019-03"},{"category":"anti-social-behaviour","location_type":"Force","location":{"latitude":"51.491806","street":{"id":949470,"name":"On or near Salamanca Place"},"longitude":"-0.120498"},"context":"","outcome_status":null,"persistent_id":"","id":73033551,"location_subtype":"","month":"2019-03"},{"category":"anti-social-behaviour","location_type":"Force","location":{"latitude":"51.494437","street":{"id":953551,"name":"On or near A3203"},"longitude":"-0.121960"},"context":"","outcome_status":null,"persistent_id":"","id":73033553,"location_subtype":"","month":"2019-03"},{"category":"anti-social-behaviour","location_type":"Force","location":{"latitude":"51.511581","street":{"id":956526,"name":"On or near Cranbourn Street"},"longitude":"-0.127798"},"context":"","outcome_status":null,"persistent_id":"","id":73030776,"location_subtype":"","month":"2019-03"},{"category":"anti-social-behaviour","location_type":"Force","location":{"latitude":"51.512525","street":{"id":956459,"name":"On or near Slingsby Place"},"longitude":"-0.126131"},"context":"","outcome_status":null,"persistent_id":"","id":73030734,"location_subtype":"","month":"2019-03"},{"category":"anti-social-behaviour","location_type":"Force","location":{"latitude":"51.509312","street":{"id":956203,"name":"On or near Adelaide Street"},"longitude":"-0.125931"},"context":"","outcome_status":null,"persistent_id":"","id":73030723,"location_subtype":"","month":"2019-03"},{"category":"anti-social-behaviour","location_type":"Force","location":{"latitude":"51.503196","street":{"id":953311,"name":"On or near Downing Street"},"longitude":"-0.127032"},"context":"","outcome_status":null,"persistent_id":"","id":73030765,"location_subtype":"","month":"2019-03"},{"category":"anti-social-behaviour","location_type":"Force","location":{"latitude":"51.507078","street":{"id":956300,"name":"On or near Embankment Place"},"longitude":"-0.122925"},"context":"","outcome_status":null,"persistent_id":"","id":73030009,"location_subtype":"","month":"2019-03"},{"category":"anti-social-behaviour","location_type":"Force","location":{"latitude":"51.510678","street":{"id":956451,"name":"On or near St Martin's Lane"},"longitude":"-0.126999"},"context":"","outcome_status":null,"persistent_id":"","id":73030770,"location_subtype":"","month":"2019-03"},{"category":"anti-social-behaviour","location_type":"Force","location":{"latitude":"51.499400","street":{"id":953260,"name":"On or near The Sanctuary"},"longitude":"-0.129162"},"context":"","outcome_status":null,"persistent_id":"","id":73030784,"location_subtype":"","month":"2019-03"},{"category":"anti-social-behaviour","location_type":"Force","location":{"latitude":"51.511783","street":{"id":956547,"name":"On or near Nightclub"},"longitude":"-0.129778"},"context":"","outcome_status":null,"persistent_id":"","id":73030812,"location_subtype":"","month":"2019-03"},{"category":"anti-social-behaviour","location_type":"Force","location":{"latitude":"51.495874","street":{"id":953273,"name":"On or near Monck Street"},"longitude":"-0.130819"},"context":"","outcome_status":null,"persistent_id":"","id":73030826,"location_subtype":"","month":"2019-03"},{"category":"anti-social-behaviour","location_type":"Force","location":{"latitude":"51.514007","street":{"id":956581,"name":"On or near Nightclub"},"longitude":"-0.131085"},"context":"","outcome_status":null,"persistent_id":"","id":73030855,"location_subtype":"","month":"2019-03"},{"category":"anti-social-behaviour","location_type":"Force","location":{"latitude":"51.511790","street":{"id":956461,"name":"On or near Shaftesbury Avenue"},"longitude":"-0.132473"},"context":"","outcome_status":null,"persistent_id":"","id":73031409,"location_subtype":"","month":"2019-03"},{"category":"anti-social-behaviour","location_type":"Force","location":{"latitude":"51.514295","street":{"id":956531,"name":"On or near Chapone Place"},"longitude":"-0.132789"},"context":"","outcome_status":null,"persistent_id":"","id":73031978,"location_subtype":"","month":"2019-03"},{"category":"anti-social-behaviour","location_type":"Force","location":{"latitude":"51.511394","street":{"id":956491,"name":"On or near Lower James Street"},"longitude":"-0.136424"},"context":"","outcome_status":null,"persistent_id":"","id":73032062,"location_subtype":"","month":"2019-03"},{"category":"anti-social-behaviour","location_type":"Force","location":{"latitude":"51.500439","street":{"id":953746,"name":"On or near Collinson Street"},"longitude":"-0.098747"},"context":"","outcome_status":null,"persistent_id":"","id":73032322,"location_subtype":"","month":"2019-03"},{"category":"anti-social-behaviour","location_type":"Force","location":{"latitude":"51.498436","street":{"id":953432,"name":"On or near Westminster Bridge Road"},"longitude":"-0.111105"},"context":"","outcome_status":null,"persistent_id":"","id":73032994,"location_subtype":"","month":"2019-03"},{"category":"anti-social-behaviour","location_type":"Force","location":{"latitude":"51.503637","street":{"id":953483,"name":"On or near Sandell Street"},"longitude":"-0.110804"},"context":"","outcome_status":null,"persistent_id":"","id":73032991,"location_subtype":"","month":"2019-03"},{"category":"anti-social-behaviour","location_type":"Force","location":{"latitude":"51.502410","street":{"id":953486,"name":"On or near Pear Place"},"longitude":"-0.110538"},"context":"","outcome_status":null,"persistent_id":"","id":73032429,"location_subtype":"","month":"2019-03"},{"category":"anti-social-behaviour","location_type":"Force","location":{"latitude":"51.493401","street":{"id":953582,"name":"On or near Castlebrook Close"},"longitude":"-0.105594"},"context":"","outcome_status":null,"persistent_id":"","id":73032361,"location_subtype":"","month":"2019-03"},{"category":"anti-social-behaviour","location_type":"Force","location":{"latitude":"51.495905","street":{"id":953353,"name":"On or near Ambrosden Avenue"},"longitude":"-0.139015"},"context":"","outcome_status":null,"persistent_id":"","id":73032110,"location_subtype":"","month":"2019-03"},{"category":"anti-social-behaviour","location_type":"Force","location":{"latitude":"51.511394","street":{"id":956491,"name":"On or near Lower James Street"},"longitude":"-0.136424"},"context":"","outcome_status":null,"persistent_id":"","id":73032075,"location_subtype":"","month":"2019-03"},{"category":"anti-social-behaviour","location_type":"Force","location":{"latitude":"51.511989","street":{"id":923884,"name":"On or near Bridle Lane"},"longitude":"-0.136486"},"context":"","outcome_status":null,"persistent_id":"","id":73032066,"location_subtype":"","month":"2019-03"},{"category":"anti-social-behaviour","location_type":"Force","location":{"latitude":"51.509929","street":{"id":956469,"name":"On or near Regent Street"},"longitude":"-0.136440"},"context":"","outcome_status":null,"persistent_id":"","id":73032067,"location_subtype":"","month":"2019-03"},{"category":"anti-social-behaviour","location_type":"Force","location":{"latitude":"51.496095","street":{"id":953268,"name":"On or near Rochester Row"},"longitude":"-0.135088"},"context":"","outcome_status":null,"persistent_id":"","id":73032033,"location_subtype":"","month":"2019-03"},{"category":"anti-social-behaviour","location_type":"Force","location":{"latitude":"51.516368","street":{"id":956507,"name":"On or near Grape Street"},"longitude":"-0.125742"},"context":"","outcome_status":null,"persistent_id":"","id":73030333,"location_subtype":"","month":"2019-03"},{"category":"anti-social-behaviour","location_type":"Force","location":{"latitude":"51.510006","street":{"id":956472,"name":"On or near Piccadilly Circus"},"longitude":"-0.135054"},"context":"","outcome_status":null,"persistent_id":"","id":73032026,"location_subtype":"","month":"2019-03"},{"category":"anti-social-behaviour","location_type":"Force","location":{"latitude":"51.512482","street":{"id":956588,"name":"On or near Nightclub"},"longitude":"-0.134160"},"context":"","outcome_status":null,"persistent_id":"","id":73032016,"location_subtype":"","month":"2019-03"},{"category":"anti-social-behaviour","location_type":"Force","location":{"latitude":"51.516692","street":{"id":956232,"name":"On or near West Central Street"},"longitude":"-0.125225"},"context":"","outcome_status":null,"persistent_id":"","id":73030334,"location_subtype":"","month":"2019-03"},{"category":"anti-social-behaviour","location_type":"Force","location":{"latitude":"51.516368","street":{"id":956507,"name":"On or near Grape Street"},"longitude":"-0.125742"},"context":"","outcome_status":null,"persistent_id":"","id":73030338,"location_subtype":"","month":"2019-03"},{"category":"anti-social-behaviour","location_type":"Force","location":{"latitude":"51.513226","street":{"id":956447,"name":"On or near Tower Street"},"longitude":"-0.127774"},"context":"","outcome_status":null,"persistent_id":"","id":73030373,"location_subtype":"","month":"2019-03"},{"category":"anti-social-behaviour","location_type":"Force","location":{"latitude":"51.513226","street":{"id":956447,"name":"On or near Tower Street"},"longitude":"-0.127774"},"context":"","outcome_status":null,"persistent_id":"","id":73030374,"location_subtype":"","month":"2019-03"},{"category":"anti-social-behaviour","location_type":"Force","location":{"latitude":"51.509150","street":{"id":956550,"name":"On or near Theatre/concert Hall"},"longitude":"-0.134959"},"context":"","outcome_status":null,"persistent_id":"","id":73032015,"location_subtype":"","month":"2019-03"},{"category":"anti-social-behaviour","location_type":"Force","location":{"latitude":"51.515681","street":{"id":956454,"name":"On or near St Giles High Street"},"longitude":"-0.128884"},"context":"","outcome_status":null,"persistent_id":"","id":73030376,"location_subtype":"","month":"2019-03"},{"category":"anti-social-behaviour","location_type":"Force","location":{"latitude":"51.513096","street":{"id":956537,"name":"On or near Bourchier Street"},"longitude":"-0.132593"},"context":"","outcome_status":null,"persistent_id":"","id":73031963,"location_subtype":"","month":"2019-03"},{"category":"anti-social-behaviour","location_type":"Force","location":{"latitude":"51.515681","street":{"id":956454,"name":"On or near St Giles High Street"},"longitude":"-0.128884"},"context":"","outcome_status":null,"persistent_id":"","id":73030377,"location_subtype":"","month":"2019-03"},{"category":"anti-social-behaviour","location_type":"Force","location":{"latitude":"51.514500","street":{"id":956453,"name":"On or near St Giles Passage"},"longitude":"-0.128139"},"context":"","outcome_status":null,"persistent_id":"","id":73030381,"location_subtype":"","month":"2019-03"},{"category":"anti-social-behaviour","location_type":"Force","location":{"latitude":"51.513701","street":{"id":956557,"name":"On or near Theatre/concert Hall"},"longitude":"-0.128273"},"context":"","outcome_status":null,"persistent_id":"","id":73030402,"location_subtype":"","month":"2019-03"},{"category":"anti-social-behaviour","location_type":"Force","location":{"latitude":"51.495804","street":{"id":953697,"name":"On or near Princess Street"},"longitude":"-0.102383"},"context":"","outcome_status":null,"persistent_id":"","id":73031712,"location_subtype":"","month":"2019-03"},{"category":"anti-social-behaviour","location_type":"Force","location":{"latitude":"51.514364","street":{"id":956473,"name":"On or near Phoenix Street"},"longitude":"-0.129212"},"context":"","outcome_status":null,"persistent_id":"","id":73030403,"location_subtype":"","month":"2019-03"},{"category":"anti-social-behaviour","location_type":"Force","location":{"latitude":"51.515328","street":{"id":956522,"name":"On or near Denmark Street"},"longitude":"-0.129359"},"context":"","outcome_status":null,"persistent_id":"","id":73030406,"location_subtype":"","month":"2019-03"},{"category":"anti-social-behaviour","location_type":"Force","location":{"latitude":"51.516213","street":{"id":956172,"name":"On or near Kingsway"},"longitude":"-0.119450"},"context":"","outcome_status":null,"persistent_id":"","id":73030222,"location_subtype":"","month":"2019-03"},{"category":"anti-social-behaviour","location_type":"Force","location":{"latitude":"51.516213","street":{"id":956172,"name":"On or near Kingsway"},"longitude":"-0.119450"},"context":"","outcome_status":null,"persistent_id":"","id":73030223,"location_subtype":"","month":"2019-03"},{"category":"anti-social-behaviour","location_type":"Force","location":{"latitude":"51.516213","street":{"id":956172,"name":"On or near Kingsway"},"longitude":"-0.119450"},"context":"","outcome_status":null,"persistent_id":"","id":73030224,"location_subtype":"","month":"2019-03"},{"category":"anti-social-behaviour","location_type":"Force","location":{"latitude":"51.511790","street":{"id":956461,"name":"On or near Shaftesbury Avenue"},"longitude":"-0.132473"},