[{"category":"anti-social-behaviour","location_type":"Force","location":{"latitude":"51.495928","street":{"id":953689,"name":"On or near Pedestrian Subway"},"longitude":"-0.100073"},"context":"","outcome_status":null,"persistent_id":"","id":64316804,"location_subtype":"","month":"2018-04"},{"category":"anti-social-behaviour","location_type":"Force","location":{"latitude":"51.503196","street":{"id":953311,"name":"On or near Downing Street"},"longitude":"-0.127032"},"context":"","outcome_status":null,"persistent_id":"","id":64318881,"location_subtype":"","month":"2018-04"},{"category":"anti-social-behaviour","location_type":"Force","location":{"latitude":"51.495928","street":{"id":953689,"name":"On or near Pedestrian Subway"},"longitude":"-0.100073"},"context":"","outcome_status":null,"persistent_id":"","id":64316805,"location_subtype":"","month":"2018-04"},{"category":"anti-social-behaviour","location_type":"Force","location":{"latitude":"51.495085","street":{"id":953686,"name":"On or near Pedestrian Subway"},"longitude":"-0.101318"},"context":"","outcome_status":null,"persistent_id":"","id":64316806,"location_subtype":"","month":"2018-04"},{"category":"anti-social-behaviour","location_type":"Force","location":{"latitude":"51.503196","street":{"id":953311,"name":"On or near Downing Street"},"longitude":"-0.127032"},"context":"","outcome_status":null,"persistent_id":"","id":64318882,"location_subtype":"","month":"2018-04"},{"category":"anti-social-behaviour","location_type":"Force","location":{"latitude":"51.512532","street":{"id":956259,"name":"On or near Little Essex Street"},"longitude":"-0.113088"},"context":"","outcome_status":null,"persistent_id":"","id":64317873,"location_subtype":"","month":"2018-04"},{"category":"anti-social-behaviour","location_type":"Force","location":{"latitude":"51.498685","street":{"id":923901,"name":"On or near Royal Street"},"longitude":"-0.115994"},"context":"","outcome_status":null,"persistent_id":"","id":64319304,"location_subtype":"","month":"2018-04"},{"category":"anti-social-behaviour","location_type":"Force","location":{"latitude":"51.500483","street":{"id":953469,"name":"On or near Westminster Bridge Road"},"longitude":"-0.115372"},"context":"","outcome_status":null,"persistent_id":"","id":64319270,"location_subtype":"","month":"2018-04"},{"category":"anti-social-behaviour","location_type":"Force","location":{"latitude":"51.509312","street":{"id":956203,"name":"On or near Adelaide Street"},"longitude":"-0.125931"},"context":"","outcome_status":null,"persistent_id":"","id":64318883,"location_subtype":"","month":"2018-04"},{"category":"anti-social-behaviour","location_type":"Force","location":{"latitude":"51.504031","street":{"id":953461,"name":"On or near Pedestrian Subway"},"longitude":"-0.114001"},"context":"","outcome_status":null,"persistent_id":"","id":64319217,"location_subtype":"","month":"2018-04"},{"category":"anti-social-behaviour","location_type":"Force","location":{"latitude":"51.504031","street":{"id":953461,"name":"On or near Pedestrian Subway"},"longitude":"-0.114001"},"context":"","outcome_status":null,"persistent_id":"","id":64319216,"location_subtype":"","month":"2018-04"},{"category":"anti-social-behaviour","location_type":"Force","location":{"latitude":"51.512532","street":{"id":956259,"name":"On or near Little Essex Street"},"longitude":"-0.113088"},"context":"","outcome_status":null,"persistent_id":"","id":64317874,"location_subtype":"","month":"2018-04"},{"category":"anti-social-behaviour","location_type":"Force","location":{"latitude":"51.512532","street":{"id":956259,"name":"On or near Little Essex Street"},"longitude":"-0.113088"},"context":"","outcome_status":null,"persistent_id":"","id":64317877,"location_subtype":"","month":"2018-04"},{"category":"anti-social-behaviour","location_type":"Force","location":{"latitude":"51.509312","street":{"id":956203,"name":"On or near Adelaide Street"},"longitude":"-0.125931"},"context":"","outcome_status":null,"persistent_id":"","id":64318884,"location_subtype":"","month":"2018-04"},{"category":"anti-social-behaviour","location_type":"Force","location":{"latitude":"51.507386","street":{"id":956682,"name":"On or near Masons Yard"},"longitude":"-0.137682"},"context":"","outcome_status":null,"persistent_id":"","id":64321177,"location_subtype":"","month":"2018-04"},{"category":"anti-social-behaviour","location_type":"Force","location":{"latitude":"51.495451","street":{"id":953446,"name":"On or near Kennington Road"},"longitude":"-0.111186"},"context":"","outcome_status":null,"persistent_id":"","id":64319212,"location_subtype":"","month":"2018-04"},{"category":"anti-social-behaviour","location_type":"Force","location":{"latitude":"51.495451","street":{"id":953446,"name":"On or near Kennington Road"},"longitude":"-0.111186"},"context":"","outcome_status":null,"persistent_id":"","id":64319211,"location_subtype":"","month":"2018-04"},{"category":"anti-social-behaviour","location_type":"Force","location":{"latitude":"51.512532","street":{"id":956259,"name":"On or near Little Essex Street"},"longitude":"-0.113088"},"context":"","outcome_status":null,"persistent_id":"","id":64317876,"location_subtype":"","month":"2018-04"},{"category":"anti-social-behaviour","location_type":"Force","location":{"latitude":"51.496840","street":{"id":953437,"name":"On or near Morton Place"},"longitude":"-0.112554"},"context":"","outcome_status":null,"persistent_id":"","id":64319203,"location_subtype":"","month":"2018-04"},{"category":"anti-social-behaviour","location_type":"Force","location":{"latitude":"51.509312","street":{"id":956203,"name":"On or near Adelaide Street"},"longitude":"-0.125931"},"context":"","outcome_status":null,"persistent_id":"","id":64318885,"location_subtype":"","month":"2018-04"},{"category":"anti-social-behaviour","location_type":"Force","location":{"latitude":"51.510715","street":{"id":956500,"name":"On or near Hop Gardens"},"longitude":"-0.125960"},"context":"","outcome_status":null,"persistent_id":"","id":64318886,"location_subtype":"","month":"2018-04"},{"category":"anti-social-behaviour","location_type":"Force","location":{"latitude":"51.507473","street":{"id":956299,"name":"On or near Northumberland Street"},"longitude":"-0.125675"},"context":"","outcome_status":null,"persistent_id":"","id":64318887,"location_subtype":"","month":"2018-04"},{"category":"anti-social-behaviour","location_type":"Force","location":{"latitude":"51.498436","street":{"id":953432,"name":"On or near Westminster Bridge Road"},"longitude":"-0.111105"},"context":"","outcome_status":null,"persistent_id":"","id":64319178,"location_subtype":"","month":"2018-04"},{"category":"anti-social-behaviour","location_type":"Force","location":{"latitude":"51.498436","street":{"id":953432,"name":"On or near Westminster Bridge Road"},"longitude":"-0.111105"},"context":"","outcome_status":null,"persistent_id":"","id":64319179,"location_subtype":"","month":"2018-04"},{"category":"anti-social-behaviour","location_type":"Force","location":{"latitude":"51.505931","street":{"id":956279,"name":"On or near Stamford Street"},"longitude":"-0.110839"},"context":"","outcome_status":null,"persistent_id":"","id":64319184,"location_subtype":"","month":"2018-04"},{"category":"anti-social-behaviour","location_type":"Force","location":{"latitude":"51.512532","street":{"id":956259,"name":"On or near Little Essex Street"},"longitude":"-0.113088"},"context":"","outcome_status":null,"persistent_id":"","id":64317875,"location_subtype":"","month":"2018-04"},{"category":"anti-social-behaviour","location_type":"Force","location":{"latitude":"51.511046","street":{"id":956549,"name":"On or near Theatre/concert Hall"},"longitude":"-0.135415"},"context":"","outcome_status":null,"persistent_id":"","id":64320106,"location_subtype":"","month":"2018-04"},{"category":"anti-social-behaviour","location_type":"Force","location":{"latitude":"51.511046","street":{"id":956549,"name":"On or near Theatre/concert Hall"},"longitude":"-0.135415"},"context":"","outcome_status":null,"persistent_id":"","id":64320105,"location_subtype":"","month":"2018-04"},{"category":"anti-social-behaviour","location_type":"Force","location":{"latitude":"51.509324","street":{"id":956448,"name":"On or near Swallow Street"},"longitude":"-0.137430"},"context":"","outcome_status":null,"persistent_id":"","id":64321183,"location_subtype":"","month":"2018-04"},{"category":"anti-social-behaviour","location_type":"Force","location":{"latitude":"51.495222","street":{"id":953406,"name":"On or near Rochester Street"},"longitude":"-0.135038"},"context":"","outcome_status":null,"persistent_id":"","id":64320079,"location_subtype":"","month":"2018-04"},{"category":"anti-social-behaviour","location_type":"Force","location":{"latitude":"51.509848","street":{"id":587368,"name":"On or near A201"},"longitude":"-0.104494"},"context":"","outcome_status":null,"persistent_id":"","id":67751501,"location_subtype":"","month":"2018-04"},{"category":"anti-social-behaviour","location_type":"Force","location":{"latitude":"51.495222","street":{"id":953406,"name":"On or near Rochester Street"},"longitude":"-0.135038"},"context":"","outcome_status":null,"persistent_id":"","id":64320077,"location_subtype":"","month":"2018-04"},{"category":"anti-social-behaviour","location_type":"Force","location":{"latitude":"51.513869","street":{"id":587567,"name":"On or near Bride Lane"},"longitude":"-0.105134"},"context":"","outcome_status":null,"persistent_id":"","id":67751525,"location_subtype":"","month":"2018-04"},{"category":"anti-social-behaviour","location_type":"Force","location":{"latitude":"51.509324","street":{"id":956448,"name":"On or near Swallow Street"},"longitude":"-0.137430"},"context":"","outcome_status":null,"persistent_id":"","id":64321184,"location_subtype":"","month":"2018-04"},{"category":"anti-social-behaviour","location_type":"Force","location":{"latitude":"51.496095","street":{"id":953268,"name":"On or near Rochester Row"},"longitude":"-0.135088"},"context":"","outcome_status":null,"persistent_id":"","id":64320075,"location_subtype":"","month":"2018-04"},{"category":"anti-social-behaviour","location_type":"Force","location":{"latitude":"51.510006","street":{"id":956472,"name":"On or near Piccadilly Circus"},"longitude":"-0.135054"},"context":"","outcome_status":null,"persistent_id":"","id":64320072,"location_subtype":"","month":"2018-04"},{"category":"anti-social-behaviour","location_type":"Force","location":{"latitude":"51.511449","street":{"id":587321,"name":"On or near Victoria Embankment"},"longitude":"-0.104500"},"context":"","outcome_status":null,"persistent_id":"","id":67751577,"location_subtype":"","month":"2018-04"},{"category":"anti-social-behaviour","location_type":"Force","location":{"latitude":"51.510490","street":{"id":956198,"name":"On or near Bedford Street"},"longitude":"-0.124254"},"context":"","outcome_status":null,"persistent_id":"","id":64318854,"location_subtype":"","month":"2018-04"},{"category":"anti-social-behaviour","location_type":"Force","location":{"latitude":"51.513330","street":{"id":587570,"name":"On or near Theatre/concert Hall"},"longitude":"-0.105157"},"context":"","outcome_status":null,"persistent_id":"","id":67751638,"location_subtype":"","month":"2018-04"},{"category":"anti-social-behaviour","location_type":"Force","location":{"latitude":"51.514887","street":{"id":587564,"name":"On or near Fetter Lane"},"longitude":"-0.109647"},"context":"","outcome_status":null,"persistent_id":"","id":67751712,"location_subtype":"","month":"2018-04"},{"category":"anti-social-behaviour","location_type":"Force","location":{"latitude":"51.491292","street":{"id":949539,"name":"On or near Kempsford Road"},"longitude":"-0.108087"},"context":"","outcome_status":null,"persistent_id":"","id":64318099,"location_subtype":"","month":"2018-04"},{"category":"anti-social-behaviour","location_type":"Force","location":{"latitude":"51.496540","street":{"id":953300,"name":"On or near Police Station"},"longitude":"-0.135402"},"context":"","outcome_status":null,"persistent_id":"","id":64320070,"location_subtype":"","month":"2018-04"},{"category":"anti-social-behaviour","location_type":"Force","location":{"latitude":"51.508659","street":{"id":956583,"name":"On or near Conference/exhibition Centre"},"longitude":"-0.137443"},"context":"","outcome_status":null,"persistent_id":"","id":64321186,"location_subtype":"","month":"2018-04"},{"category":"anti-social-behaviour","location_type":"Force","location":{"latitude":"51.498734","street":{"id":953301,"name":"On or near Police Station"},"longitude":"-0.133122"},"context":"","outcome_status":null,"persistent_id":"","id":64320046,"location_subtype":"","month":"2018-04"},{"category":"anti-social-behaviour","location_type":"Force","location":{"latitude":"51.509684","street":{"id":956600,"name":"On or near Shopping Area"},"longitude":"-0.137445"},"context":"","outcome_status":null,"persistent_id":"","id":64321176,"location_subtype":"","month":"2018-04"},{"category":"anti-social-behaviour","location_type":"Force","location":{"latitude":"51.501299","street":{"id":953478,"name":"On or near Tanswell Street"},"longitude":"-0.111333"},"context":"","outcome_status":null,"persistent_id":"","id":64318175,"location_subtype":"","month":"2018-04"},{"category":"anti-social-behaviour","location_type":"Force","location":{"latitude":"51.510490","street":{"id":956198,"name":"On or near Bedford Street"},"longitude":"-0.124254"},"context":"","outcome_status":null,"persistent_id":"","id":64318855,"location_subtype":"","month":"2018-04"},{"category":"anti-social-behaviour","location_type":"Force","location":{"latitude":"51.510490","street":{"id":956198,"name":"On or near Bedford Street"},"longitude":"-0.124254"},"context":"","outcome_status":null,"persistent_id":"","id":64318856,"location_subtype":"","month":"2018-04"},{"category":"anti-social-behaviour","location_type":"Force","location":{"latitude":"51.498734","street":{"id":953301,"name":"On or near Police Station"},"longitude":"-0.133122"},"context":"","outcome_status":null,"persistent_id":"","id":64320045,"location_subtype":"","month":"2018-04"},{"category":"anti-social-behaviour","location_type":"Force","location":{"latitude":"51.498734","street":{"id":953301,"name":"On or near Police Station"},"longitude":"-0.133122"},"context":"","outcome_status":null,"persistent_id":"","id":64320044,"location_subtype":"","month":"2018-04"},{"category":"anti-social-behaviour","location_type":"Force","location":{"latitude":"51.498734","street":{"id":953301,"name":"On or near Police Station"},"longitude":"-0.133122"},"context":"","outcome_status":null,"persistent_id":"","id":64320043,"location_subtype":"","month":"2018-04"},{"category":"anti-social-behaviour","location_type":"Force","location":{"latitude":"51.514963","street":{"id":956196,"name":"On or near Betterton Street"},"longitude":"-0.123912"},"context":"","outcome_status":null,"persistent_id":"","id":64318857,"location_subtype":"","month":"2018-04"},{"category":"anti-social-behaviour","location_type":"Force","location":{"latitude":"51.498734","street":{"id":953301,"name":"On or near Police Station"},"longitude":"-0.133122"},"context":"","outcome_status":null,"persistent_id":"","id":64320042,"location_subtype":"","month":"2018-04"},{"category":"anti-social-behaviour","location_type":"Force","location":{"latitude":"51.500969","street":{"id":953533,"name":"On or near Bridge Street"},"longitude":"-0.124933"},"context":"","outcome_status":null,"persistent_id":"","id":64318858,"location_subtype":"","month":"2018-04"},{"category":"anti-social-behaviour","location_type":"Force","location":{"latitude":"51.498734","street":{"id":953301,"name":"On or near Police Station"},"longitude":"-0.133122"},"context":"","outcome_status":null,"persistent_id":"","id":64320038,"location_subtype":"","month":"2018-04"},{"category":"anti-social-behaviour","location_type":"Force","location":{"latitude":"51.498734","street":{"id":953301,"name":"On or near Police Station"},"longitude":"-0.133122"},"context":"","outcome_status":null,"persistent_id":"","id":64320037,"location_subtype":"","month":"2018-04"},{"category":"anti-social-behaviour","location_type":"Force","location":{"latitude":"51.500969","street":{"id":953533,"name":"On or near Bridge Street"},"longitude":"-0.124933"},"context":"","outcome_status":null,"persistent_id":"","id":64318859,"location_subtype":"","month":"2018-04"},{"category":"anti-social-behaviour","location_type":"Force","location":{"latitude":"51.501299","street":{"id":953478,"name":"On or near Tanswell Street"},"longitude":"-0.111333"},"context":"","outcome_status":null,"persistent_id":"","id":64318174,"location_subtype":"","month":"2018-04"},{"category":"anti-social-behaviour","location_type":"Force","location":{"latitude":"51.498734","street":{"id":953301,"name":"On or near Police Station"},"longitude":"-0.133122"},"context":"","outcome_status":null,"persistent_id":"","id":64320036,"location_subtype":"","month":"2018-04"},{"category":"anti-social-behaviour","location_type":"Force","location":{"latitude":"51.498734","street":{"id":953301,"name":"On or near Police Station"},"longitude":"-0.133122"},"context":"","outcome_status":null,"persistent_id":"","id":64320035,"location_subtype":"","month":"2018-04"},{"category":"anti-social-behaviour","location_type":"Force","location":{"latitude":"51.513100","street":{"id":956169,"name":"On or near Long Acre"},"longitude":"-0.124406"},"context":"","outcome_status":null,"persistent_id":"","id":64318851,"location_subtype":"","month":"2018-04"},{"category":"anti-social-behaviour","location_type":"Force","location":{"latitude":"51.498734","street":{"id":953301,"name":"On or near Police Station"},"longitude":"-0.133122"},"context":"","outcome_status":null,"persistent_id":"","id":64320034,"location_subtype":"","month":"2018-04"},{"category":"anti-social-behaviour","location_type":"Force","location":{"latitude":"51.498734","street":{"id":953301,"name":"On or near Police Station"},"longitude":"-0.133122"},"context":"","outcome_status":null,"persistent_id":"","id":64320033,"location_subtype":"","month":"2018-04"},{"category":"anti-social-behaviour","location_type":"Force","location":{"latitude":"51.503196","street":{"id":953311,"name":"On or near Downing Street"},"longitude":"-0.127032"},"context":"","outcome_status":null,"persistent_id":"","id":64318879,"location_subtype":"","month":"2018-04"},{"category":"anti-social-behaviour","location_type":"Force","location":{"latitude":"51.498734","street":{"id":953301,"name":"On or near Police Station"},"longitude":"-0.133122"},"context":"","outcome_status":null,"persistent_id":"","id":64320032,"location_subtype":"","month":"2018-04"},{"category":"anti-social-behaviour","location_type":"Force","location":{"latitude":"51.500039","street":{"id":953471,"name":"On or near Webber Row"},"longitude":"-0.107365"},"context":"","outcome_status":null,"persistent_id":"","id":64318105,"location_subtype":"","month":"2018-04"},{"category":"anti-social-behaviour","location_type":"Force","location":{"latitude":"51.506673","street":{"id":956284,"name":"On or near Duchy Street"},"longitude":"-0.108877"},"context":"","outcome_status":null,"persistent_id":"","id":64318132,"location_subtype":"","month":"2018-04"},{"category":"anti-social-behaviour","location_type":"Force","location":{"latitude":"51.508592","street":{"id":956519,"name":"On or near Duncannon Street"},"longitude":"-0.126479"},"context":"","outcome_status":null,"persistent_id":"","id":64318927,"location_subtype":"","month":"2018-04"},{"category":"anti-social-behaviour","location_type":"Force","location":{"latitude":"51.498734","street":{"id":953301,"name":"On or near Police Station"},"longitude":"-0.133122"},"context":"","outcome_status":null,"persistent_id":"","id":64320031,"location_subtype":"","month":"2018-04"},{"category":"anti-social-behaviour","location_type":"Force","location":{"latitude":"51.498734","street":{"id":953301,"name":"On or near Police Station"},"longitude":"-0.133122"},"context":"","outcome_status":null,"persistent_id":"","id":64320030,"location_subtype":"","month":"2018-04"},{"category":"anti-social-behaviour","location_type":"Force","location":{"latitude":"51.509371","street":{"id":956452,"name":"On or near St James's Market"},"longitude":"-0.133033"},"context":"","outcome_status":null,"persistent_id":"","id":64320029,"location_subtype":"","month":"2018-04"},{"category":"anti-social-behaviour","location_type":"Force","location":{"latitude":"51.509371","street":{"id":956452,"name":"On or near St James's Market"},"longitude":"-0.133033"},"context":"","outcome_status":null,"persistent_id":"","id":64320028,"location_subtype":"","month":"2018-04"},{"category":"anti-social-behaviour","location_type":"Force","location":{"latitude":"51.503196","street":{"id":953311,"name":"On or near Downing Street"},"longitude":"-0.127032"},"context":"","outcome_status":null,"persistent_id":"","id":64323699,"location_subtype":"","month":"2018-04"},{"category":"anti-social-behaviour","location_type":"Force","location":{"latitude":"51.501299","street":{"id":953478,"name":"On or near Tanswell Street"},"longitude":"-0.111333"},"context":"","outcome_status":null,"persistent_id":"","id":64318173,"location_subtype":"","month":"2018-04"},{"category":"anti-social-behaviour","location_type":"Force","location":{"latitude":"51.509371","street":{"id":956452,"name":"On or near St James's Market"},"longitude":"-0.133033"},"context":"","outcome_status":null,"persistent_id":"","id":64320027,"location_subtype":"","month":"2018-04"},{"category":"anti-social-behaviour","location_type":"Force","location":{"latitude":"51.493662","street":{"id":953560,"name":"On or near Sullivan Road"},"longitude":"-0.107283"},"context":"","outcome_status":null,"persistent_id":"","id":64318102,"location_subtype":"","month":"2018-04"},{"category":"anti-social-behaviour","location_type":"Force","location":{"latitude":"51.489903","street":{"id":949463,"name":"On or near Vauxhall Walk"},"longitude":"-0.120159"},"context":"","outcome_status":null,"persistent_id":"","id":64320507,"location_subtype":"","month":"2018-04"},{"category":"anti-social-behaviour","location_type":"Force","location":{"latitude":"51.497899","street":{"id":953525,"name":"On or near Further/higher Educational Building"},"longitude":"-0.119685"},"context":"","outcome_status":null,"persistent_id":"","id":64320478,"location_subtype":"","month":"2018-04"},{"category":"anti-social-behaviour","location_type":"Force","location":{"latitude":"51.511715","street":{"id":956493,"name":"On or near Little Newport Street"},"longitude":"-0.128902"},"context":"","outcome_status":null,"persistent_id":"","id":64318974,"location_subtype":"","month":"2018-04"},{"category":"anti-social-behaviour","location_type":"Force","location":{"latitude":"51.503196","street":{"id":953311,"name":"On or near Downing Street"},"longitude":"-0.127032"},"context":"","outcome_status":null,"persistent_id":"","id":64323700,"location_subtype":"","month":"2018-04"},{"category":"anti-social-behaviour","location_type":"Force","location":{"latitude":"51.509848","street":{"id":587368,"name":"On or near A201"},"longitude":"-0.104494"},"context":"","outcome_status":null,"persistent_id":"","id":67751409,"location_subtype":"","month":"2018-04"},{"category":"anti-social-behaviour","location_type":"Force","location":{"latitude":"51.514205","street":{"id":956468,"name":"On or near Richmond Buildings"},"longitude":"-0.133340"},"context":"","outcome_status":null,"persistent_id":"","id":64320026,"location_subtype":"","month":"2018-04"},{"category":"anti-social-behaviour","location_type":"Force","location":{"latitude":"51.494661","street":{"id":953422,"name":"On or near Coburg Close"},"longitude":"-0.137668"},"context":"","outcome_status":null,"persistent_id":"","id":64321166,"location_subtype":"","month":"2018-04"},{"category":"anti-social-behaviour","location_type":"Force","location":{"latitude":"51.514205","street":{"id":956468,"name":"On or near Richmond Buildings"},"longitude":"-0.133340"},"context":"","outcome_status":null,"persistent_id":"","id":64320025,"location_subtype":"","month":"2018-04"},{"category":"anti-social-behaviour","location_type":"Force","location":{"latitude":"51.513096","street":{"id":956537,"name":"On or near Bourchier Street"},"longitude":"-0.132593"},"context":"","outcome_status":null,"persistent_id":"","id":64320001,"location_subtype":"","month":"2018-04"},{"category":"anti-social-behaviour","location_type":"Force","location":{"latitude":"51.513096","street":{"id":956537,"name":"On or near Bourchier Street"},"longitude":"-0.132593"},"context":"","outcome_status":null,"persistent_id":"","id":64320000,"location_subtype":"","month":"2018-04"},{"category":"anti-social-behaviour","location_type":"Force","location":{"latitude":"51.509980","street":{"id":956543,"name":"On or near Motorway Service Area"},"longitude":"-0.132331"},"context":"","outcome_status":null,"persistent_id":"","id":64319983,"location_subtype":"","month":"2018-04"},{"category":"anti-social-behaviour","location_type":"Force","location":{"latitude":"51.511981","street":{"id":956462,"name":"On or near Shaftesbury Avenue"},"longitude":"-0.132019"},"context":"","outcome_status":null,"persistent_id":"","id":64319979,"location_subtype":"","month":"2018-04"},{"category":"anti-social-behaviour","location_type":"Force","location":{"latitude":"51.513992","street":{"id":956539,"name":"On or near Bateman Street"},"longitude":"-0.131821"},"context":"","outcome_status":null,"persistent_id":"","id":64319978,"location_subtype":"","month":"2018-04"},{"category":"anti-social-behaviour","location_type":"Force","location":{"latitude":"51.500969","street":{"id":953533,"name":"On or near Bridge Street"},"longitude":"-0.124933"},"context":"","outcome_status":null,"persistent_id":"","id":64318860,"location_subtype":"","month":"2018-04"},{"category":"anti-social-behaviour","location_type":"Force","location":{"latitude":"51.491377","street":{"id":949475,"name":"On or near Lilac Place"},"longitude":"-0.118412"},"context":"","outcome_status":null,"persistent_id":"","id":64320460,"location_subtype":"","month":"2018-04"},{"category":"anti-social-behaviour","location_type":"Force","location":{"latitude":"51.506673","street":{"id":956284,"name":"On or near Duchy Street"},"longitude":"-0.108877"},"context":"","outcome_status":null,"persistent_id":"","id":64318133,"location_subtype":"","month":"2018-04"},{"category":"anti-social-behaviour","location_type":"Force","location":{"latitude":"51.513992","street":{"id":956539,"name":"On or near Bateman Street"},"longitude":"-0.131821"},"context":"","outcome_status":null,"persistent_id":"","id":64319977,"location_subtype":"","month":"2018-04"},{"category":"anti-social-behaviour","location_type":"Force","location":{"latitude":"51.501937","street":{"id":953511,"name":"On or near Theatre/concert Hall"},"longitude":"-0.109059"},"context":"","outcome_status":null,"persistent_id":"","id":64318134,"location_subtype":"","month":"2018-04"},{"category":"anti-social-behaviour","location_type":"Force","location":{"latitude":"51.498436","street":{"id":953432,"name":"On or near Westminster Bridge Road"},"longitude":"-0.111105"},"context":"","outcome_status":null,"persistent_id":"","id":64318154,"location_subtype":"","month":"2018-04"},{"category":"anti-social-behaviour","location_type":"Force","location":{"latitude":"51.500969","street":{"id":953533,"name":"On or near Bridge Street"},"longitude":"-0.124933"},"context":"","outcome_status":null,"persistent_id":"","id":64318861,"location_subtype":"","month":"2018-04"},{"category":"anti-social-behaviour","location_type":"Force","location":{"latitude":"51.513683","street":{"id":956260,"name":"On or near Fleet Street"},"longitude":"-0.111974"},"context":"","outcome_status":null,"persistent_id":"","id":67751490,"location_subtype":"","month":"2018-04"},{"category":"anti-social-behaviour","location_type":"Force","location":{"latitude":"51.494202","street":{"id":953559,"name":"On or near Walcot Square"},"longitude":"-0.108961"},"context":"","outcome_status":null,"persistent_id":"","id":64318103,"location_subtype":"","month":"2018-04"},{"category":"anti-social-behaviour","location_type":"Force","location":{"latitude":"51.513992","street":{"id":956539,"name":"On or near Bateman Street"},"longitude":"-0.131821"},"context":"","outcome_status":null,"persistent_id":"","id":64319976,"location_subtype":"","month":"2018-04"},{"category":"anti-social-behaviour","location_type":"Force","location":{"latitude":"51.490842","street":{"id":949562,"name":"On or near Petrol Station"},"longitude":"-0.111448"},"context":"","outcome_status":null,"persistent_id":"","id":64318156,"location_subtype":"","month":"2018-04"},{"category":"anti-social-behaviour","location_type":"Force","location":{"latitude":"51.512590","street":{"id":956496,"name":"On or near Lexington Street"},"longitude":"-0.135856"},"context":"","outcome_status":null,"persistent_id":"","id":64320112,"location_subtype":"","month":"2018-04"},{"category":"anti-social-behaviour","location_type":"Force","location":{"latitude":"51.513664","street":{"id":956513,"name":"On or near Frith Street"},"longitude":"-0.131575"},"context":"","outcome_status":null,"persistent_id":"","id":64319975,"location_subtype":"","month":"2018-04"},{"category":"anti-social-behaviour","location_type":"Force","location":{"latitude":"51.513664","street":{"id":956513,"name":"On or near Frith Street"},"longitude":"-0.131575"},"context":"","outcome_status":null,"persistent_id":"","id":64319974,"location_subtype":"","month":"2018-04"},{"category":"anti-social-behaviour","location_type":"Force","location":{"latitude":"51.513101","street":{"id":956201,"name":"On or near Aldwych"},"longitude":"-0.117719"},"context":"","outcome_status":null,"persistent_id":"","id":64317884,"location_subtype":"","month":"2018-04"},{"category":"anti-social-behaviour","location_type":"Force","location":{"latitude":"51.513664","street":{"id":956513,"name":"On or near Frith Street"},"longitude":"-0.131575"},"context":"","outcome_status":null,"persistent_id":"","id":64319973,"location_subtype":"","month":"2018-04"},{"category":"anti-social-behaviour","location_type":"Force","location":{"latitude":"51.497534","street":{"id":953272,"name":"On or near Old Pye Street"},"longitude":"-0.132278"},"context":"","outcome_status":null,"persistent_id":"","id":64319972,"location_subtype":"","month":"2018-04"},{"category":"anti-social-behaviour","location_type":"Force","location":{"latitude":"51.492264","street":{"id":953408,"name":"On or near Regency Street"},"longitude":"-0.132277"},"context":"","outcome_status":null,"persistent_id":"","id":64319971,"location_subtype":"","month":"2018-04"},{"category":"anti-social-behaviour","location_type":"Force","location":{"latitude":"51.512953","street":{"id":956253,"name":"On or near Strand"},"longitude":"-0.114670"},"context":"","outcome_status":null,"persistent_id":"","id":64317883,"location_subtype":"","month":"2018-04"},{"category":"anti-social-behaviour","location_type":"Force","location":{"latitude":"51.512953","street":{"id":956253,"name":"On or near Strand"},"longitude":"-0.114670"},"context":"","outcome_status":null,"persistent_id":"","id":64317882,"location_subtype":"","month":"2018-04"},{"category":"anti-social-behaviour","location_type":"Force","location":{"latitude":"51.512953","street":{"id":956253,"name":"On or near Strand"},"longitude":"-0.114670"},"context":"","outcome_status":null,"persistent_id":"","id":64317881,"location_subtype":"","month":"2018-04"},{"category":"anti-social-behaviour","location_type":"Force","location":{"latitude":"51.492264","street":{"id":953408,"name":"On or near Regency Street"},"longitude":"-0.132277"},"context":"","outcome_status":null,"persistent_id":"","id":64319970,"location_subtype":"","month":"2018-04"},{"category":"anti-social-behaviour","location_type":"Force","location":{"latitude":"51.492264","street":{"id":953408,"name":"On or near Regency Street"},"longitude":"-0.132277"},"context":"","outcome_status":null,"persistent_id":"","id":64319969,"location_subtype":"","month":"2018-04"},{"category":"anti-social-behaviour","location_type":"Force","location":{"latitude":"51.514710","street":{"id":956262,"name":"On or near Carey Street"},"longitude":"-0.114900"},"context":"","outcome_status":null,"persistent_id":"","id":64317880,"location_subtype":"","month":"2018-04"},{"category":"anti-social-behaviour","location_type":"Force","location":{"latitude":"51.513683","street":{"id":956260,"name":"On or near Fleet Street"},"longitude":"-0.111974"},"context":"","outcome_status":null,"persistent_id":"","id":67751678,"location_subtype":"","month":"2018-04"},{"category":"anti-social-behaviour","location_type":"Force","location":{"latitude":"51.500969","street":{"id":953533,"name":"On or near Bridge Street"},"longitude":"-0.124933"},"context":"","outcome_status":null,"persistent_id":"","id":64318862,"location_subtype":"","month":"2018-04"},{"category":"anti-social-behaviour","location_type":"Force","location":{"latitude":"51.512532","street":{"id":956259,"name":"On or near Little Essex Street"},"longitude":"-0.113088"},"context":"","outcome_status":null,"persistent_id":"","id":64317879,"location_subtype":"","month":"2018-04"},{"category":"anti-social-behaviour","location_type":"Force","location":{"latitude":"51.492264","street":{"id":953408,"name":"On or near Regency Street"},"longitude":"-0.132277"},"context":"","outcome_status":null,"persistent_id":"","id":64319968,"location_subtype":"","month":"2018-04"},{"category":"anti-social-behaviour","location_type":"Force","location":{"latitude":"51.513100","street":{"id":956169,"name":"On or near Long Acre"},"longitude":"-0.124406"},"context":"","outcome_status":null,"persistent_id":"","id":64318852,"location_subtype":"","month":"2018-04"},{"category":"anti-social-behaviour","location_type":"Force","location":{"latitude":"51.510490","street":{"id":956198,"name":"On or near Bedford Street"},"longitude":"-0.124254"},"context":"","outcome_status":null,"persistent_id":"","id":64318853,"location_subtype":"","month":"2018-04"},{"category":"anti-social-behaviour","location_type":"Force","location":{"latitude":"51.492264","street":{"id":953408,"name":"On or near Regency Street"},"longitude":"-0.132277"},"context":"","outcome_status":null,"persistent_id":"","id":64319967,"location_subtype":"","month":"2018-04"},{"category":"anti-social-behaviour","location_type":"Force","location":{"latitude":"51.509902","street":{"id":956586,"name":"On or near Theatre/concert Hall"},"longitude":"-0.126310"},"context":"","outcome_status":null,"persistent_id":"","id":64318891,"location_subtype":"","month":"2018-04"},{"category":"anti-social-behaviour","location_type":"Force","location":{"latitude":"51.497104","street":{"id":953299,"name":"On or near Shopping Area"},"longitude":"-0.136358"},"context":"","outcome_status":null,"persistent_id":"","id":64320109,"location_subtype":"","month":"2018-04"},{"category":"anti-social-behaviour","location_type":"Force","location":{"latitude":"51.496199","street":{"id":953435,"name":"On or near Sidford Place"},"longitude":"-0.114598"},"context":"","outcome_status":null,"persistent_id":"","id":64319288,"location_subtype":"","month":"2018-04"},{"category":"anti-social-behaviour","location_type":"Force","location":{"latitude":"51.507386","street":{"id":956682,"name":"On or near Masons Yard"},"longitude":"-0.137682"},"context":"","outcome_status":null,"persistent_id":"","id":64321178,"location_subtype":"","month":"2018-04"},{"category":"anti-social-behaviour","location_type":"Force","location":{"latitude":"51.504735","street":{"id":953459,"name":"On or near Pedestrian Subway"},"longitude":"-0.114188"},"context":"","outcome_status":null,"persistent_id":"","id":64319296,"location_subtype":"","month":"2018-04"},{"category":"anti-social-behaviour","location_type":"Force","location":{"latitude":"51.503194","street":{"id":953465,"name":"On or near York Road"},"longitude":"-0.115635"},"context":"","outcome_status":null,"persistent_id":"","id":64319297,"location_subtype":"","month":"2018-04"},{"category":"anti-social-behaviour","location_type":"Force","location":{"latitude":"51.503194","street":{"id":953465,"name":"On or near York Road"},"longitude":"-0.115635"},"context":"","outcome_status":null,"persistent_id":"","id":64319298,"location_subtype":"","month":"2018-04"},{"category":"anti-social-behaviour","location_type":"Force","location":{"latitude":"51.503194","street":{"id":953465,"name":"On or near York Road"},"longitude":"-0.115635"},"context":"","outcome_status":null,"persistent_id":"","id":64319299,"location_subtype":"","month":"2018-04"},{"category":"anti-social-behaviour","location_type":"Force","location":{"latitude":"51.503194","street":{"id":953465,"name":"On or near York Road"},"longitude":"-0.115635"},"context":"","outcome_status":null,"persistent_id":"","id":64319300,"location_subtype":"","month":"2018-04"},{"category":"anti-social-behaviour","location_type":"Force","location":{"latitude":"51.503194","street":{"id":953465,"name":"On or near York Road"},"longitude":"-0.115635"},"context":"","outcome_status":null,"persistent_id":"","id":64319301,"location_subtype":"","month":"2018-04"},{"category":"anti-social-behaviour","location_type":"Force","location":{"latitude":"51.511555","street":{"id":956512,"name":"On or near Garrick Street"},"longitude":"-0.126199"},"context":"","outcome_status":null,"persistent_id":"","id":64318890,"location_subtype":"","month":"2018-04"},{"category":"anti-social-behaviour","location_type":"Force","location":{"latitude":"51.507473","street":{"id":956299,"name":"On or near Northumberland Street"},"longitude":"-0.125675"},"context":"","outcome_status":null,"persistent_id":"","id":64318889,"location_subtype":"","month":"2018-04"},{"category":"anti-social-behaviour","location_type":"Force","location":{"latitude":"51.500483","street":{"id":953469,"name":"On or near Westminster Bridge Road"},"longitude":"-0.115372"},"context":"","outcome_status":null,"persistent_id":"","id":64319302,"location_subtype":"","month":"2018-04"},{"category":"anti-social-behaviour","location_type":"Force","location":{"latitude":"51.499502","street":{"id":953349,"name":"On or near Buckingham Mews"},"longitude":"-0.141245"},"context":"","outcome_status":null,"persistent_id":"","id":64307599,"location_subtype":"","month":"2018-04"},{"category":"anti-social-behaviour","location_type":"Force","location":{"latitude":"51.513063","street":{"id":956439,"name":"On or near West Street"},"longitude":"-0.128256"},"context":"","outcome_status":null,"persistent_id":"","id":64307405,"location_subtype":"","month":"2018-04"},{"category":"anti-social-behaviour","location_type":"Force","location":{"latitude":"51.512191","street":{"id":956602,"name":"On or near Shopping Area"},"longitude":"-0.128839"},"context":"","outcome_status":null,"persistent_id":"","id":64307407,"location_subtype":"","month":"2018-04"},{"category":"anti-social-behaviour","location_type":"Force","location":{"latitude":"51.500483","street":{"id":953469,"name":"On or near Westminster Bridge Road"},"longitude":"-0.115372"},"context":"","outcome_status":null,"persistent_id":"","id":64319303,"location_subtype":"","month":"2018-04"},{"category":"anti-social-behaviour","location_type":"Force","location":{"latitude":"51.512591","street":{"id":956603,"name":"On or near Further/higher Educational Building"},"longitude":"-0.128578"},"context":"","outcome_status":null,"persistent_id":"","id":64307410,"location_subtype":"","month":"2018-04"},{"category":"anti-social-behaviour","location_type":"Force","location":{"latitude":"51.510827","street":{"id":956579,"name":"On or near Nightclub"},"longitude":"-0.130697"},"context":"","outcome_status":null,"persistent_id":"","id":64319012,"location_subtype":"","month":"2018-04"},{"category":"anti-social-behaviour","location_type":"Force","location":{"latitude":"51.510827","street":{"id":956579,"name":"On or near Nightclub"},"longitude":"-0.130697"},"context":"","outcome_status":null,"persistent_id":"","id":64319013,"location_subtype":"","month":"2018-04"},{"category":"anti-social-behaviour","location_type":"Force","location":{"latitude":"51.510827","street":{"id":956579,"name":"On or near Nightclub"},"longitude":"-0.130697"},"context":"","outcome_status":null,"persistent_id":"","id":64319014,"location_subtype":"","month":"2018-04"},{"category":"anti-social-behaviour","location_type":"Force","location":{"latitude":"51.507473","street":{"id":956299,"name":"On or near Northumberland Street"},"longitude":"-0.125675"},"context":"","outcome_status":null,"persistent_id":"","id":64318888,"location_subtype":"","month":"2018-04"},{"category":"anti-social-behaviour","location_type":"Force","location":{"latitude":"51.489256","street":{"id":949521,"name":"On or near Orsett Street"},"longitude":"-0.116267"},"context":"","outcome_status":null,"persistent_id":"","id":64319306,"location_subtype":"","month":"2018-04"},{"category":"anti-social-behaviour","location_type":"Force","location":{"latitude":"51.513701","street":{"id":956557,"name":"On or near Theatre/concert Hall"},"longitude":"-0.128273"},"context":"","outcome_status":null,"persistent_id":"","id":64307412,"location_subtype":"","month":"2018-04"},{"category":"anti-social-behaviour","location_type":"Force","location":{"latitude":"51.513701","street":{"id":956557,"name":"On or near Theatre/concert Hall"},"longitude":"-0.128273"},"context":"","outcome_status":null,"persistent_id":"","id":64307413,"location_subtype":"","month":"2018-04"},{"category":"anti-social-behaviour","location_type":"Force","location":{"latitude":"51.510827","street":{"id":956579,"name":"On or near Nightclub"},"longitude":"-0.130697"},"context":"","outcome_status":null,"persistent_id":"","id":64319015,"location_subtype":"","month":"2018-04"},{"category":"anti-social-behaviour","location_type":"Force","location":{"latitude":"51.510827","street":{"id":956579,"name":"On or near Nightclub"},"longitude":"-0.130697"},"context":"","outcome_status":null,"persistent_id":"","id":64319016,"location_subtype":"","month":"2018-04"},{"category":"anti-social-behaviour","location_type":"Force","location":{"latitude":"51.510827","street":{"id":956579,"name":"On or near Nightclub"},"longitude":"-0.130697"},"context":"","outcome_status":null,"persistent_id":"","id":64319017,"location_subtype":"","month":"2018-04"},{"category":"anti-social-behaviour","location_type":"Force","location":{"latitude":"51.513701","street":{"id":956557,"name":"On or near Theatre/concert Hall"},"longitude":"-0.128273"},"context":"","outcome_status":null,"persistent_id":"","id":64307414,"location_subtype":"","month":"2018-04"},{"category":"anti-social-behaviour","location_type":"Force","location":{"latitude":"51.510827","street":{"id":956579,"name":"On or near Nightclub"},"longitude":"-0.130697"},"context":"","outcome_status":null,"persistent_id":"","id":64319018,"location_subtype":"","month":"2018-04"},{"category":"anti-social-behaviour","location_type":"Force","location":{"latitude":"51.510827","street":{"id":956579,"name":"On or near Nightclub"},"longitude":"-0.130697"},"context":"","outcome_status":null,"persistent_id":"","id":64319019,"location_subtype":"","month":"2018-04"},{"category":"anti-social-behaviour","location_type":"Force","location":{"latitude":"51.510827","street":{"id":956579,"name":"On or near Nightclub"},"longitude":"-0.130697"},"context":"","outcome_status":null,"persistent_id":"","id":64319020,"location_subtype":"","month":"2018-04"},{"category":"anti-social-behaviour","location_type":"Force","location":{"latitude":"51.510362","street":{"id":956221,"name":"On or near Theatre/concert Hall"},"longitude":"-0.122415"},"context":"","outcome_status":null,"persistent_id":"","id":64318828,"location_subtype":"","month":"2018-04"},{"category":"anti-social-behaviour","location_type":"Force","location":{"latitude":"51.513701","street":{"id":956557,"name":"On or near Theatre/concert Hall"},"longitude":"-0.128273"},"context":"","outcome_status":null,"persistent_id":"","id":64307415,"location_subtype":"","month":"2018-04"},{"category":"anti-social-behaviour","location_type":"Force","location":{"latitude":"51.515089","street":{"id":956578,"name":"On or near Theatre/concert Hall"},"longitude":"-0.129542"},"context":"","outcome_status":null,"persistent_id":"","id":64307417,"location_subtype":"","month":"2018-04"},{"category":"anti-social-behaviour","location_type":"Force","location":{"latitude":"51.515089","street":{"id":956578,"name":"On or near Theatre/concert Hall"},"longitude":"-0.129542"},"context":"","outcome_status":null,"persistent_id":"","id":64307418,"location_subtype":"","month":"2018-04"},{"category":"anti-social-behaviour","location_type":"Force","location":{"latitude":"51.510362","street":{"id":956221,"name":"On or near Theatre/concert Hall"},"longitude":"-0.122415"},"context":"","outcome_status":null,"persistent_id":"","id":64318829,"location_subtype":"","month":"2018-04"},{"category":"anti-social-behaviour","location_type":"Force","location":{"latitude":"51.509428","street":{"id":956477,"name":"On or near Orange Street"},"longitude":"-0.130379"},"context":"","outcome_status":null,"persistent_id":"","id":64307436,"location_subtype":"","month":"2018-04"},{"category":"anti-social-behaviour","location_type":"Force","location":{"latitude":"51.500844","street":{"id":953528,"name":"On or near Westminster Bridge Road"},"longitude":"-0.122777"},"context":"","outcome_status":null,"persistent_id":"","id":64318830,"location_subtype":"","month":"2018-04"},{"category":"anti-social-behaviour","location_type":"Force","location":{"latitude":"51.508945","street":{"id":956162,"name":"On or near Robert Street"},"longitude":"-0.122660"},"context":"","outcome_status":null,"persistent_id":"","id":64318831,"location_subtype":"","month":"2018-04"},{"category":"anti-social-behaviour","location_type":"Force","location":{"latitude":"51.500439","street":{"id":953746,"name":"On or near Collinson Street"},"longitude":"-0.098747"},"context":"","outcome_status":null,"persistent_id":"","id":64315895,"location_subtype":"","month":"2018-04"},{"category":"anti-social-behaviour","location_type":"Force","location":{"latitude":"51.512532","street":{"id":956259,"name":"On or near Little Essex Street"},"longitude":"-0.113088"},"context":"","outcome_status":null,"persistent_id":"","id":64317878,"location_subtype":"","month":"2018-04"},{"category":"anti-social-behaviour","location_type":"Force","location":{"latitude":"51.511096","street":{"id":956151,"name":"On or near Southampton Street"},"longitude":"-0.122226"},"context":"","outcome_status":null,"persistent_id":"","id":64318832,"location_subtype":"","month":"2018-04"},{"category":"anti-social-behaviour","location_type":"Force","location":{"latitude":"51.511457","street":{"id":956191,"name":"On or near Covent Garden"},"longitude":"-0.122889"},"context":"","outcome_status":null,"persistent_id":"","id":64318833,"location_subtype":"","month":"2018-04"},{"category":"anti-social-behaviour","location_type":"Force","location":{"latitude":"51.507078","street":{"id":956300,"name":"On or near Embankment Place"},"longitude":"-0.122925"},"context":"","outcome_status":null,"persistent_id":"","id":64318834,"location_subtype":"","month":"2018-04"},{"category":"anti-social-behaviour","location_type":"Force","location":{"latitude":"51.500439","street":{"id":953746,"name":"On or near Collinson Street"},"longitude":"-0.098747"},"context":"","outcome_status":null,"persistent_id":"","id":64316911,"location_subtype":"","month":"2018-04"},{"category":"anti-social-behaviour","location_type":"Force","location":{"latitude":"51.505103","street":{"id":956129,"name":"On or near Lavington Street"},"longitude":"-0.099677"},"context":"","outcome_status":null,"persistent_id":"","id":64316799,"location_subtype":"","month":"2018-04"},{"category":"anti-social-behaviour","location_type":"Force","location":{"latitude":"51.507078","street":{"id":956300,"name":"On or near Embankment Place"},"longitude":"-0.122925"},"context":"","outcome_status":null,"persistent_id":"","id":64318835,"location_subtype":"","month":"2018-04"},{"category":"anti-social-behaviour","location_type":"Force","location":{"latitude":"51.513206","street":{"id":956207,"name":"On or near Theatre/concert Hall"},"longitude":"-0.122601"},"context":"","outcome_status":null,"persistent_id":"","id":64318836,"location_subtype":"","month":"2018-04"},{"category":"anti-social-behaviour","location_type":"Force","location":{"latitude":"51.513206","street":{"id":956207,"name":"On or near Theatre/concert Hall"},"longitude":"-0.122601"},"context":"","outcome_status":null,"persistent_id":"","id":64318837,"location_subtype":"","month":"2018-04"},{"category":"anti-social-behaviour","location_type":"Force","location":{"latitude":"51.489256","street":{"id":949521,"name":"On or near Orsett Street"},"longitude":"-0.116267"},"context":"","outcome_status":null,"persistent_id":"","id":64319305,"location_subtype":"","month":"2018-04"},{"category":"anti-social-behaviour","location_type":"Force","location":{"latitude":"51.501490","street":{"id":953532,"name":"On or near Canon Row"},"longitude":"-0.125503"},"context":"","outcome_status":null,"persistent_id":"","id":64318876,"location_subtype":"","month":"2018-04"},{"category":"anti-social-behaviour","location_type":"Force","location":{"latitude":"51.495928","street":{"id":953689,"name":"On or near Pedestrian Subway"},"longitude":"-0.100073"},"context":"","outcome_status":null,"persistent_id":"","id":64316802,"location_subtype":"","month":"2018-04"},{"category":"anti-social-behaviour","location_type":"Force","location":{"latitude":"51.495928","street":{"id":953689,"name":"On or near Pedestrian Subway"},"longitude":"-0.100073"},"context":"","outcome_status":null,"persistent_id":"","id":64316803,"location_subtype":"","month":"2018-04"},{"category":"anti-social-behaviour","location_type":"Force","location":{"latitude":"51.501490","street":{"id":953532,"name":"On or near Canon Row"},"longitude":"-0.125503"},"context":"","outcome_status":null,"persistent_id":"","id":64318877,"location_subtype":"","month":"2018-04"},{"category":"anti-social-behaviour","location_type":"Force","location":{"latitude":"51.503196","street":{"id":953311,"name":"On or near Downing Street"},"longitude":"-0.127032"},"context":"","outcome_status":null,"persistent_id":"","id":64318878,"location_subtype":"","month":"2018-04"},{"category":"anti-social-behaviour","location_type":"Force","location":{"latitude":"51.503196","street":{"id":953311,"name":"On or near Downing Street"},"longitude":"-0.127032"},"context":"","outcome_status":null,"persistent_id":"","id":64318880,"location_subtype":"","month":"2018-04"},{"category":"anti-social-behaviour","location_type":"Force","location":{"latitude":"51.506712","street":{"id":956659,"name":"On or near Craig's Court"},"longitude":"-0.126974"},"context":"","outcome_status":null,"persistent_id":"","id":64318921,"location_subtype":"","month":"2018-04"},{"category":"anti-social-behaviour","location_type":"Force","location":{"latitude":"51.512280","street":{"id":956445,"name":"On or near Upper St Martin's Lane"},"longitude":"-0.127121"},"context":"","outcome_status":null,"persistent_id":"","id":64318922,"location_subtype":"","month":"2018-04"},{"category":"anti-social-behaviour","location_type":"Force","location":{"latitude":"51.511581","street":{"id":956526,"name":"On or near Cranbourn Street"},"longitude":"-0.127798"},"context":"","outcome_status":null,"persistent_id":"","id":64318923,"location_subtype":"","month":"2018-04"},{"category":"anti-social-behaviour","location_type":"Force","location":{"latitude":"51.505162","street":{"id":956128,"name":"On or near Nicholson Street"},"longitude":"-0.103839"},"context":"","outcome_status":null,"persistent_id":"","id":64316834,"location_subtype":"","month":"2018-04"},{"category":"anti-social-behaviour","location_type":"Force","location":{"latitude":"51.502173","street":{"id":953506,"name":"On or near Boundary Row"},"longitude":"-0.105331"},"context":"","outcome_status":null,"persistent_id":"","id":64316835,"location_subtype":"","month":"2018-04"},{"category":"anti-social-behaviour","location_type":"Force","location":{"latitude":"51.508592","street":{"id":956519,"name":"On or near Duncannon Street"},"longitude":"-0.126479"},"context":"","outcome_status":null,"persistent_id":"","id":64318924,"location_subtype":"","month":"2018-04"},{"category":"anti-social-behaviour","location_type":"Force","location":{"latitude":"51.502173","street":{"id":953506,"name":"On or near Boundary Row"},"longitude":"-0.105331"},"context":"","outcome_status":null,"persistent_id":"","id":64316836,"location_subtype":"","month":"2018-04"},{"category":"anti-social-behaviour","location_type":"Force","location":{"latitude":"51.508592","street":{"id":956519,"name":"On or near Duncannon Street"},"longitude":"-0.126479"},"context":"","outcome_status":null,"persistent_id":"","id":64318925,"location_subtype":"","month":"2018-04"},{"category":"anti-social-behaviour","location_type":"Force","location":{"latitude":"51.508592","street":{"id":956519,"name":"On or near Duncannon Street"},"longitude":"-0.126479"},"context":"","outcome_status":null,"persistent_id":"","id":64318926,"location_subtype":"","month":"2018-04"},{"category":"anti-social-behaviour","location_type":"Force","location":{"latitude":"51.503637","street":{"id":953483,"name":"On or near Sandell Street"},"longitude":"-0.110804"},"context":"","outcome_status":null,"persistent_id":"","id":64319174,"location_subtype":"","month":"2018-04"},{"category":"anti-social-behaviour","location_type":"Force","location":{"latitude":"51.500039","street":{"id":953471,"name":"On or near Webber Row"},"longitude":"-0.107365"},"context":"","outcome_status":null,"persistent_id":"","id":64316853,"location_subtype":"","month":"2018-04"},{"category":"anti-social-behaviour","location_type":"Force","location":{"latitude":"51.503637","street":{"id":953483,"name":"On or near Sandell Street"},"longitude":"-0.110804"},"context":"","outcome_status":null,"persistent_id":"","id":64319175,"location_subtype":"","month":"2018-04"},{"category":"anti-social-behaviour","location_type":"Force","location":{"latitude":"51.503637","street":{"id":953483,"name":"On or near Sandell Street"},"longitude":"-0.110804"},"context":"","outcome_status":null,"persistent_id":"","id":64319176,"location_subtype":"","month":"2018-04"},{"category":"anti-social-behaviour","location_type":"Force","location":{"latitude":"51.507657","street":{"id":956660,"name":"On or near Cockspur Street"},"longitude":"-0.129890"},"context":"","outcome_status":null,"persistent_id":"","id":64318978,"location_subtype":"","month":"2018-04"},{"category":"anti-social-behaviour","location_type":"Force","location":{"latitude":"51.498436","street":{"id":953432,"name":"On or near Westminster Bridge Road"},"longitude":"-0.111105"},"context":"","outcome_status":null,"persistent_id":"","id":64319177,"location_subtype":"","month":"2018-04"},{"category":"anti-social-behaviour","location_type":"Force","location":{"latitude":"51.492249","street":{"id":953416,"name":"On or near Hide Place"},"longitude":"-0.133574"},"context":"","outcome_status":null,"persistent_id":"","id":64320003,"location_subtype":"","month":"2018-04"},{"category":"anti-social-behaviour","location_type":"Force","location":{"latitude":"51.511790","street":{"id":956461,"name":"On or near Shaftesbury Avenue"},"longitude":"-0.132473"},"context":"","outcome_status":null,"persistent_id":"","id":64320007,"location_subtype":"","month":"2018-04"},{"category":"anti-social-behaviour","location_type":"Force","location":{"latitude":"51.511790","street":{"id":956461,"name":"On or near Shaftesbury Avenue"},"longitude":"-0.132473"},"context":"","outcome_status":null,"persistent_id":"","id":64320008,"location_subtype":"","month":"2018-04"},{"category":"anti-social-behaviour","location_type":"Force","location":{"latitude":"51.511790","street":{"id":956461,"name":"On or near Shaftesbury Avenue"},"longitude":"-0.132473"},"context":"","outcome_status":null,"persistent_id":"","id":64320009,"location_subtype":"","month":"2018-04"},{"category":"anti-social-behaviour","location_type":"Force","location":{"latitude":"51.498734","street":{"id":953301,"name":"On or near Police Station"},"longitude":"-0.133122"},"context":"","outcome_status":null,"persistent_id":"","id":64320039,"location_subtype":"","month":"2018-04"},{"category":"anti-social-behaviour","location_type":"Force","location":{"latitude":"51.498734","street":{"id":953301,"name":"On or near Police Station"},"longitude":"-0.133122"},"context":"","outcome_status":null,"persistent_id":"","id":64320040,"location_subtype":"","month":"2018-04"},{"category":"anti-social-behaviour","location_type":"Force","location":{"latitude":"51.507657","street":{"id":956660,"name":"On or near Cockspur Street"},"longitude":"-0.129890"},"context":"","outcome_status":null,"persistent_id":"","id":64318975,"location_subtype":"","month":"2018-04"},{"category":"anti-social-behaviour","location_type":"Force","location":{"latitude":"51.495756","street":{"id":953445,"name":"On or near Kennington Road"},"longitude":"-0.111115"},"context":"","outcome_status":null,"persistent_id":"","id":64316857,"location_subtype":"","month":"2018-04"},{"category":"anti-social-behaviour","location_type":"Force","location":{"latitude":"51.498734","street":{"id":953301,"name":"On or near Police Station"},"longitude":"-0.133122"},"context":"","outcome_status":null,"persistent_id":"","id":64320041,"location_subtype":"","month":"2018-04"},{"category":"anti-social-behaviour","location_type":"Force","location":{"latitude":"51.509929","street":{"id":956469,"name":"On or near Regent Street"},"longitude":"-0.136440"},"context":"","outcome_status":null,"persistent_id":"","id":64320118,"location_subtype":"","month":"2018-04"},{"category":"anti-social-behaviour","location_type":"Force","location":{"latitude":"51.511394","street":{"id":956491,"name":"On or near Lower James Street"},"longitude":"-0.136424"},"context":"","outcome_status":null,"persistent_id":"","id":64320119,"location_subtype":"","month":"2018-04"},{"category":"anti-social-behaviour","location_type":"Force","location":{"latitude":"51.505931","street":{"id":956279,"name":"On or near Stamford Street"},"longitude":"-0.110839"},"context":"","outcome_status":null,"persistent_id":"","id":64316858,"location_subtype":"","month":"2018-04"},{"category":"anti-social-behaviour","location_type":"Force","location":{"latitude":"51.510441","street":{"id":956510,"name":"On or near Glasshouse Street"},"longitude":"-0.136405"},"context":"","outcome_status":null,"persistent_id":"","id":64320120,"location_subtype":"","month":"2018-04"},{"category":"anti-social-behaviour","location_type":"Force","location":{"latitude":"51.510441","street":{"id":956510,"name":"On or near Glasshouse Street"},"longitude":"-0.136405"},"context":"","outcome_status":null,"persistent_id":"","id":64320121,"location_subtype":"","month":"2018-04"},{"category":"anti-social-behaviour","location_type":"Force","location":{"latitude":"51.513101","street":{"id":956201,"name":"On or near Aldwych"},"longitude":"-0.117719"},"context":"","outcome_status":null,"persistent_id":"","id":64317885,"location_subtype":"","month":"2018-04"},{"category":"anti-social-behaviour","location_type":"Force","location":{"latitude":"51.508499","street":{"id":956497,"name":"On or near Jermyn Street"},"longitude":"-0.136455"},"context":"","outcome_status":null,"persistent_id":"","id":64320122,"location_subtype":"","month":"2018-04"},{"category":"anti-social-behaviour","location_type":"Force","location":{"latitude":"51.508499","street":{"id":956497,"name":"On or near Jermyn Street"},"longitude":"-0.136455"},"context":"","outcome_status":null,"persistent_id":"","id":64320123,"location_subtype":"","month":"2018-04"},{"category":"anti-social-behaviour","location_type":"Force","location":{"latitude":"51.508499","street":{"id":956497,"name":"On or near Jermyn Street"},"longitude":"-0.136455"},"context":"","outcome_status":null,"persistent_id":"","id":64320124,"location_subtype":"","month":"2018-04"},{"category":"anti-social-behaviour","location_type":"Force","location":{"latitude":"51.508499","street":{"id":956497,"name":"On or near Jermyn Street"},"longitude":"-0.136455"},"context":"","outcome_status":null,"persistent_id":"","id":64320125,"location_subtype":"","month":"2018-04"},{"category":"anti-social-behaviour","location_type":"Force","location":{"latitude":"51.508499","street":{"id":956497,"name":"On or near Jermyn Street"},"longitude":"-0.136455"},"context":"","outcome_status":null,"persistent_id":"","id":64320127,"location_subtype":"","month":"2018-04"},{"category":"anti-social-behaviour","location_type":"Force","location":{"latitude":"51.509929","street":{"id":956469,"name":"On or near Regent Street"},"longitude":"-0.136440"},"context":"","outcome_status":null,"persistent_id":"","id":64320129,"location_subtype":"","month":"2018-04"},{"category":"anti-social-behaviour","location_type":"Force","location":{"latitude":"51.511715","street":{"id":956493,"name":"On or near Little Newport Street"},"longitude":"-0.128902"},"context":"","outcome_status":null,"persistent_id":"","id":64318973,"location_subtype":"","month":"2018-04"},{"category":"anti-social-behaviour","location_type":"Force","location":{"latitude":"51.510441","street":{"id":956510,"name":"On or near Glasshouse Street"},"longitude":"-0.136405"},"context":"","outcome_status":null,"persistent_id":"","id":64320131,"location_subtype":"","month":"2018-04"},{"category":"anti-social-behaviour","location_type":"Force","location":{"latitude":"51.510441","street":{"id":956510,"name":"On or near Glasshouse Street"},"longitude":"-0.136405"},"context":"","outcome_status":null,"persistent_id":"","id":64320132,"location_subtype":"","month":"2018-04"},{"category":"anti-social-behaviour","location_type":"Force","location":{"latitude":"51.512191","street":{"id":956602,"name":"On or near Shopping Area"},"longitude":"-0.128839"},"context":"","outcome_status":null,"persistent_id":"","id":64318972,"location_subtype":"","month":"2018-04"},{"category":"anti-social-behaviour","location_type":"Force","location":{"latitude":"51.512191","street":{"id":956602,"name":"On or near Shopping Area"},"longitude":"-0.128839"},"context":"","outcome_status":null,"persistent_id":"","id":64318971,"location_subtype":"","month":"2018-04"},{"category":"anti-social-behaviour","location_type":"Force","location":{"latitude":"51.512191","street":{"id":956602,"name":"On or near Shopping Area"},"longitude":"-0.128839"},"context":"","outcome_status":null,"persistent_id":"","id":64318970,"location_subtype":"","month":"2018-04"},{"category":"anti-social-behaviour","location_type":"Force","location":{"latitude":"51.490800","street":{"id":949559,"name":"On or near Black Prince Road"},"longitude":"-0.116664"},"context":"","outcome_status":null,"persistent_id":"","id":64320440,"location_subtype":"","month":"2018-04"},{"category":"anti-social-behaviour","location_type":"Force","location":{"latitude":"51.502791","street":{"id":953521,"name":"On or near Chicheley Street"},"longitude":"-0.116905"},"context":"","outcome_status":null,"persistent_id":"","id":64320443,"location_subtype":"","month":"2018-04"},{"category":"anti-social-behaviour","location_type":"Force","location":{"latitude":"51.505458","street":{"id":956276,"name":"On or near Waterloo Road"},"longitude":"-0.114389"},"context":"","outcome_status":null,"persistent_id":"","id":64320445,"location_subtype":"","month":"2018-04"},{"category":"anti-social-behaviour","location_type":"Force","location":{"latitude":"51.511315","street":{"id":956213,"name":"On or near Conference/exhibition Centre"},"longitude":"-0.118528"},"context":"","outcome_status":null,"persistent_id":"","id":64317886,"location_subtype":"","month":"2018-04"},{"category":"anti-social-behaviour","location_type":"Force","location":{"latitude":"51.511315","street":{"id":956213,"name":"On or near Conference/exhibition Centre"},"longitude":"-0.118528"},"context":"","outcome_status":null,"persistent_id":"","id":64317887,"location_subtype":"","month":"2018-04"},{"category":"anti-social-behaviour","location_type":"Force","location":{"latitude":"51.507192","street":{"id":956668,"name":"On or near Conference/exhibition Centre"},"longitude":"-0.137402"},"context":"","outcome_status":null,"persistent_id":"","id":64321190,"location_subtype":"","month":"2018-04"},{"category":"anti-social-behaviour","location_type":"Force","location":{"latitude":"51.495085","street":{"id":953392,"name":"On or near Francis Street"},"longitude":"-0.138313"},"context":"","outcome_status":null,"persistent_id":"","id":64321191,"location_subtype":"","month":"2018-04"},{"category":"anti-social-behaviour","location_type":"Force","location":{"latitude":"51.499572","street":{"id":953472,"name":"On or near Waterloo Road"},"longitude":"-0.106823"},"context":"","outcome_status":null,"persistent_id":"","id":64316852,"location_subtype":"","month":"2018-04"},{"category":"anti-social-behaviour","location_type":"Force","location":{"latitude":"51.512591","street":{"id":956603,"name":"On or near Further/higher Educational Building"},"longitude":"-0.128578"},"context":"","outcome_status":null,"persistent_id":"","id":64318969,"location_subtype":"","month":"2018-04"},{"category":"anti-social-behaviour","location_type":"Force","location":{"latitude":"51.496247","street":{"id":953341,"name":"On or near Thirleby Road"},"longitude":"-0.138439"},"context":"","outcome_status":null,"persistent_id":"","id":64321196,"location_subtype":"","month":"2018-04"},{"category":"anti-social-behaviour","location_type":"Force","location":{"latitude":"51.499056","street":{"id":953350,"name":"On or near Buckingham Gate"},"longitude":"-0.138094"},"context":"","outcome_status":null,"persistent_id":"","id":64321198,"location_subtype":"","month":"2018-04"},{"category":"anti-social-behaviour","location_type":"Force","location":{"latitude":"51.506932","street":{"id":956687,"name":"On or near Bury Street"},"longitude":"-0.138594"},"context":"","outcome_status":null,"persistent_id":"","id":64321201,"location_subtype":"","month":"2018-04"},{"category":"anti-social-behaviour","location_type":"Force","location":{"latitude":"51.511170","street":{"id":956310,"name":"On or near Warwick Street"},"longitude":"-0.138148"},"context":"","outcome_status":null,"persistent_id":"","id":64321204,"location_subtype":"","month":"2018-04"},{"category":"anti-social-behaviour","location_type":"Force","location":{"latitude":"51.510586","street":{"id":956372,"name":"On or near Shopping Area"},"longitude":"-0.138748"},"context":"","outcome_status":null,"persistent_id":"","id":64321205,"location_subtype":"","month":"2018-04"},{"category":"anti-social-behaviour","location_type":"Force","location":{"latitude":"51.496806","street":{"id":953340,"name":"On or near Victoria Street"},"longitude":"-0.140231"},"context":"","outcome_status":null,"persistent_id":"","id":64321207,"location_subtype":"","month":"2018-04"},{"category":"anti-social-behaviour","location_type":"Force","location":{"latitude":"51.498266","street":{"id":953524,"name":"On or near Abingdon Street"},"longitude":"-0.125750"},"context":"","outcome_status":null,"persistent_id":"","id":64321353,"location_subtype":"","month":"2018-04"},{"category":"anti-social-behaviour","location_type":"Force","location":{"latitude":"51.500969","street":{"id":953533,"name":"On or near Bridge Street"},"longitude":"-0.124933"},"context":"","outcome_status":null,"persistent_id":"","id":64321354,"location_subtype":"","month":"2018-04"},{"category":"anti-social-behaviour","location_type":"Force","location":{"latitude":"51.500039","street":{"id":953471,"name":"On or near Webber Row"},"longitude":"-0.107365"},"context":"","outcome_status":null,"persistent_id":"","id":64316851,"location_subtype":"","month":"2018-04"},{"category":"anti-social-behaviour","location_type":"Force","location":{"latitude":"51.512591","street":{"id":956603,"name":"On or near Further/higher Educational Building"},"longitude":"-0.128578"},"context":"","outcome_status":null,"persistent_id":"","id":64318968,"location_subtype":"","month":"2018-04"},{"category":"anti-social-behaviour","location_type":"Force","location":{"latitude":"51.512591","street":{"id":956603,"name":"On or near Further/higher Educational Building"},"longitude":"-0.128578"},"context":"","outcome_status":null,"persistent_id":"","id":64318967,"location_subtype":"","month":"2018-04"},{"category":"anti-social-behaviour","location_type":"Force","location":{"latitude":"51.506340","street":{"id":956280,"name":"On or near Paris Garden"},"longitude":"-0.106110"},"context":"","outcome_status":null,"persistent_id":"","id":64316850,"location_subtype":"","month":"2018-04"},{"category":"anti-social-behaviour","location_type":"Force","location":{"latitude":"51.512591","street":{"id":956603,"name":"On or near Further/higher Educational Building"},"longitude":"-0.128578"},"context":"","outcome_status":null,"persistent_id":"","id":64318966,"location_subtype":"","month":"2018-04"},{"category":"anti-social-behaviour","location_type":"Force","location":{"latitude":"51.512591","street":{"id":956603,"name":"On or near Further/higher Educational Building"},"longitude":"-0.128578"},"context":"","outcome_status":null,"persistent_id":"","id":64318965,"location_subtype":"","month":"2018-04"},{"category":"anti-social-behaviour","location_type":"Force","location":{"latitude":"51.512591","street":{"id":956603,"name":"On or near Further/higher Educational Building"},"longitude":"-0.128578"},"context":"","outcome_status":null,"persistent_id":"","id":64318964,"location_subtype":"","month":"2018-04"},{"category":"anti-social-behaviour","location_type":"Force","location":{"latitude":"51.498524","street":{"id":953431,"name":"On or near Westminster Bridge Road"},"longitude":"-0.107125"},"context":"","outcome_status":null,"persistent_id":"","id":64316849,"location_subtype":"","month":"2018-04"},{"category":"anti-social-behaviour","location_type":"Force","location":{"latitude":"51.498524","street":{"id":953431,"name":"On or near Westminster Bridge Road"},"longitude":"-0.107125"},"context":"","outcome_status":null,"persistent_id":"","id":64316848,"location_subtype":"","month":"2018-04"},{"category":"anti-social-behaviour","location_type":"Force","location":{"latitude":"51.512591","street":{"id":956603,"name":"On or near Further/higher Educational Building"},"longitude":"-0.128578"},"context":"","outcome_status":null,"persistent_id":"","id":64318963,"location_subtype":"","month":"2018-04"},{"category":"anti-social-behaviour","location_type":"Force","location":{"latitude":"51.511715","street":{"id":956493,"name":"On or near Little Newport Street"},"longitude":"-0.128902"},"context":"","outcome_status":null,"persistent_id":"","id":64318962,"location_subtype":"","month":"2018-04"},{"category":"anti-social-behaviour","location_type":"Force","location":{"latitude":"51.511715","street":{"id":956493,"name":"On or near Little Newport Street"},"longitude":"-0.128902"},"context":"","outcome_status":null,"persistent_id":"","id":64318961,"location_subtype":"","month":"2018-04"},{"category":"anti-social-behaviour","location_type":"Force","location":{"latitude":"51.511715","street":{"id":956493,"name":"On or near Little Newport Street"},"longitude":"-0.128902"},"context":"","outcome_status":null,"persistent_id":"","id":64318960,"location_subtype":"","month":"2018-04"},{"category":"anti-social-behaviour","location_type":"Force","location":{"latitude":"51.511715","street":{"id":956493,"name":"On or near Little Newport Street"},"longitude":"-0.128902"},"context":"","outcome_status":null,"persistent_id":"","id":64318959,"location_subtype":"","month":"2018-04"},{"category":"anti-social-behaviour","location_type":"Force","location":{"latitude":"51.499219","street":{"id":953755,"name":"On or near Further/higher Educational Building"},"longitude":"-0.104474"},"context":"","outcome_status":null,"persistent_id":"","id":64316847,"location_subtype":"","month":"2018-04"},{"category":"anti-social-behaviour","location_type":"Force","location":{"latitude":"51.493930","street":{"id":953410,"name":"On or near Page Street"},"longitude":"-0.129573"},"context":"","outcome_status":null,"persistent_id":"","id":64318979,"location_subtype":"","month":"2018-04"},{"category":"anti-social-behaviour","location_type":"Force","location":{"latitude":"51.499219","street":{"id":953755,"name":"On or near Further/higher Educational Building"},"longitude":"-0.104474"},"context":"","outcome_status":null,"persistent_id":"","id":64316845,"location_subtype":"","month":"2018-04"},{"category":"anti-social-behaviour","location_type":"Force","location":{"latitude":"51.504484","street":{"id":953310,"name":"On or near Marlborough Road"},"longitude":"-0.136763"},"context":"","outcome_status":null,"persistent_id":"","id":64323701,"location_subtype":"","month":"2018-04"},{"category":"anti-social-behaviour","location_type":"Force","location":{"latitude":"51.499219","street":{"id":953755,"name":"On or near Further/higher Educational Building"},"longitude":"-0.104474"},"context":"","outcome_status":null,"persistent_id":"","id":64316844,"location_subtype":"","month":"2018-04"},{"category":"anti-social-behaviour","location_type":"Force","location":{"latitude":"51.511715","street":{"id":956493,"name":"On or near Little Newport Street"},"longitude":"-0.128902"},"context":"","outcome_status":null,"persistent_id":"","id":64318958,"location_subtype":"","month":"2018-04"},{"category":"anti-social-behaviour","location_type":"Force","location":{"latitude":"51.511715","street":{"id":956493,"name":"On or near Little Newport Street"},"longitude":"-0.128902"},"context":"","outcome_status":null,"persistent_id":"","id":64318957,"location_subtype":"","month":"2018-04"},{"category":"anti-social-behaviour","location_type":"Force","location":{"latitude":"51.511914","street":{"id":956211,"name":"On or near Theatre/concert Hall"},"longitude":"-0.119425"},"context":"","outcome_status":null,"persistent_id":"","id":64317888,"location_subtype":"","month":"2018-04"},{"category":"anti-social-behaviour","location_type":"Force","location":{"latitude":"51.511715","street":{"id":956493,"name":"On or near Little Newport Street"},"longitude":"-0.128902"},"context":"","outcome_status":null,"persistent_id":"","id":64318956,"location_subtype":"","month":"2018-04"},{"category":"anti-social-behaviour","location_type":"Force","location":{"latitude":"51.500076","street":{"id":953512,"name":"On or near Sports/recreation Area"},"longitude":"-0.111902"},"context":"","outcome_status":null,"persistent_id":"","id":64319162,"location_subtype":"","month":"2018-04"},{"category":"anti-social-behaviour","location_type":"Force","location":{"latitude":"51.511914","street":{"id":956211,"name":"On or near Theatre/concert Hall"},"longitude":"-0.119425"},"context":"","outcome_status":null,"persistent_id":"","id":64317889,"location_subtype":"","month":"2018-04"},{"category":"anti-social-behaviour","location_type":"Force","location":{"latitude":"51.511914","street":{"id":956211,"name":"On or near Theatre/concert Hall"},"longitude":"-0.119425"},"context":"","outcome_status":null,"persistent_id":"","id":64317890,"location_subtype":"","month":"2018-04"},{"category":"anti-social-behaviour","location_type":"Force","location":{"latitude":"51.499219","street":{"id":953755,"name":"On or near Further/higher Educational Building"},"longitude":"-0.104474"},"context":"","outcome_status":null,"persistent_id":"","id":64316843,"location_subtype":"","month":"2018-04"},{"category":"anti-social-behaviour","location_type":"Force","location":{"latitude":"51.511315","street":{"id":956213,"name":"On or near Conference/exhibition Centre"},"longitude":"-0.118528"},"context":"","outcome_status":null,"persistent_id":"","id":64317891,"location_subtype":"","month":"2018-04"},{"category":"anti-social-behaviour","location_type":"Force","location":{"latitude":"51.500039","street":{"id":953471,"name":"On or near Webber Row"},"longitude":"-0.107365"},"context":"","outcome_status":null,"persistent_id":"","id":64316854,"location_subtype":"","month":"2018-04"},{"category":"anti-social-behaviour","location_type":"Force","location":{"latitude":"51.499219","street":{"id":953755,"name":"On or near Further/higher Educational Building"},"longitude":"-0.104474"},"context":"","outcome_status":null,"persistent_id":"","id":64316842,"location_subtype":"","month":"2018-04"},{"category":"anti-social-behaviour","location_type":"Force","location":{"latitude":"51.500076","street":{"id":953512,"name":"On or near Sports/recreation Area"},"longitude":"-0.111902"},"context":"","outcome_status":null,"persistent_id":"","id":64319163,"location_subtype":"","month":"2018-04"},{"category":"anti-social-behaviour","location_type":"Force","location":{"latitude":"51.507657","street":{"id":956660,"name":"On or near Cockspur Street"},"longitude":"-0.129890"},"context":"","outcome_status":null,"persistent_id":"","id":64318977,"location_subtype":"","month":"2018-04"},{"category":"anti-social-behaviour","location_type":"Force","location":{"latitude":"51.512191","street":{"id":956602,"name":"On or near Shopping Area"},"longitude":"-0.128839"},"context":"","outcome_status":null,"persistent_id":"","id":64318955,"location_subtype":"","month":"2018-04"},{"category":"anti-social-behaviour","location_type":"Force","location":{"latitude":"51.509848","street":{"id":587368,"name":"On or near A201"},"longitude":"-0.104494"},"context":"","outcome_status":null,"persistent_id":"","id":64316841,"location_subtype":"","month":"2018-04"},{"category":"anti-social-behaviour","location_type":"Force","location":{"latitude":"51.511315","street":{"id":956213,"name":"On or near Conference/exhibition Centre"},"longitude":"-0.118528"},"context":"","outcome_status":null,"persistent_id":"","id":64317892,"location_subtype":"","month":"2018-04"},{"category":"anti-social-behaviour","location_type":"Force","location":{"latitude":"51.512191","street":{"id":956602,"name":"On or near Shopping Area"},"longitude":"-0.128839"},"context":"","outcome_status":null,"persistent_id":"","id":64318954,"location_subtype":"","month":"2018-04"},{"category":"anti-social-behaviour","location_type":"Force","location":{"latitude":"51.493239","street":{"id":953414,"name":"On or near John Islip Street"},"longitude":"-0.127411"},"context":"","outcome_status":null,"persistent_id":"","id":64307598,"location_subtype":"","month":"2018-04"},{"category":"anti-social-behaviour","location_type":"Force","location":{"latitude":"51.514639","street":{"id":956146,"name":"On or near Wild Street"},"longitude":"-0.120567"},"context":"","outcome_status":null,"persistent_id":"","id":64317903,"location_subtype":"","month":"2018-04"},{"category":"anti-social-behaviour","location_type":"Force","location":{"latitude":"51.512191","street":{"id":956602,"name":"On or near Shopping Area"},"longitude":"-0.128839"},"context":"","outcome_status":null,"persistent_id":"","id":64318953,"location_subtype":"","month":"2018-04"},{"category":"anti-social-behaviour","location_type":"Force","location":{"latitude":"51.512191","street":{"id":956602,"name":"On or near Shopping Area"},"longitude":"-0.128839"},"context":"","outcome_status":null,"persistent_id":"","id":64318952,"location_subtype":"","month":"2018-04"},{"category":"anti-social-behaviour","location_type":"Force","location":{"latitude":"51.508055","street":{"id":956265,"name":"On or near Barge House Street"},"longitude":"-0.108143"},"context":"","outcome_status":null,"persistent_id":"","id":64318111,"location_subtype":"","month":"2018-04"},{"category":"anti-social-behaviour","location_type":"Force","location":{"latitude":"51.512191","street":{"id":956602,"name":"On or near Shopping Area"},"longitude":"-0.128839"},"context":"","outcome_status":null,"persistent_id":"","id":64318951,"location_subtype":"","month":"2018-04"},{"category":"anti-social-behaviour","location_type":"Force","location":{"latitude":"51.509428","street":{"id":956477,"name":"On or near Orange Street"},"longitude":"-0.130379"},"context":"","outcome_status":null,"persistent_id":"","id":64319006,"location_subtype":"","month":"2018-04"},{"category":"anti-social-behaviour","location_type":"Force","location":{"latitude":"51.512191","street":{"id":956602,"name":"On or near Shopping Area"},"longitude":"-0.128839"},"context":"","outcome_status":null,"persistent_id":"","id":64318950,"location_subtype":"","month":"2018-04"},{"category":"anti-social-behaviour","location_type":"Force","location":{"latitude":"51.512191","street":{"id":956602,"name":"On or near Shopping Area"},"longitude":"-0.128839"},"context":"","outcome_status":null,"persistent_id":"","id":64318949,"location_subtype":"","month":"2018-04"},{"category":"anti-social-behaviour","location_type":"Force","location":{"latitude":"51.507569","street":{"id":956649,"name":"On or near Waterloo Place"},"longitude":"-0.132833"},"context":"","outcome_status":null,"persistent_id":"","id":64319981,"location_subtype":"","month":"2018-04"},{"category":"anti-social-behaviour","location_type":"Force","location":{"latitude":"51.512191","street":{"id":956602,"name":"On or near Shopping Area"},"longitude":"-0.128839"},"context":"","outcome_status":null,"persistent_id":"","id":64318948,"location_subtype":"","month":"2018-04"},{"category":"anti-social-behaviour","location_type":"Force","location":{"latitude":"51.492249","street":{"id":953416,"name":"On or near Hide Place"},"longitude":"-0.133574"},"context":"","outcome_status":null,"persistent_id":"","id":64320023,"location_subtype":"","month":"2018-04"},{"category":"anti-social-behaviour","location_type":"Force","location":{"latitude":"51.512191","street":{"id":956602,"name":"On or near Shopping Area"},"longitude":"-0.128839"},"context":"","outcome_status":null,"persistent_id":"","id":64318947,"location_subtype":"","month":"2018-04"},{"category":"anti-social-behaviour","location_type":"Force","location":{"latitude":"51.495222","street":{"id":953406,"name":"On or near Rochester Street"},"longitude":"-0.135038"},"context":"","outcome_status":null,"persistent_id":"","id":64320078,"location_subtype":"","month":"2018-04"},{"category":"anti-social-behaviour","location_type":"Force","location":{"latitude":"51.508499","street":{"id":956497,"name":"On or near Jermyn Street"},"longitude":"-0.136455"},"context":"","outcome_status":null,"persistent_id":"","id":64320126,"location_subtype":"","month":"2018-04"},{"category":"anti-social-behaviour","location_type":"Force","location":{"latitude":"51.491377","street":{"id":949475,"name":"On or near Lilac Place"},"longitude":"-0.118412"},"context":"","outcome_status":null,"persistent_id":"","id":64320459,"location_subtype":"","month":"2018-04"},{"category":"anti-social-behaviour","location_type":"Force","location":{"latitude":"51.507309","street":{"id":956645,"name":"On or near Pedestrian Subway"},"longitude":"-0.128348"},"context":"","outcome_status":null,"persistent_id":"","id":64318946,"location_subtype":"","month":"2018-04"},{"category":"anti-social-behaviour","location_type":"Force","location":{"latitude":"51.511315","street":{"id":956213,"name":"On or near Conference/exhibition Centre"},"longitude":"-0.118528"},"context":"","outcome_status":null,"persistent_id":"","id":64317893,"location_subtype":"","month":"2018-04"},{"category":"anti-social-behaviour","location_type":"Force","location":{"latitude":"51.511315","street":{"id":956213,"name":"On or near Conference/exhibition Centre"},"longitude":"-0.118528"},"context":"","outcome_status":null,"persistent_id":"","id":64317894,"location_subtype":"","month":"2018-04"},{"category":"anti-social-behaviour","location_type":"Force","location":{"latitude":"51.511315","street":{"id":956213,"name":"On or near Conference/exhibition Centre"},"longitude":"-0.118528"},"context":"","outcome_status":null,"persistent_id":"","id":64317895,"location_subtype":"","month":"2018-04"},{"category":"anti-social-behaviour","location_type":"Force","location":{"latitude":"51.499400","street":{"id":953260,"name":"On or near The Sanctuary"},"longitude":"-0.129162"},"context":"","outcome_status":null,"persistent_id":"","id":64318945,"location_subtype":"","month":"2018-04"},{"category":"anti-social-behaviour","location_type":"Force","location":{"latitude":"51.507309","street":{"id":956645,"name":"On or near Pedestrian Subway"},"longitude":"-0.128348"},"context":"","outcome_status":null,"persistent_id":"","id":64318944,"location_subtype":"","month":"2018-04"},{"category":"anti-social-behaviour","location_type":"Force","location":{"latitude":"51.516036","street":{"id":956168,"name":"On or near Macklin Street"},"longitude":"-0.122412"},"context":"","outcome_status":null,"persistent_id":"","id":64306191,"location_subtype":"","month":"2018-04"},{"category":"anti-social-behaviour","location_type":"Force","location":{"latitude":"51.511315","street":{"id":956213,"name":"On or near Conference/exhibition Centre"},"longitude":"-0.118528"},"context":"","outcome_status":null,"persistent_id":"","id":64317896,"location_subtype":"","month":"2018-04"},{"category":"anti-social-behaviour","location_type":"Force","location":{"latitude":"51.504326","street":{"id":953505,"name":"On or near Brad Street"},"longitude":"-0.108859"},"context":"","outcome_status":null,"persistent_id":"","id":64316856,"location_subtype":"","month":"2018-04"},{"category":"anti-social-behaviour","location_type":"Force","location":{"latitude":"51.506064","street":{"id":956135,"name":"On or near Burrell Street"},"longitude":"-0.103470"},"context":"","outcome_status":null,"persistent_id":"","id":64316840,"location_subtype":"","month":"2018-04"},{"category":"anti-social-behaviour","location_type":"Force","location":{"latitude":"51.511315","street":{"id":956213,"name":"On or near Conference/exhibition Centre"},"longitude":"-0.118528"},"context":"","outcome_status":null,"persistent_id":"","id":64317897,"location_subtype":"","month":"2018-04"},{"category":"anti-social-behaviour","location_type":"Force","location":{"latitude":"51.511315","street":{"id":956213,"name":"On or near Conference/exhibition Centre"},"longitude":"-0.118528"},"context":"","outcome_status":null,"persistent_id":"","id":64317898,"location_subtype":"","month":"2018-04"},{"category":"anti-social-behaviour","location_type":"Force","location":{"latitude":"51.511914","street":{"id":956211,"name":"On or near Theatre/concert Hall"},"longitude":"-0.119425"},"context":"","outcome_status":null,"persistent_id":"","id":64317899,"location_subtype":"","month":"2018-04"},{"category":"anti-social-behaviour","location_type":"Force","location":{"latitude":"51.516213","street":{"id":956172,"name":"On or near Kingsway"},"longitude":"-0.119450"},"context":"","outcome_status":null,"persistent_id":"","id":64317900,"location_subtype":"","month":"2018-04"},{"category":"anti-social-behaviour","location_type":"Force","location":{"latitude":"51.506064","street":{"id":956135,"name":"On or near Burrell Street"},"longitude":"-0.103470"},"context":"","outcome_status":null,"persistent_id":"","id":64316839,"location_subtype":"","month":"2018-04"},{"category":"anti-social-behaviour","location_type":"Force","location":{"latitude":"51.492528","street":{"id":953774,"name":"On or near George Mathers Road"},"longitude":"-0.103902"},"context":"","outcome_status":null,"persistent_id":"","id":64318065,"location_subtype":"","month":"2018-04"},{"category":"anti-social-behaviour","location_type":"Force","location":{"latitude":"51.507309","street":{"id":956645,"name":"On or near Pedestrian Subway"},"longitude":"-0.128348"},"context":"","outcome_status":null,"persistent_id":"","id":64318943,"location_subtype":"","month":"2018-04"},{"category":"anti-social-behaviour","location_type":"Force","location":{"latitude":"51.508257","street":{"id":956095,"name":"On or near A201"},"longitude":"-0.104503"},"context":"","outcome_status":null,"persistent_id":"","id":64318087,"location_subtype":"","month":"2018-04"},{"category":"anti-social-behaviour","location_type":"Force","location":{"latitude":"51.491973","street":{"id":949721,"name":"On or near Bulinca Street"},"longitude":"-0.128673"},"context":"","outcome_status":null,"persistent_id":"","id":64318942,"location_subtype":"","month":"2018-04"},{"category":"anti-social-behaviour","location_type":"Force","location":{"latitude":"51.504570","street":{"id":953499,"name":"On or near Cornwall Road"},"longitude":"-0.110650"},"context":"","outcome_status":null,"persistent_id":"","id":64318161,"location_subtype":"","month":"2018-04"},{"category":"anti-social-behaviour","location_type":"Force","location":{"latitude":"51.495756","street":{"id":953445,"name":"On or near Kennington Road"},"longitude":"-0.111115"},"context":"","outcome_status":null,"persistent_id":"","id":64318164,"location_subtype":"","month":"2018-04"},{"category":"anti-social-behaviour","location_type":"Force","location":{"latitude":"51.491973","street":{"id":949721,"name":"On or near Bulinca Street"},"longitude":"-0.128673"},"context":"","outcome_status":null,"persistent_id":"","id":64318941,"location_subtype":"","month":"2018-04"},{"category":"anti-social-behaviour","location_type":"Force","location":{"latitude":"51.503637","street":{"id":953483,"name":"On or near Sandell Street"},"longitude":"-0.110804"},"context":"","outcome_status":null,"persistent_id":"","id":64318165,"location_subtype":"","month":"2018-04"},{"category":"anti-social-behaviour","location_type":"Force","location":{"latitude":"51.509874","street":{"id":956530,"name":"On or near Charing Cross Road"},"longitude":"-0.128459"},"context":"","outcome_status":null,"persistent_id":"","id":64318940,"location_subtype":"","month":"2018-04"},{"category":"anti-social-behaviour","location_type":"Force","location":{"latitude":"51.503510","street":{"id":953749,"name":"On or near Blackfriars Road"},"longitude":"-0.104584"},"context":"","outcome_status":null,"persistent_id":"","id":64316838,"location_subtype":"","month":"2018-04"},{"category":"anti-social-behaviour","location_type":"Force","location":{"latitude":"51.495756","street":{"id":953445,"name":"On or near Kennington Road"},"longitude":"-0.111115"},"context":"","outcome_status":null,"persistent_id":"","id":64318167,"location_subtype":"","month":"2018-04"},{"category":"anti-social-behaviour","location_type":"Force","location":{"latitude":"51.509874","street":{"id":956530,"name":"On or near Charing Cross Road"},"longitude":"-0.128459"},"context":"","outcome_status":null,"persistent_id":"","id":64318939,"location_subtype":"","month":"2018-04"},{"category":"anti-social-behaviour","location_type":"Force","location":{"latitude":"51.490842","street":{"id":949562,"name":"On or near Petrol Station"},"longitude":"-0.111448"},"context":"","outcome_status":null,"persistent_id":"","id":64318170,"location_subtype":"","month":"2018-04"},{"category":"anti-social-behaviour","location_type":"Force","location":{"latitude":"51.508577","street":{"id":956212,"name":"On or near Nightclub"},"longitude":"-0.124419"},"context":"","outcome_status":null,"persistent_id":"","id":64318863,"location_subtype":"","month":"2018-04"},{"category":"anti-social-behaviour","location_type":"Force","location":{"latitude":"51.512191","street":{"id":956602,"name":"On or near Shopping Area"},"longitude":"-0.128839"},"context":"","outcome_status":null,"persistent_id":"","id":64318938,"location_subtype":"","month":"2018-04"},{"category":"anti-social-behaviour","location_type":"Force","location":{"latitude":"51.514017","street":{"id":956186,"name":"On or near Endell Street"},"longitude":"-0.123850"},"context":"","outcome_status":null,"persistent_id":"","id":64318864,"location_subtype":"","month":"2018-04"},{"category":"anti-social-behaviour","location_type":"Force","location":{"latitude":"51.514017","street":{"id":956186,"name":"On or near Endell Street"},"longitude":"-0.123850"},"context":"","outcome_status":null,"persistent_id":"","id":64318865,"location_subtype":"","month":"2018-04"},{"category":"anti-social-behaviour","location_type":"Force","location":{"latitude":"51.506095","street":{"id":956294,"name":"On or near Whitehall Place"},"longitude":"-0.124997"},"context":"","outcome_status":null,"persistent_id":"","id":64318866,"location_subtype":"","month":"2018-04"},{"category":"anti-social-behaviour","location_type":"Force","location":{"latitude":"51.508577","street":{"id":956212,"name":"On or near Nightclub"},"longitude":"-0.124419"},"context":"","outcome_status":null,"persistent_id":"","id":64318867,"location_subtype":"","month":"2018-04"},{"category":"anti-social-behaviour","location_type":"Force","location":{"latitude":"51.508577","street":{"id":956212,"name":"On or near Nightclub"},"longitude":"-0.124419"},"context":"","outcome_status":null,"persistent_id":"","id":64318868,"location_subtype":"","month":"2018-04"},{"category":"anti-social-behaviour","location_type":"Force","location":{"latitude":"51.511057","street":{"id":956592,"name":"On or near Theatre/concert Hall"},"longitude":"-0.128237"},"context":"","outcome_status":null,"persistent_id":"","id":64318937,"location_subtype":"","month":"2018-04"},{"category":"anti-social-behaviour","location_type":"Force","location":{"latitude":"51.516421","street":{"id":956233,"name":"On or near Stukeley Street"},"longitude":"-0.122858"},"context":"","outcome_status":null,"persistent_id":"","id":64306196,"location_subtype":"","month":"2018-04"},{"category":"anti-social-behaviour","location_type":"Force","location":{"latitude":"51.516421","street":{"id":956233,"name":"On or near Stukeley Street"},"longitude":"-0.122858"},"context":"","outcome_status":null,"persistent_id":"","id":64306197,"location_subtype":"","month":"2018-04"},{"category":"anti-social-behaviour","location_type":"Force","location":{"latitude":"51.508577","street":{"id":956212,"name":"On or near Nightclub"},"longitude":"-0.124419"},"context":"","outcome_status":null,"persistent_id":"","id":64318869,"location_subtype":"","month":"2018-04"},{"category":"anti-social-behaviour","location_type":"Force","location":{"latitude":"51.515431","street":{"id":956220,"name":"On or near Theatre/concert Hall"},"longitude":"-0.122812"},"context":"","outcome_status":null,"persistent_id":"","id":64306198,"location_subtype":"","month":"2018-04"},{"category":"anti-social-behaviour","location_type":"Force","location":{"latitude":"51.515431","street":{"id":956220,"name":"On or near Theatre/concert Hall"},"longitude":"-0.122812"},"context":"","outcome_status":null,"persistent_id":"","id":64306199,"location_subtype":"","month":"2018-04"},{"category":"anti-social-behaviour","location_type":"Force","location":{"latitude":"51.507321","street":{"id":956301,"name":"On or near Craven Street"},"longitude":"-0.124601"},"context":"","outcome_status":null,"persistent_id":"","id":64318870,"location_subtype":"","month":"2018-04"},{"category":"anti-social-behaviour","location_type":"Force","location":{"latitude":"51.515431","street":{"id":956220,"name":"On or near Theatre/concert Hall"},"longitude":"-0.122812"},"context":"","outcome_status":null,"persistent_id":"","id":64306200,"location_subtype":"","month":"2018-04"},{"category":"anti-social-behaviour","location_type":"Force","location":{"latitude":"51.507321","street":{"id":956301,"name":"On or near Craven Street"},"longitude":"-0.124601"},"context":"","outcome_status":null,"persistent_id":"","id":64318871,"location_subtype":"","month":"2018-04"},{"category":"anti-social-behaviour","location_type":"Force","location":{"latitude":"51.501309","street":{"id":953509,"name":"On or near Addington Street"},"longitude":"-0.116419"},"context":"","outcome_status":null,"persistent_id":"","id":64319283,"location_subtype":"","month":"2018-04"},{"category":"anti-social-behaviour","location_type":"Force","location":{"latitude":"51.493930","street":{"id":953410,"name":"On or near Page Street"},"longitude":"-0.129573"},"context":"","outcome_status":null,"persistent_id":"","id":64318980,"location_subtype":"","month":"2018-04"},{"category":"anti-social-behaviour","location_type":"Force","location":{"latitude":"51.513158","street":{"id":956593,"name":"On or near Theatre/concert Hall"},"longitude":"-0.129722"},"context":"","outcome_status":null,"persistent_id":"","id":64318981,"location_subtype":"","month":"2018-04"},{"category":"anti-social-behaviour","location_type":"Force","location":{"latitude":"51.513158","street":{"id":956593,"name":"On or near Theatre/concert Hall"},"longitude":"-0.129722"},"context":"","outcome_status":null,"persistent_id":"","id":64318982,"location_subtype":"","month":"2018-04"},{"category":"anti-social-behaviour","location_type":"Force","location":{"latitude":"51.513158","street":{"id":956593,"name":"On or near Theatre/concert Hall"},"longitude":"-0.129722"},"context":"","outcome_status":null,"persistent_id":"","id":64318983,"location_subtype":"","month":"2018-04"},{"category":"anti-social-behaviour","location_type":"Force","location":{"latitude":"51.515412","street":{"id":956190,"name":"On or near Drury Lane"},"longitude":"-0.123317"},"context":"","outcome_status":null,"persistent_id":"","id":64306206,"location_subtype":"","month":"2018-04"},{"category":"anti-social-behaviour","location_type":"Force","location":{"latitude":"51.513158","street":{"id":956593,"name":"On or near Theatre/concert Hall"},"longitude":"-0.129722"},"context":"","outcome_status":null,"persistent_id":"","id":64318984,"location_subtype":"","month":"2018-04"},{"category":"anti-social-behaviour","location_type":"Force","location":{"latitude":"51.514518","street":{"id":956166,"name":"On or near Nottingham Court"},"longitude":"-0.125343"},"context":"","outcome_status":null,"persistent_id":"","id":64306220,"location_subtype":"","month":"2018-04"},{"category":"anti-social-behaviour","location_type":"Force","location":{"latitude":"51.507309","street":{"id":956645,"name":"On or near Pedestrian Subway"},"longitude":"-0.128348"},"context":"","outcome_status":null,"persistent_id":"","id":64318936,"location_subtype":"","month":"2018-04"},{"category":"anti-social-behaviour","location_type":"Force","location":{"latitude":"51.513158","street":{"id":956593,"name":"On or near Theatre/concert Hall"},"longitude":"-0.129722"},"context":"","outcome_status":null,"persistent_id":"","id":64318985,"location_subtype":"","month":"2018-04"},{"category":"anti-social-behaviour","location_type":"Force","location":{"latitude":"51.514518","street":{"id":956166,"name":"On or near Nottingham Court"},"longitude":"-0.125343"},"context":"","outcome_status":null,"persistent_id":"","id":64306221,"location_subtype":"","month":"2018-04"},{"category":"anti-social-behaviour","location_type":"Force","location":{"latitude":"51.513158","street":{"id":956593,"name":"On or near Theatre/concert Hall"},"longitude":"-0.129722"},"context":"","outcome_status":null,"persistent_id":"","id":64318986,"location_subtype":"","month":"2018-04"},{"category":"anti-social-behaviour","location_type":"Force","location":{"latitude":"51.516523","street":{"id":956236,"name":"On or near Remnant Street"},"longitude":"-0.119135"},"context":"","outcome_status":null,"persistent_id":"","id":64306127,"location_subtype":"","month":"2018-04"},{"category":"anti-social-behaviour","location_type":"Force","location":{"latitude":"51.496909","street":{"id":953283,"name":"On or near Great Peter Street"},"longitude":"-0.129739"},