[{"category":"anti-social-behaviour","location_type":"Force","location":{"latitude":"53.335334","street":{"id":1046350,"name":"On or near Parking Area"},"longitude":"-3.402768"},"context":"","outcome_status":null,"persistent_id":"","id":87535881,"location_subtype":"","month":"2020-10"},{"category":"anti-social-behaviour","location_type":"Force","location":{"latitude":"53.332610","street":{"id":1046332,"name":"On or near North Avenue"},"longitude":"-3.406553"},"context":"","outcome_status":null,"persistent_id":"","id":87536328,"location_subtype":"","month":"2020-10"},{"category":"anti-social-behaviour","location_type":"Force","location":{"latitude":"53.330323","street":{"id":1046410,"name":"On or near Sports/recreation Area"},"longitude":"-3.412244"},"context":"","outcome_status":null,"persistent_id":"","id":87536260,"location_subtype":"","month":"2020-10"},{"category":"anti-social-behaviour","location_type":"Force","location":{"latitude":"53.327245","street":{"id":1046386,"name":"On or near Gordon Avenue"},"longitude":"-3.407968"},"context":"","outcome_status":null,"persistent_id":"","id":87536191,"location_subtype":"","month":"2020-10"},{"category":"anti-social-behaviour","location_type":"Force","location":{"latitude":"53.341313","street":{"id":1035255,"name":"On or near Warren Close"},"longitude":"-3.393472"},"context":"","outcome_status":null,"persistent_id":"","id":87536355,"location_subtype":"","month":"2020-10"},{"category":"anti-social-behaviour","location_type":"Force","location":{"latitude":"53.335127","street":{"id":1046351,"name":"On or near Penisardre Road"},"longitude":"-3.405825"},"context":"","outcome_status":null,"persistent_id":"","id":87536156,"location_subtype":"","month":"2020-10"},{"category":"anti-social-behaviour","location_type":"Force","location":{"latitude":"53.335145","street":{"id":1046414,"name":"On or near Susan Grove"},"longitude":"-3.420213"},"context":"","outcome_status":null,"persistent_id":"","id":87536155,"location_subtype":"","month":"2020-10"},{"category":"anti-social-behaviour","location_type":"Force","location":{"latitude":"53.337767","street":{"id":1046574,"name":"On or near Morley Road"},"longitude":"-3.404545"},"context":"","outcome_status":null,"persistent_id":"","id":87536003,"location_subtype":"","month":"2020-10"},{"category":"anti-social-behaviour","location_type":"Force","location":{"latitude":"53.338233","street":{"id":1046579,"name":"On or near Cae'r Nant"},"longitude":"-3.402353"},"context":"","outcome_status":null,"persistent_id":"","id":87535883,"location_subtype":"","month":"2020-10"},{"category":"anti-social-behaviour","location_type":"Force","location":{"latitude":"53.338233","street":{"id":1046579,"name":"On or near Cae'r Nant"},"longitude":"-3.402353"},"context":"","outcome_status":null,"persistent_id":"","id":87535882,"location_subtype":"","month":"2020-10"},{"category":"anti-social-behaviour","location_type":"Force","location":{"latitude":"53.331468","street":{"id":1046373,"name":"On or near Nursery Close"},"longitude":"-3.408873"},"context":"","outcome_status":null,"persistent_id":"","id":87536448,"location_subtype":"","month":"2020-10"},{"category":"anti-social-behaviour","location_type":"Force","location":{"latitude":"53.330673","street":{"id":1046398,"name":"On or near Dawson Close"},"longitude":"-3.408487"},"context":"","outcome_status":null,"persistent_id":"","id":87536449,"location_subtype":"","month":"2020-10"},{"category":"anti-social-behaviour","location_type":"Force","location":{"latitude":"53.343470","street":{"id":1046581,"name":"On or near Beach Road East"},"longitude":"-3.407256"},"context":"","outcome_status":null,"persistent_id":"","id":87535008,"location_subtype":"","month":"2020-10"},{"category":"anti-social-behaviour","location_type":"Force","location":{"latitude":"53.343470","street":{"id":1046581,"name":"On or near Beach Road East"},"longitude":"-3.407256"},"context":"","outcome_status":null,"persistent_id":"","id":87535009,"location_subtype":"","month":"2020-10"},{"category":"anti-social-behaviour","location_type":"Force","location":{"latitude":"53.339439","street":{"id":1046540,"name":"On or near Aber Road"},"longitude":"-3.402227"},"context":"","outcome_status":null,"persistent_id":"","id":87535069,"location_subtype":"","month":"2020-10"},{"category":"anti-social-behaviour","location_type":"Force","location":{"latitude":"53.335635","street":{"id":1046591,"name":"On or near Tywyn Isaf"},"longitude":"-3.414567"},"context":"","outcome_status":null,"persistent_id":"","id":87535126,"location_subtype":"","month":"2020-10"},{"category":"anti-social-behaviour","location_type":"Force","location":{"latitude":"53.327543","street":{"id":1046391,"name":"On or near Fairview Avenue"},"longitude":"-3.409405"},"context":"","outcome_status":null,"persistent_id":"","id":87535127,"location_subtype":"","month":"2020-10"},{"category":"anti-social-behaviour","location_type":"Force","location":{"latitude":"53.334075","street":{"id":1046327,"name":"On or near Stryd Fawr"},"longitude":"-3.403583"},"context":"","outcome_status":null,"persistent_id":"","id":87535179,"location_subtype":"","month":"2020-10"},{"category":"anti-social-behaviour","location_type":"Force","location":{"latitude":"53.332598","street":{"id":1046335,"name":"On or near Maes-y-groes"},"longitude":"-3.403820"},"context":"","outcome_status":null,"persistent_id":"","id":87535180,"location_subtype":"","month":"2020-10"},{"category":"anti-social-behaviour","location_type":"Force","location":{"latitude":"53.333830","street":{"id":1046451,"name":"On or near Plas Avenue"},"longitude":"-3.398379"},"context":"","outcome_status":null,"persistent_id":"","id":87535229,"location_subtype":"","month":"2020-10"},{"category":"anti-social-behaviour","location_type":"Force","location":{"latitude":"53.331468","street":{"id":1046373,"name":"On or near Nursery Close"},"longitude":"-3.408873"},"context":"","outcome_status":null,"persistent_id":"","id":87535309,"location_subtype":"","month":"2020-10"},{"category":"anti-social-behaviour","location_type":"Force","location":{"latitude":"53.339766","street":{"id":1046569,"name":"On or near Bastion Gardens"},"longitude":"-3.408080"},"context":"","outcome_status":null,"persistent_id":"","id":87535310,"location_subtype":"","month":"2020-10"},{"category":"anti-social-behaviour","location_type":"Force","location":{"latitude":"53.339732","street":{"id":1046568,"name":"On or near Bastion Road"},"longitude":"-3.410152"},"context":"","outcome_status":null,"persistent_id":"","id":87535349,"location_subtype":"","month":"2020-10"},{"category":"anti-social-behaviour","location_type":"Force","location":{"latitude":"53.330643","street":{"id":1046329,"name":"On or near South Avenue"},"longitude":"-3.405723"},"context":"","outcome_status":null,"persistent_id":"","id":87535351,"location_subtype":"","month":"2020-10"},{"category":"anti-social-behaviour","location_type":"Force","location":{"latitude":"53.331468","street":{"id":1046373,"name":"On or near Nursery Close"},"longitude":"-3.408873"},"context":"","outcome_status":null,"persistent_id":"","id":87535406,"location_subtype":"","month":"2020-10"},{"category":"anti-social-behaviour","location_type":"Force","location":{"latitude":"53.343470","street":{"id":1046581,"name":"On or near Beach Road East"},"longitude":"-3.407256"},"context":"","outcome_status":null,"persistent_id":"","id":87535452,"location_subtype":"","month":"2020-10"},{"category":"anti-social-behaviour","location_type":"Force","location":{"latitude":"53.330104","street":{"id":1046453,"name":"On or near Palmeira Gardens"},"longitude":"-3.401080"},"context":"","outcome_status":null,"persistent_id":"","id":87535453,"location_subtype":"","month":"2020-10"},{"category":"anti-social-behaviour","location_type":"Force","location":{"latitude":"53.339439","street":{"id":1046540,"name":"On or near Aber Road"},"longitude":"-3.402227"},"context":"","outcome_status":null,"persistent_id":"","id":87535454,"location_subtype":"","month":"2020-10"},{"category":"anti-social-behaviour","location_type":"Force","location":{"latitude":"53.340780","street":{"id":1046531,"name":"On or near Warren Drive"},"longitude":"-3.394446"},"context":"","outcome_status":null,"persistent_id":"","id":87535455,"location_subtype":"","month":"2020-10"},{"category":"anti-social-behaviour","location_type":"Force","location":{"latitude":"53.330104","street":{"id":1046453,"name":"On or near Palmeira Gardens"},"longitude":"-3.401080"},"context":"","outcome_status":null,"persistent_id":"","id":87535507,"location_subtype":"","month":"2020-10"},{"category":"anti-social-behaviour","location_type":"Force","location":{"latitude":"53.342407","street":{"id":1046552,"name":"On or near Barkby Avenue"},"longitude":"-3.399861"},"context":"","outcome_status":null,"persistent_id":"","id":87535508,"location_subtype":"","month":"2020-10"},{"category":"anti-social-behaviour","location_type":"Force","location":{"latitude":"53.330104","street":{"id":1046453,"name":"On or near Palmeira Gardens"},"longitude":"-3.401080"},"context":"","outcome_status":null,"persistent_id":"","id":87535561,"location_subtype":"","month":"2020-10"},{"category":"anti-social-behaviour","location_type":"Force","location":{"latitude":"53.330104","street":{"id":1046453,"name":"On or near Palmeira Gardens"},"longitude":"-3.401080"},"context":"","outcome_status":null,"persistent_id":"","id":87535610,"location_subtype":"","month":"2020-10"},{"category":"anti-social-behaviour","location_type":"Force","location":{"latitude":"53.335127","street":{"id":1046351,"name":"On or near Penisardre Road"},"longitude":"-3.405825"},"context":"","outcome_status":null,"persistent_id":"","id":87535661,"location_subtype":"","month":"2020-10"},{"category":"anti-social-behaviour","location_type":"Force","location":{"latitude":"53.339109","street":{"id":1046580,"name":"On or near Brook Park Avenue"},"longitude":"-3.402832"},"context":"","outcome_status":null,"persistent_id":"","id":87535662,"location_subtype":"","month":"2020-10"},{"category":"anti-social-behaviour","location_type":"Force","location":{"latitude":"53.337691","street":{"id":1046554,"name":"On or near Trevor Road"},"longitude":"-3.411016"},"context":"","outcome_status":null,"persistent_id":"","id":87535711,"location_subtype":"","month":"2020-10"},{"category":"anti-social-behaviour","location_type":"Force","location":{"latitude":"53.328463","street":{"id":1035194,"name":"On or near St James Drive"},"longitude":"-3.412934"},"context":"","outcome_status":null,"persistent_id":"","id":87535826,"location_subtype":"","month":"2020-10"},{"category":"anti-social-behaviour","location_type":"Force","location":{"latitude":"53.331468","street":{"id":1046373,"name":"On or near Nursery Close"},"longitude":"-3.408873"},"context":"","outcome_status":null,"persistent_id":"","id":87535827,"location_subtype":"","month":"2020-10"},{"category":"bicycle-theft","location_type":"Force","location":{"latitude":"53.329353","street":{"id":1046396,"name":"On or near Dawson Crescent"},"longitude":"-3.408338"},"context":"","outcome_status":{"category":"Status update unavailable","date":"2021-02"},"persistent_id":"b03fc9e85334193d420330781cff9ba7fed86fe53f86f5a9cbf32a8bf66f3b0c","id":87536491,"location_subtype":"","month":"2020-10"},{"category":"burglary","location_type":"Force","location":{"latitude":"53.340356","street":{"id":1046577,"name":"On or near Highbury Close"},"longitude":"-3.403023"},"context":"","outcome_status":{"category":"Unable to prosecute suspect","date":"2020-12"},"persistent_id":"f73b0c4ee3e63d9501e9f363786cbe5ae39e5f22722c185c661acfd48e94f4be","id":87539853,"location_subtype":"","month":"2020-10"},{"category":"burglary","location_type":"Force","location":{"latitude":"53.337183","street":{"id":1046546,"name":"On or near Maes Glas"},"longitude":"-3.400681"},"context":"","outcome_status":{"category":"Unable to prosecute suspect","date":"2021-01"},"persistent_id":"2e6957a813233801ae0df67b8ec229262a3e1e70259b70e91efecdd9513fed26","id":87539690,"location_subtype":"","month":"2020-10"},{"category":"burglary","location_type":"Force","location":{"latitude":"53.338065","street":{"id":1046539,"name":"On or near Caradoc Road"},"longitude":"-3.402182"},"context":"","outcome_status":{"category":"Status update unavailable","date":"2021-02"},"persistent_id":"72b0ec92d90648f19a2df11243b96d37f780ff4b3a944b0c38f1687ea65a35ae","id":87540328,"location_subtype":"","month":"2020-10"},{"category":"criminal-damage-arson","location_type":"Force","location":{"latitude":"53.333871","street":{"id":1046446,"name":"On or near Rhodfa Clwyd"},"longitude":"-3.399476"},"context":"","outcome_status":{"category":"Status update unavailable","date":"2021-02"},"persistent_id":"e714e0836b42cf71828311e07b28f674028ee05bf510adbe8881433c075521d5","id":87538512,"location_subtype":"","month":"2020-10"},{"category":"criminal-damage-arson","location_type":"Force","location":{"latitude":"53.331468","street":{"id":1046373,"name":"On or near Nursery Close"},"longitude":"-3.408873"},"context":"","outcome_status":{"category":"Unable to prosecute suspect","date":"2020-10"},"persistent_id":"5cc252953f771065ae0c105db4fff40eea185b0b5c4309d999170bee9a2fe519","id":87536641,"location_subtype":"","month":"2020-10"},{"category":"criminal-damage-arson","location_type":"Force","location":{"latitude":"53.335781","street":{"id":1046587,"name":"On or near Ffordd Y Bont"},"longitude":"-3.407559"},"context":"","outcome_status":{"category":"Investigation complete; no suspect identified","date":"2020-12"},"persistent_id":"dbd3641bae8a9c9dd5f514437c0d8f0654b50b6e7e548213596f5639610e7b92","id":87540755,"location_subtype":"","month":"2020-10"},{"category":"criminal-damage-arson","location_type":"Force","location":{"latitude":"53.332207","street":{"id":1046434,"name":"On or near Parking Area"},"longitude":"-3.401885"},"context":"","outcome_status":{"category":"Investigation complete; no suspect identified","date":"2021-01"},"persistent_id":"a4b29ef2e33d4441e12e3d992dbbf3ae80373f96a3f470cca56309c712f30cce","id":87540201,"location_subtype":"","month":"2020-10"},{"category":"criminal-damage-arson","location_type":"Force","location":{"latitude":"53.335064","street":{"id":1046353,"name":"On or near Lon Alwen"},"longitude":"-3.404291"},"context":"","outcome_status":{"category":"Investigation complete; no suspect identified","date":"2020-10"},"persistent_id":"f5fb5a7e52e4d31459028eb7f7721f94b122e1a0acb90157aa9b1eebec1af56a","id":87536809,"location_subtype":"","month":"2020-10"},{"category":"criminal-damage-arson","location_type":"Force","location":{"latitude":"53.335781","street":{"id":1046587,"name":"On or near Ffordd Y Bont"},"longitude":"-3.407559"},"context":"","outcome_status":{"category":"Investigation complete; no suspect identified","date":"2020-10"},"persistent_id":"338785c720a4993eca737e34e38f860962f1c4ba7c07eec0fbd7dbabdd309c77","id":87536642,"location_subtype":"","month":"2020-10"},{"category":"criminal-damage-arson","location_type":"Force","location":{"latitude":"53.341313","street":{"id":1035255,"name":"On or near Warren Close"},"longitude":"-3.393472"},"context":"","outcome_status":{"category":"Status update unavailable","date":"2021-02"},"persistent_id":"75242534a52ef8ff3e30497a336b108316d22cbca94d2bb6a1e7e1314d29e98c","id":87540639,"location_subtype":"","month":"2020-10"},{"category":"criminal-damage-arson","location_type":"Force","location":{"latitude":"53.335064","street":{"id":1046353,"name":"On or near Lon Alwen"},"longitude":"-3.404291"},"context":"","outcome_status":{"category":"Investigation complete; no suspect identified","date":"2020-10"},"persistent_id":"759bd26b1b2047c377a514903aa7b170e1247c494e5473d461a758c1ccbcc3ba","id":87539541,"location_subtype":"","month":"2020-10"},{"category":"criminal-damage-arson","location_type":"Force","location":{"latitude":"53.341080","street":{"id":1046534,"name":"On or near Marine Road East"},"longitude":"-3.394936"},"context":"","outcome_status":{"category":"Investigation complete; no suspect identified","date":"2020-10"},"persistent_id":"d7aa513d3c00a0111ee590f516c1d19ff695889e87e42be515eccd4373849e11","id":87538938,"location_subtype":"","month":"2020-10"},{"category":"drugs","location_type":"Force","location":{"latitude":"53.334604","street":{"id":1046484,"name":"On or near Bosworth Grove"},"longitude":"-3.392937"},"context":"","outcome_status":{"category":"Local resolution","date":"2020-11"},"persistent_id":"681cf9a83e0f0de5994a22cb37d9352e6d35cb1fe864f3c721e3f91058e81aef","id":87540451,"location_subtype":"","month":"2020-10"},{"category":"drugs","location_type":"Force","location":{"latitude":"53.328148","street":{"id":1046457,"name":"On or near Manor Close"},"longitude":"-3.396151"},"context":"","outcome_status":{"category":"Further action is not in the public interest","date":"2020-11"},"persistent_id":"52769dde545e5862fd9bbf0c73ce30fe6b6ed09f49c8718f93b5704e6719b10d","id":87538340,"location_subtype":"","month":"2020-10"},{"category":"drugs","location_type":"Force","location":{"latitude":"53.335635","street":{"id":1046591,"name":"On or near Tywyn Isaf"},"longitude":"-3.414567"},"context":"","outcome_status":{"category":"Further action is not in the public interest","date":"2021-01"},"persistent_id":"2f374bfcb0bd6032ebb1baa303785b8147e9e8167b8718e0a7280118cd29cea7","id":87536509,"location_subtype":"","month":"2020-10"},{"category":"other-theft","location_type":"Force","location":{"latitude":"53.335864","street":{"id":1046590,"name":"On or near Victoria Road"},"longitude":"-3.418780"},"context":"","outcome_status":{"category":"Unable to prosecute suspect","date":"2020-11"},"persistent_id":"9ec61f23df51256eed5f84d3a070195b876af1eb087c89eae9dcd6c03b007005","id":87537573,"location_subtype":"","month":"2020-10"},{"category":"other-theft","location_type":"Force","location":{"latitude":"53.335769","street":{"id":1046607,"name":"On or near Rhodfa Peris"},"longitude":"-3.427458"},"context":"","outcome_status":{"category":"Investigation complete; no suspect identified","date":"2021-01"},"persistent_id":"d874be7461d8bcf9885e0bbb12931f0a0b3c09a6873d46acc764b1ecc15aa80b","id":87539405,"location_subtype":"","month":"2020-10"},{"category":"other-theft","location_type":"Force","location":{"latitude":"53.335127","street":{"id":1046351,"name":"On or near Penisardre Road"},"longitude":"-3.405825"},"context":"","outcome_status":{"category":"Formal action is not in the public interest","date":"2021-01"},"persistent_id":"7b97bfe9e344ac4501b9941ece6c8f044a7a60f1c40701c9eaf52a028bf8aa4c","id":87536940,"location_subtype":"","month":"2020-10"},{"category":"possession-of-weapons","location_type":"Force","location":{"latitude":"53.334075","street":{"id":1046327,"name":"On or near Stryd Fawr"},"longitude":"-3.403583"},"context":"","outcome_status":{"category":"Further investigation is not in the public interest","date":"2020-12"},"persistent_id":"913fb611747da810c14378c018e29e192fc668a8c1bd7c0934d74feaa86027aa","id":87538693,"location_subtype":"","month":"2020-10"},{"category":"public-order","location_type":"Force","location":{"latitude":"53.337767","street":{"id":1046574,"name":"On or near Morley Road"},"longitude":"-3.404545"},"context":"","outcome_status":{"category":"Local resolution","date":"2020-12"},"persistent_id":"85ecd448dec38146d2eda9eb08c81fd9aabccfa49888184011eb1840b7f9838e","id":87539419,"location_subtype":"","month":"2020-10"},{"category":"public-order","location_type":"Force","location":{"latitude":"53.339732","street":{"id":1046568,"name":"On or near Bastion Road"},"longitude":"-3.410152"},"context":"","outcome_status":{"category":"Status update unavailable","date":"2021-02"},"persistent_id":"bacd562d234f4dd9bc8f9c0fc89d00b050ecea4f790068e2a74d549b8cd445d6","id":87537584,"location_subtype":"","month":"2020-10"},{"category":"public-order","location_type":"Force","location":{"latitude":"53.335064","street":{"id":1046353,"name":"On or near Lon Alwen"},"longitude":"-3.404291"},"context":"","outcome_status":{"category":"Status update unavailable","date":"2021-02"},"persistent_id":"b97d097aceb6bcdcf01139d53f940c1adf1742504cf0ba9f1d06f128751e92f7","id":87538548,"location_subtype":"","month":"2020-10"},{"category":"public-order","location_type":"Force","location":{"latitude":"53.328821","street":{"id":1046363,"name":"On or near Sycamore Drive"},"longitude":"-3.411504"},"context":"","outcome_status":{"category":"Status update unavailable","date":"2021-02"},"persistent_id":"3186122c622f87c4abd235a527415d14b5612c02ce4a9877d3cec16b95d1cc29","id":87538703,"location_subtype":"","month":"2020-10"},{"category":"public-order","location_type":"Force","location":{"latitude":"53.335877","street":{"id":1046600,"name":"On or near Chapel Road"},"longitude":"-3.416167"},"context":"","outcome_status":{"category":"Status update unavailable","date":"2021-02"},"persistent_id":"d20aaad150c7f9def042ae9de9ff0c00c802c5b6207e92c7bb97be1931d00351","id":87538972,"location_subtype":"","month":"2020-10"},{"category":"public-order","location_type":"Force","location":{"latitude":"53.329353","street":{"id":1046396,"name":"On or near Dawson Crescent"},"longitude":"-3.408338"},"context":"","outcome_status":{"category":"Unable to prosecute suspect","date":"2021-02"},"persistent_id":"f5c51fee1a965b185542206a329770475bb1c0c0554ef97871de959ccd9d2395","id":87538973,"location_subtype":"","month":"2020-10"},{"category":"public-order","location_type":"Force","location":{"latitude":"53.329353","street":{"id":1046396,"name":"On or near Dawson Crescent"},"longitude":"-3.408338"},"context":"","outcome_status":{"category":"Unable to prosecute suspect","date":"2021-02"},"persistent_id":"c71d75ebadb30d90c3715c756bb6f0c8dcba3b5691596535354d44cbf007cb0e","id":87537107,"location_subtype":"","month":"2020-10"},{"category":"public-order","location_type":"Force","location":{"latitude":"53.335064","street":{"id":1046353,"name":"On or near Lon Alwen"},"longitude":"-3.404291"},"context":"","outcome_status":{"category":"Investigation complete; no suspect identified","date":"2020-10"},"persistent_id":"15de93927c488ce3d280146cb064df4704c8e10ba7443bd6978ff8ea7c3ae823","id":87536954,"location_subtype":"","month":"2020-10"},{"category":"public-order","location_type":"Force","location":{"latitude":"53.337767","street":{"id":1046574,"name":"On or near Morley Road"},"longitude":"-3.404545"},"context":"","outcome_status":{"category":"Investigation complete; no suspect identified","date":"2020-10"},"persistent_id":"ee1ee2d5754d2028c86b3ac3e4b4396919ae4e749facc054afa36cc9499065e1","id":87537108,"location_subtype":"","month":"2020-10"},{"category":"public-order","location_type":"Force","location":{"latitude":"53.331468","street":{"id":1046373,"name":"On or near Nursery Close"},"longitude":"-3.408873"},"context":"","outcome_status":{"category":"Investigation complete; no suspect identified","date":"2020-10"},"persistent_id":"8e7ccc98ce39a250b359c81500aadd4dff3e811ba838f7c2c88d7aefdd6b8b0a","id":87537432,"location_subtype":"","month":"2020-10"},{"category":"public-order","location_type":"Force","location":{"latitude":"53.331468","street":{"id":1046373,"name":"On or near Nursery Close"},"longitude":"-3.408873"},"context":"","outcome_status":{"category":"Unable to prosecute suspect","date":"2020-10"},"persistent_id":"7f047845d95d65d12720f34b282ccb4f3d8bebabaea506b7db2509520134f38b","id":87537742,"location_subtype":"","month":"2020-10"},{"category":"public-order","location_type":"Force","location":{"latitude":"53.331468","street":{"id":1046373,"name":"On or near Nursery Close"},"longitude":"-3.408873"},"context":"","outcome_status":{"category":"Unable to prosecute suspect","date":"2020-10"},"persistent_id":"640e4e734688e5338af3aceb1c8b3bdab12f1706937dd846d73e5b147d1f06ed","id":87537743,"location_subtype":"","month":"2020-10"},{"category":"public-order","location_type":"Force","location":{"latitude":"53.338065","street":{"id":1046539,"name":"On or near Caradoc Road"},"longitude":"-3.402182"},"context":"","outcome_status":{"category":"Unable to prosecute suspect","date":"2020-10"},"persistent_id":"6890599c7db8f47ab0a0c61a21cb70519dc025e1190f010c78ddc1914d6cf6f4","id":87538974,"location_subtype":"","month":"2020-10"},{"category":"public-order","location_type":"Force","location":{"latitude":"53.335145","street":{"id":1046414,"name":"On or near Susan Grove"},"longitude":"-3.420213"},"context":"","outcome_status":{"category":"Unable to prosecute suspect","date":"2020-10"},"persistent_id":"fa17bb4b8983a1f1be99c7c23ad94c352f873e1ac329705681a05d94cb70c96c","id":87539897,"location_subtype":"","month":"2020-10"},{"category":"public-order","location_type":"Force","location":{"latitude":"53.335504","street":{"id":1046354,"name":"On or near Church Lane"},"longitude":"-3.404321"},"context":"","outcome_status":{"category":"Investigation complete; no suspect identified","date":"2021-01"},"persistent_id":"42652f0d880a620b65268aafbe4adcc3fd0ed17b6a58bfb8b69a3ac0777af423","id":87538370,"location_subtype":"","month":"2020-10"},{"category":"public-order","location_type":"Force","location":{"latitude":"53.332610","street":{"id":1046332,"name":"On or near North Avenue"},"longitude":"-3.406553"},"context":"","outcome_status":{"category":"Unable to prosecute suspect","date":"2021-01"},"persistent_id":"a17b1937a283a17f5ac9fbf9ca0d4f19ecf002655d8db9df12ccf8413ba470ea","id":87540469,"location_subtype":"","month":"2020-10"},{"category":"public-order","location_type":"Force","location":{"latitude":"53.335127","street":{"id":1046351,"name":"On or near Penisardre Road"},"longitude":"-3.405825"},"context":"","outcome_status":{"category":"Investigation complete; no suspect identified","date":"2020-11"},"persistent_id":"b878aa18f33bec5e945822b51af7a9ea9a652d578ba68c5f9c210c0dba21772b","id":87537896,"location_subtype":"","month":"2020-10"},{"category":"public-order","location_type":"Force","location":{"latitude":"53.329353","street":{"id":1046396,"name":"On or near Dawson Crescent"},"longitude":"-3.408338"},"context":"","outcome_status":{"category":"Unable to prosecute suspect","date":"2021-02"},"persistent_id":"57833545536984f5b5ac8ba7f9929be45e96eb3931b990c8f8e5a7ce3632d4df","id":87537744,"location_subtype":"","month":"2020-10"},{"category":"public-order","location_type":"Force","location":{"latitude":"53.337418","street":{"id":1046586,"name":"On or near Station Road"},"longitude":"-3.405930"},"context":"","outcome_status":{"category":"Local resolution","date":"2021-02"},"persistent_id":"ac3504478ce96ad3ae967ce668d4fc8b6b6c27223beec0664b59803f34798579","id":87538056,"location_subtype":"","month":"2020-10"},{"category":"public-order","location_type":"Force","location":{"latitude":"53.337691","street":{"id":1046554,"name":"On or near Trevor Road"},"longitude":"-3.411016"},"context":"","outcome_status":{"category":"Unable to prosecute suspect","date":"2021-02"},"persistent_id":"95dff929af721fdb8c116ffe5c1f4501247504abebea2c8d9cd3a0c45e352af0","id":87538704,"location_subtype":"","month":"2020-10"},{"category":"robbery","location_type":"Force","location":{"latitude":"53.337691","street":{"id":1046554,"name":"On or near Trevor Road"},"longitude":"-3.411016"},"context":"","outcome_status":{"category":"Unable to prosecute suspect","date":"2021-02"},"persistent_id":"60881cd4513a6bcf546654fe563791433c26e11676f6c7883f1a00f2607683f6","id":87540368,"location_subtype":"","month":"2020-10"},{"category":"shoplifting","location_type":"Force","location":{"latitude":"53.336671","street":{"id":1046544,"name":"On or near Parc Cemlyn"},"longitude":"-3.400679"},"context":"","outcome_status":{"category":"Investigation complete; no suspect identified","date":"2020-10"},"persistent_id":"af19ac0c54db69bdcdcbde7b87b03bc006c933658c6cb612687391735fd313fe","id":87538189,"location_subtype":"","month":"2020-10"},{"category":"shoplifting","location_type":"Force","location":{"latitude":"53.336877","street":{"id":1046589,"name":"On or near Windermere Drive"},"longitude":"-3.415990"},"context":"","outcome_status":{"category":"Investigation complete; no suspect identified","date":"2020-10"},"persistent_id":"fa41d48e50614ab85ecc3d57bc69001281410696967a9f79926320ea3621f6c2","id":87536696,"location_subtype":"","month":"2020-10"},{"category":"shoplifting","location_type":"Force","location":{"latitude":"53.336671","street":{"id":1046544,"name":"On or near Parc Cemlyn"},"longitude":"-3.400679"},"context":"","outcome_status":{"category":"Status update unavailable","date":"2021-02"},"persistent_id":"4e5c74957dbddcfb70721947f0cd15d2d425fe6288c01ebb1abc10f8584036ed","id":87537598,"location_subtype":"","month":"2020-10"},{"category":"shoplifting","location_type":"Force","location":{"latitude":"53.336671","street":{"id":1046544,"name":"On or near Parc Cemlyn"},"longitude":"-3.400679"},"context":"","outcome_status":{"category":"Investigation complete; no suspect identified","date":"2020-11"},"persistent_id":"ee3e026631a3f19c1da5ee54e2c375d3fbef3bf16ce2ed9e1b9b0c6e8671edd7","id":87538187,"location_subtype":"","month":"2020-10"},{"category":"shoplifting","location_type":"Force","location":{"latitude":"53.330856","street":{"id":1046348,"name":"On or near Supermarket"},"longitude":"-3.402861"},"context":"","outcome_status":{"category":"Investigation complete; no suspect identified","date":"2020-10"},"persistent_id":"eee88e61ebe99bacd00386294a5be9a7b459d1188e81044381613f7e37d0be23","id":87539276,"location_subtype":"","month":"2020-10"},{"category":"shoplifting","location_type":"Force","location":{"latitude":"53.335504","street":{"id":1046354,"name":"On or near Church Lane"},"longitude":"-3.404321"},"context":"","outcome_status":{"category":"Investigation complete; no suspect identified","date":"2020-11"},"persistent_id":"d2ea00a7e57409112bbbd5c14325e6a34719d78e778787f9d10df11a1f42b7cf","id":87538385,"location_subtype":"","month":"2020-10"},{"category":"shoplifting","location_type":"Force","location":{"latitude":"53.336671","street":{"id":1046544,"name":"On or near Parc Cemlyn"},"longitude":"-3.400679"},"context":"","outcome_status":{"category":"Investigation complete; no suspect identified","date":"2020-10"},"persistent_id":"395dcadb18a118cc04b85d1e709b415fa5a5df15dc6cf3715d75d7609b650c7a","id":87538188,"location_subtype":"","month":"2020-10"},{"category":"vehicle-crime","location_type":"Force","location":{"latitude":"53.331406","street":{"id":1046469,"name":"On or near Cassandra Court"},"longitude":"-3.401198"},"context":"","outcome_status":{"category":"Formal action is not in the public interest","date":"2021-01"},"persistent_id":"105aa7689981954b06ab1ea4f4f9247a278ae35c1af1b187ad80be39f98f4fb3","id":87539912,"location_subtype":"","month":"2020-10"},{"category":"violent-crime","location_type":"Force","location":{"latitude":"53.338829","street":{"id":1046575,"name":"On or near Marine Road"},"longitude":"-3.402883"},"context":"","outcome_status":{"category":"Investigation complete; no suspect identified","date":"2020-10"},"persistent_id":"dce74354a865a9221a7e55bafbb74239f2b73a7932703fda08f12643730d2d82","id":87536878,"location_subtype":"","month":"2020-10"},{"category":"violent-crime","location_type":"Force","location":{"latitude":"53.340356","street":{"id":1046577,"name":"On or near Highbury Close"},"longitude":"-3.403023"},"context":"","outcome_status":{"category":"Unable to prosecute suspect","date":"2020-12"},"persistent_id":"490a92eacd93533e18f2e84bb29ce5088212e717c02253ec26b4cc397ac90257","id":87539961,"location_subtype":"","month":"2020-10"},{"category":"violent-crime","location_type":"Force","location":{"latitude":"53.337767","street":{"id":1046574,"name":"On or near Morley Road"},"longitude":"-3.404545"},"context":"","outcome_status":{"category":"Unable to prosecute suspect","date":"2020-10"},"persistent_id":"d16146d42bb2b9e117db318e5b051a6be6c82a523f452efe806492bec669c88a","id":87537012,"location_subtype":"","month":"2020-10"},{"category":"violent-crime","location_type":"Force","location":{"latitude":"53.336434","street":{"id":1046551,"name":"On or near Bodnant Avenue"},"longitude":"-3.397142"},"context":"","outcome_status":{"category":"Investigation complete; no suspect identified","date":"2020-11"},"persistent_id":"27cf6940e35d902385ead72c072ac62935b5b56d4f5ed4a4615c79988e3b0d92","id":87537960,"location_subtype":"","month":"2020-10"},{"category":"violent-crime","location_type":"Force","location":{"latitude":"53.335824","street":{"id":1046608,"name":"On or near Rhodfa Cowlyd"},"longitude":"-3.426589"},"context":"","outcome_status":{"category":"Action to be taken by another organisation","date":"2021-02"},"persistent_id":"957721835360fbc89989f6d1a2bd217ed70382b5aa27da53846e65c5c4413d05","id":87536745,"location_subtype":"","month":"2020-10"},{"category":"violent-crime","location_type":"Force","location":{"latitude":"53.337767","street":{"id":1046574,"name":"On or near Morley Road"},"longitude":"-3.404545"},"context":"","outcome_status":{"category":"Unable to prosecute suspect","date":"2020-10"},"persistent_id":"5db757e0455717708509b22adf58d2cb03df924e1f7daa0aacba1ca6e3aedcf5","id":87537642,"location_subtype":"","month":"2020-10"},{"category":"violent-crime","location_type":"Force","location":{"latitude":"53.333504","street":{"id":1046276,"name":"On or near Penley Avenue"},"longitude":"-3.424394"},"context":"","outcome_status":{"category":"Action to be taken by another organisation","date":"2021-02"},"persistent_id":"bf2c576d0f1d8a60861f5c28956387354b01f08deddeb7a827364ca18115af5e","id":87539485,"location_subtype":"","month":"2020-10"},{"category":"violent-crime","location_type":"Force","location":{"latitude":"53.324611","street":{"id":1046333,"name":"On or near Melyd Avenue"},"longitude":"-3.407236"},"context":"","outcome_status":{"category":"Unable to prosecute suspect","date":"2020-10"},"persistent_id":"9ca099362129a9d0af401dc3114b6afa422384def5f0f1709a16762f9428b10e","id":87538275,"location_subtype":"","month":"2020-10"},{"category":"violent-crime","location_type":"Force","location":{"latitude":"53.337767","street":{"id":1046574,"name":"On or near Morley Road"},"longitude":"-3.404545"},"context":"","outcome_status":{"category":"Unable to prosecute suspect","date":"2020-10"},"persistent_id":"6ba6572a0eb24993a8ec5e7d16fd4c5b3c95aa1827f1b15416569d461163b7e3","id":87538895,"location_subtype":"","month":"2020-10"},{"category":"violent-crime","location_type":"Force","location":{"latitude":"53.337418","street":{"id":1046586,"name":"On or near Station Road"},"longitude":"-3.405930"},"context":"","outcome_status":{"category":"Unable to prosecute suspect","date":"2021-02"},"persistent_id":"c35b7259bd356998d20e43bb666c551c95546e48d8c71724f00053bce5beaffe","id":87538277,"location_subtype":"","month":"2020-10"},{"category":"violent-crime","location_type":"Force","location":{"latitude":"53.338065","street":{"id":1046539,"name":"On or near Caradoc Road"},"longitude":"-3.402182"},"context":"","outcome_status":{"category":"Unable to prosecute suspect","date":"2020-10"},"persistent_id":"927d019b0c6beb0a6344148c87cf8c5ae1a376a3a68939302ede7805f86e3b25","id":87539487,"location_subtype":"","month":"2020-10"},{"category":"violent-crime","location_type":"Force","location":{"latitude":"53.339439","street":{"id":1046540,"name":"On or near Aber Road"},"longitude":"-3.402227"},"context":"","outcome_status":{"category":"Investigation complete; no suspect identified","date":"2021-02"},"persistent_id":"c920d902589d8afaf26a31a2526057c333ba16b9009771bf30f4fa95a105e907","id":87537349,"location_subtype":"","month":"2020-10"},{"category":"violent-crime","location_type":"Force","location":{"latitude":"53.327245","street":{"id":1046386,"name":"On or near Gordon Avenue"},"longitude":"-3.407968"},"context":"","outcome_status":{"category":"Further action is not in the public interest","date":"2021-02"},"persistent_id":"fe3b26249919485ba91b20191ddf8bd119d4e5a0c40f4256737a74c35f595c87","id":87538276,"location_subtype":"","month":"2020-10"},{"category":"violent-crime","location_type":"Force","location":{"latitude":"53.338065","street":{"id":1046539,"name":"On or near Caradoc Road"},"longitude":"-3.402182"},"context":"","outcome_status":{"category":"Unable to prosecute suspect","date":"2020-10"},"persistent_id":"d1b23508ff4eef21fd1f159e5b1fd8095c06e1d6a3c56f0462c7488fd2939aca","id":87539962,"location_subtype":"","month":"2020-10"},{"category":"violent-crime","location_type":"Force","location":{"latitude":"53.333249","street":{"id":1046323,"name":"On or near Victoria Avenue"},"longitude":"-3.404202"},"context":"","outcome_status":{"category":"Unable to prosecute suspect","date":"2021-02"},"persistent_id":"2aede1de4691ae805a4f89b4aff5de4a7038c22e17ef117c5fef21f2f3817f84","id":87540810,"location_subtype":"","month":"2020-10"},{"category":"violent-crime","location_type":"Force","location":{"latitude":"53.325867","street":{"id":1046468,"name":"On or near Chatsworth Close"},"longitude":"-3.399770"},"context":"","outcome_status":{"category":"Further investigation is not in the public interest","date":"2021-01"},"persistent_id":"df0e2f61e4f1f6cedd935711886307e76124e0559fa59efb872ce31d33020ae7","id":87537816,"location_subtype":"","month":"2020-10"},{"category":"violent-crime","location_type":"Force","location":{"latitude":"53.335527","street":{"id":1046421,"name":"On or near Gwelfryn"},"longitude":"-3.412281"},"context":"","outcome_status":{"category":"Further investigation is not in the public interest","date":"2020-11"},"persistent_id":"2c3cb47d87bf94b506ec905dcbc5bebb6bd2fbff265f00e4298bcabf82a1c6fc","id":87540506,"location_subtype":"","month":"2020-10"},{"category":"violent-crime","location_type":"Force","location":{"latitude":"53.330104","street":{"id":1046453,"name":"On or near Palmeira Gardens"},"longitude":"-3.401080"},"context":"","outcome_status":{"category":"Unable to prosecute suspect","date":"2021-01"},"persistent_id":"314b46b587f9795898847f8968d005f56d60514bb54c54dcf3b5d4a12a13970c","id":87538460,"location_subtype":"","month":"2020-10"},{"category":"violent-crime","location_type":"Force","location":{"latitude":"53.338859","street":{"id":1046535,"name":"On or near Hafod Y Mor"},"longitude":"-3.399595"},"context":"","outcome_status":{"category":"Status update unavailable","date":"2021-02"},"persistent_id":"e03cdb5c4747705642924c52837a25d062a3e6aa0c0e58db2403c61830a3fb81","id":87540080,"location_subtype":"","month":"2020-10"},{"category":"violent-crime","location_type":"Force","location":{"latitude":"53.338233","street":{"id":1046579,"name":"On or near Cae'r Nant"},"longitude":"-3.402353"},"context":"","outcome_status":{"category":"Unable to prosecute suspect","date":"2021-01"},"persistent_id":"1b8a9d346fd05f2e00db881bea59bf191ce060e371a709b6d031c3b0ea3576b1","id":87539823,"location_subtype":"","month":"2020-10"},{"category":"violent-crime","location_type":"Force","location":{"latitude":"53.333390","street":{"id":1046456,"name":"On or near Norfolk Avenue"},"longitude":"-3.400632"},"context":"","outcome_status":{"category":"Unable to prosecute suspect","date":"2021-02"},"persistent_id":"b538fb3762fc51c5a1b3a0b4f4ea92e87e13cbaa82ed47576d1dea9878fda2f8","id":87539045,"location_subtype":"","month":"2020-10"},{"category":"violent-crime","location_type":"Force","location":{"latitude":"53.340854","street":{"id":1046558,"name":"On or near Second Avenue"},"longitude":"-3.414860"},"context":"","outcome_status":{"category":"Action to be taken by another organisation","date":"2021-01"},"persistent_id":"4bd703b044001c88cf272039f20176aac98bb077c456bd9f73cd06a5a929e227","id":87539325,"location_subtype":"","month":"2020-10"},{"category":"violent-crime","location_type":"Force","location":{"latitude":"53.338233","street":{"id":1046579,"name":"On or near Cae'r Nant"},"longitude":"-3.402353"},"context":"","outcome_status":{"category":"Unable to prosecute suspect","date":"2021-02"},"persistent_id":"2fc766f8c3445cc61272b6cec9e6dbe36c43284b534dee564da40314b59fd960","id":87538627,"location_subtype":"","month":"2020-10"},{"category":"violent-crime","location_type":"Force","location":{"latitude":"53.332610","street":{"id":1046332,"name":"On or near North Avenue"},"longitude":"-3.406553"},"context":"","outcome_status":{"category":"Unable to prosecute suspect","date":"2020-11"},"persistent_id":"66b90abd23195bb36b5092f73b5225571bcfe8051dc1e248ad0ddefed3d5545d","id":87536584,"location_subtype":"","month":"2020-10"},{"category":"violent-crime","location_type":"Force","location":{"latitude":"53.336671","street":{"id":1046544,"name":"On or near Parc Cemlyn"},"longitude":"-3.400679"},"context":"","outcome_status":{"category":"Unable to prosecute suspect","date":"2021-02"},"persistent_id":"d4cd83b6679e49eec8689b65621e638678424d457886b9e62fba269a7f5ef6b4","id":87539167,"location_subtype":"","month":"2020-10"},{"category":"violent-crime","location_type":"Force","location":{"latitude":"53.338233","street":{"id":1046579,"name":"On or near Cae'r Nant"},"longitude":"-3.402353"},"context":"","outcome_status":{"category":"Awaiting court outcome","date":"2020-11"},"persistent_id":"f8798a5a0377be8c6a396e6d02decc14612778097f7bc05fff09f751d51b6c37","id":87539166,"location_subtype":"","month":"2020-10"},{"category":"violent-crime","location_type":"Force","location":{"latitude":"53.331468","street":{"id":1046373,"name":"On or near Nursery Close"},"longitude":"-3.408873"},"context":"","outcome_status":{"category":"Unable to prosecute suspect","date":"2020-11"},"persistent_id":"0220f0bc4326757b02336f31bfe281899fe1590ca3ec6f8c9f24587aecd4e291","id":87537813,"location_subtype":"","month":"2020-10"},{"category":"violent-crime","location_type":"Force","location":{"latitude":"53.337230","street":{"id":1046588,"name":"On or near Bastion Road"},"longitude":"-3.407411"},"context":"","outcome_status":{"category":"Unable to prosecute suspect","date":"2021-02"},"persistent_id":"f3c05a27343597ef521b83d5ff5448992174907b44780fc5b2aae7358da0fe8c","id":87539822,"location_subtype":"","month":"2020-10"},{"category":"violent-crime","location_type":"Force","location":{"latitude":"53.336662","street":{"id":1046599,"name":"On or near Coniston Drive"},"longitude":"-3.417410"},"context":"","outcome_status":{"category":"Unable to prosecute suspect","date":"2020-12"},"persistent_id":"8d4ef34a147ea78495cdefa88ee15e3c0848040e1931ae5d4896c650b94485e2","id":87539960,"location_subtype":"","month":"2020-10"},{"category":"violent-crime","location_type":"Force","location":{"latitude":"53.332610","street":{"id":1046332,"name":"On or near North Avenue"},"longitude":"-3.406553"},"context":"","outcome_status":{"category":"Unable to prosecute suspect","date":"2021-02"},"persistent_id":"f77bdad9626e2d16b3eebd779fd01419b3ec311e1c80b91f3ee892e002fa4ec5","id":87540507,"location_subtype":"","month":"2020-10"},{"category":"violent-crime","location_type":"Force","location":{"latitude":"53.339109","street":{"id":1046580,"name":"On or near Brook Park Avenue"},"longitude":"-3.402832"},"context":"","outcome_status":{"category":"Awaiting court outcome","date":"2020-10"},"persistent_id":"5c8e2e461d943c7628f793645cc93b349e4bdf813fc94750f3c53cb4a7ff8e1d","id":87540508,"location_subtype":"","month":"2020-10"},{"category":"violent-crime","location_type":"Force","location":{"latitude":"53.329353","street":{"id":1046396,"name":"On or near Dawson Crescent"},"longitude":"-3.408338"},"context":"","outcome_status":{"category":"Unable to prosecute suspect","date":"2021-02"},"persistent_id":"ddedd165cb2b568af1346895465685aeb567f647b507390763fae277587f7884","id":87537814,"location_subtype":"","month":"2020-10"},{"category":"violent-crime","location_type":"Force","location":{"latitude":"53.339109","street":{"id":1046580,"name":"On or near Brook Park Avenue"},"longitude":"-3.402832"},"context":"","outcome_status":{"category":"Unable to prosecute suspect","date":"2020-10"},"persistent_id":"87c730436f4f08654edebfe5f1dfb75c74af3c161bbe0e24eb2a7c7b08781e68","id":87536585,"location_subtype":"","month":"2020-10"},{"category":"violent-crime","location_type":"Force","location":{"latitude":"53.331468","street":{"id":1046373,"name":"On or near Nursery Close"},"longitude":"-3.408873"},"context":"","outcome_status":{"category":"Unable to prosecute suspect","date":"2021-02"},"persistent_id":"fb5dd35b3791c45c342272c4b034a7240b7b11f8d70a58fb4e7aab5af55d7ba4","id":87537812,"location_subtype":"","month":"2020-10"},{"category":"violent-crime","location_type":"Force","location":{"latitude":"53.329353","street":{"id":1046396,"name":"On or near Dawson Crescent"},"longitude":"-3.408338"},"context":"","outcome_status":{"category":"Status update unavailable","date":"2021-02"},"persistent_id":"caa7ea5b5290d05097e90fac86a376b90ce86ca9510b6cd490449af2539f9994","id":87537815,"location_subtype":"","month":"2020-10"},{"category":"violent-crime","location_type":"Force","location":{"latitude":"53.329353","street":{"id":1046396,"name":"On or near Dawson Crescent"},"longitude":"-3.408338"},"context":"","outcome_status":{"category":"Local resolution","date":"2021-02"},"persistent_id":"6edaed66a70e8abe93ff65f2573c369e2996ed8a0f4fef2503658ff0a7f2a114","id":87537641,"location_subtype":"","month":"2020-10"},{"category":"violent-crime","location_type":"Force","location":{"latitude":"53.329353","street":{"id":1046396,"name":"On or near Dawson Crescent"},"longitude":"-3.408338"},"context":"","outcome_status":{"category":"Unable to prosecute suspect","date":"2021-01"},"persistent_id":"7bdf268401aec250e0dab236a734c89f3f3c9098ae7e10448fe35b33731a9c0a","id":87539641,"location_subtype":"","month":"2020-10"},{"category":"violent-crime","location_type":"Force","location":{"latitude":"53.338233","street":{"id":1046579,"name":"On or near Cae'r Nant"},"longitude":"-3.402353"},"context":"","outcome_status":{"category":"Awaiting court outcome","date":"2020-11"},"persistent_id":"16fc0956cb1fb1a7948f781949a70bd3f1688fc1dc46db7febed4bba2de16fd6","id":87539824,"location_subtype":"","month":"2020-10"},{"category":"violent-crime","location_type":"Force","location":{"latitude":"53.337281","street":{"id":1046598,"name":"On or near Derwent Close"},"longitude":"-3.415253"},"context":"","outcome_status":{"category":"Unable to prosecute suspect","date":"2020-12"},"persistent_id":"c50f3c1828d7fe36df521895da0a54c8d736f505dbde1efa2daf18c4193cad53","id":87538624,"location_subtype":"","month":"2020-10"},{"category":"violent-crime","location_type":"Force","location":{"latitude":"53.335064","street":{"id":1046353,"name":"On or near Lon Alwen"},"longitude":"-3.404291"},"context":"","outcome_status":{"category":"Unable to prosecute suspect","date":"2020-11"},"persistent_id":"eda41a6bcc61d83b524628bf0852b967e8306279ac0e4dd4a9c30ad7fd233889","id":87538764,"location_subtype":"","month":"2020-10"},{"category":"violent-crime","location_type":"Force","location":{"latitude":"53.337691","street":{"id":1046554,"name":"On or near Trevor Road"},"longitude":"-3.411016"},"context":"","outcome_status":{"category":"Unable to prosecute suspect","date":"2021-02"},"persistent_id":"51d2abd57318f513e423f26f4cad813e23634b5deda040c7817494d9d3462ec0","id":87538761,"location_subtype":"","month":"2020-10"},{"category":"violent-crime","location_type":"Force","location":{"latitude":"53.335064","street":{"id":1046353,"name":"On or near Lon Alwen"},"longitude":"-3.404291"},"context":"","outcome_status":{"category":"Unable to prosecute suspect","date":"2021-02"},"persistent_id":"e56a8e32f37cf8f2883edef2f15732afd6a5dd6b17908e274688b6201663a5a4","id":87538763,"location_subtype":"","month":"2020-10"},{"category":"violent-crime","location_type":"Force","location":{"latitude":"53.333237","street":{"id":1046452,"name":"On or near Parc Aberconwy"},"longitude":"-3.388358"},"context":"","outcome_status":{"category":"Unable to prosecute suspect","date":"2021-02"},"persistent_id":"fa2f77c15f1ad06b5191c808acf90047ebc5253e39a87912b4b15a03c621a0d8","id":87537961,"location_subtype":"","month":"2020-10"},{"category":"violent-crime","location_type":"Force","location":{"latitude":"53.333189","street":{"id":1046407,"name":"On or near Beverley Drive"},"longitude":"-3.422221"},"context":"","outcome_status":{"category":"Unable to prosecute suspect","date":"2020-12"},"persistent_id":"8e48912b49ff9b75f14e6431f8c8c392ab2c89b332d68adb280705edb0e7ed51","id":87537810,"location_subtype":"","month":"2020-10"},{"category":"violent-crime","location_type":"Force","location":{"latitude":"53.339234","street":{"id":1046536,"name":"On or near Hafod Road"},"longitude":"-3.400568"},"context":"","outcome_status":{"category":"Unable to prosecute suspect","date":"2021-02"},"persistent_id":"fba6674ab112be33dea6b376f8f0736ac9140785538381234a55c475abbfb726","id":87539168,"location_subtype":"","month":"2020-10"},{"category":"violent-crime","location_type":"Force","location":{"latitude":"53.340356","street":{"id":1046577,"name":"On or near Highbury Close"},"longitude":"-3.403023"},"context":"","outcome_status":{"category":"Unable to prosecute suspect","date":"2020-12"},"persistent_id":"a01d402efc0109eda612c2fa066ac1959048a97215a621f7feb2df5ab9b07456","id":87539165,"location_subtype":"","month":"2020-10"},{"category":"violent-crime","location_type":"Force","location":{"latitude":"53.335769","street":{"id":1046607,"name":"On or near Rhodfa Peris"},"longitude":"-3.427458"},"context":"","outcome_status":{"category":"Further investigation is not in the public interest","date":"2020-12"},"persistent_id":"9fcc57359795c4be8f446195ca4ef82bac9d68065bb0dcdf06785e1c02e22701","id":87539484,"location_subtype":"","month":"2020-10"},{"category":"violent-crime","location_type":"Force","location":{"latitude":"53.338233","street":{"id":1046579,"name":"On or near Cae'r Nant"},"longitude":"-3.402353"},"context":"","outcome_status":{"category":"Awaiting court outcome","date":"2020-11"},"persistent_id":"1ff5710cf123c868954177291e9f4477fe86321c322246909583c67cdd7e0f7e","id":87539488,"location_subtype":"","month":"2020-10"},{"category":"violent-crime","location_type":"Force","location":{"latitude":"53.328614","street":{"id":1046402,"name":"On or near Chester Close"},"longitude":"-3.419876"},"context":"","outcome_status":{"category":"Status update unavailable","date":"2021-02"},"persistent_id":"830c9e9cf3ac72f560af7410c9a3bd1a9ed058f524fba5796b9e7ad1bf04635b","id":87538274,"location_subtype":"","month":"2020-10"},{"category":"violent-crime","location_type":"Force","location":{"latitude":"53.330643","street":{"id":1046329,"name":"On or near South Avenue"},"longitude":"-3.405723"},"context":"","outcome_status":{"category":"Formal action is not in the public interest","date":"2021-02"},"persistent_id":"057f1a7fe5d0dfc028bfa178e67ad84372f8b5b52d8b13bfcbdeecff65597bcb","id":87536747,"location_subtype":"","month":"2020-10"},{"category":"violent-crime","location_type":"Force","location":{"latitude":"53.330643","street":{"id":1046329,"name":"On or near South Avenue"},"longitude":"-3.405723"},"context":"","outcome_status":{"category":"Formal action is not in the public interest","date":"2021-02"},"persistent_id":"e0a14d50fb79ff398d3658d002de99e1b68f5c0f52f754efc6659d7274c100c3","id":87536748,"location_subtype":"","month":"2020-10"},{"category":"other-crime","location_type":"Force","location":{"latitude":"53.338829","street":{"id":1046575,"name":"On or near Marine Road"},"longitude":"-3.402883"},"context":"","outcome_status":{"category":"Status update unavailable","date":"2021-02"},"persistent_id":"7adc5600001a048bd98a613770005062ad8e36581c16d727d96772021d3cef9b","id":87538528,"location_subtype":"","month":"2020-10"},{"category":"other-crime","location_type":"Force","location":{"latitude":"53.337281","street":{"id":1046598,"name":"On or near Derwent Close"},"longitude":"-3.415253"},"context":"","outcome_status":{"category":"Unable to prosecute suspect","date":"2021-02"},"persistent_id":"11ae4dc72ce09a9c5e9dcef1bb1f4dcd197e8cef3b64593bb46b3c5841707117","id":87538346,"location_subtype":"","month":"2020-10"}]