[{"category":"anti-social-behaviour","location_type":"Force","location":{"latitude":"53.335504","street":{"id":1046354,"name":"On or near Church Lane"},"longitude":"-3.404321"},"context":"","outcome_status":null,"persistent_id":"","id":84488716,"location_subtype":"","month":"2020-06"},{"category":"anti-social-behaviour","location_type":"Force","location":{"latitude":"53.324591","street":{"id":1046470,"name":"On or near Calthorpe Drive"},"longitude":"-3.400509"},"context":"","outcome_status":null,"persistent_id":"","id":84488164,"location_subtype":"","month":"2020-06"},{"category":"anti-social-behaviour","location_type":"Force","location":{"latitude":"53.339138","street":{"id":1046565,"name":"On or near Glan Mor"},"longitude":"-3.411755"},"context":"","outcome_status":null,"persistent_id":"","id":84488216,"location_subtype":"","month":"2020-06"},{"category":"anti-social-behaviour","location_type":"Force","location":{"latitude":"53.336877","street":{"id":1046589,"name":"On or near Windermere Drive"},"longitude":"-3.415990"},"context":"","outcome_status":null,"persistent_id":"","id":84487762,"location_subtype":"","month":"2020-06"},{"category":"anti-social-behaviour","location_type":"Force","location":{"latitude":"53.339138","street":{"id":1046565,"name":"On or near Glan Mor"},"longitude":"-3.411755"},"context":"","outcome_status":null,"persistent_id":"","id":84488217,"location_subtype":"","month":"2020-06"},{"category":"anti-social-behaviour","location_type":"Force","location":{"latitude":"53.335334","street":{"id":1046350,"name":"On or near Parking Area"},"longitude":"-3.402768"},"context":"","outcome_status":null,"persistent_id":"","id":84488768,"location_subtype":"","month":"2020-06"},{"category":"anti-social-behaviour","location_type":"Force","location":{"latitude":"53.335635","street":{"id":1046591,"name":"On or near Tywyn Isaf"},"longitude":"-3.414567"},"context":"","outcome_status":null,"persistent_id":"","id":84487826,"location_subtype":"","month":"2020-06"},{"category":"anti-social-behaviour","location_type":"Force","location":{"latitude":"53.335806","street":{"id":1046585,"name":"On or near Parking Area"},"longitude":"-3.406959"},"context":"","outcome_status":null,"persistent_id":"","id":84487993,"location_subtype":"","month":"2020-06"},{"category":"anti-social-behaviour","location_type":"Force","location":{"latitude":"53.335877","street":{"id":1046600,"name":"On or near Chapel Road"},"longitude":"-3.416167"},"context":"","outcome_status":null,"persistent_id":"","id":84488103,"location_subtype":"","month":"2020-06"},{"category":"anti-social-behaviour","location_type":"Force","location":{"latitude":"53.330643","street":{"id":1046329,"name":"On or near South Avenue"},"longitude":"-3.405723"},"context":"","outcome_status":null,"persistent_id":"","id":84488105,"location_subtype":"","month":"2020-06"},{"category":"anti-social-behaviour","location_type":"Force","location":{"latitude":"53.336671","street":{"id":1046544,"name":"On or near Parc Cemlyn"},"longitude":"-3.400679"},"context":"","outcome_status":null,"persistent_id":"","id":84488163,"location_subtype":"","month":"2020-06"},{"category":"anti-social-behaviour","location_type":"Force","location":{"latitude":"53.335635","street":{"id":1046591,"name":"On or near Tywyn Isaf"},"longitude":"-3.414567"},"context":"","outcome_status":null,"persistent_id":"","id":84488604,"location_subtype":"","month":"2020-06"},{"category":"anti-social-behaviour","location_type":"Force","location":{"latitude":"53.335504","street":{"id":1046354,"name":"On or near Church Lane"},"longitude":"-3.404321"},"context":"","outcome_status":null,"persistent_id":"","id":84488653,"location_subtype":"","month":"2020-06"},{"category":"anti-social-behaviour","location_type":"Force","location":{"latitude":"53.339138","street":{"id":1046565,"name":"On or near Glan Mor"},"longitude":"-3.411755"},"context":"","outcome_status":null,"persistent_id":"","id":84488715,"location_subtype":"","month":"2020-06"},{"category":"anti-social-behaviour","location_type":"Force","location":{"latitude":"53.333189","street":{"id":1046407,"name":"On or near Beverley Drive"},"longitude":"-3.422221"},"context":"","outcome_status":null,"persistent_id":"","id":84488822,"location_subtype":"","month":"2020-06"},{"category":"anti-social-behaviour","location_type":"Force","location":{"latitude":"53.335202","street":{"id":1046415,"name":"On or near South Meadow Close"},"longitude":"-3.419269"},"context":"","outcome_status":null,"persistent_id":"","id":84489254,"location_subtype":"","month":"2020-06"},{"category":"anti-social-behaviour","location_type":"Force","location":{"latitude":"53.333273","street":{"id":1046467,"name":"On or near Church Walks"},"longitude":"-3.401394"},"context":"","outcome_status":null,"persistent_id":"","id":84489255,"location_subtype":"","month":"2020-06"},{"category":"anti-social-behaviour","location_type":"Force","location":{"latitude":"53.336671","street":{"id":1046544,"name":"On or near Parc Cemlyn"},"longitude":"-3.400679"},"context":"","outcome_status":null,"persistent_id":"","id":84489306,"location_subtype":"","month":"2020-06"},{"category":"anti-social-behaviour","location_type":"Force","location":{"latitude":"53.340215","street":{"id":1046538,"name":"On or near Cadnant Avenue"},"longitude":"-3.398948"},"context":"","outcome_status":null,"persistent_id":"","id":84488876,"location_subtype":"","month":"2020-06"},{"category":"anti-social-behaviour","location_type":"Force","location":{"latitude":"53.332262","street":{"id":1046338,"name":"On or near Fern Avenue"},"longitude":"-3.402532"},"context":"","outcome_status":null,"persistent_id":"","id":84488464,"location_subtype":"","month":"2020-06"},{"category":"anti-social-behaviour","location_type":"Force","location":{"latitude":"53.324611","street":{"id":1046333,"name":"On or near Melyd Avenue"},"longitude":"-3.407236"},"context":"","outcome_status":null,"persistent_id":"","id":84488875,"location_subtype":"","month":"2020-06"},{"category":"anti-social-behaviour","location_type":"Force","location":{"latitude":"53.335064","street":{"id":1046353,"name":"On or near Lon Alwen"},"longitude":"-3.404291"},"context":"","outcome_status":null,"persistent_id":"","id":84488937,"location_subtype":"","month":"2020-06"},{"category":"anti-social-behaviour","location_type":"Force","location":{"latitude":"53.336671","street":{"id":1046544,"name":"On or near Parc Cemlyn"},"longitude":"-3.400679"},"context":"","outcome_status":null,"persistent_id":"","id":84488938,"location_subtype":"","month":"2020-06"},{"category":"anti-social-behaviour","location_type":"Force","location":{"latitude":"53.340215","street":{"id":1046538,"name":"On or near Cadnant Avenue"},"longitude":"-3.398948"},"context":"","outcome_status":null,"persistent_id":"","id":84488939,"location_subtype":"","month":"2020-06"},{"category":"anti-social-behaviour","location_type":"Force","location":{"latitude":"53.337418","street":{"id":1046586,"name":"On or near Station Road"},"longitude":"-3.405930"},"context":"","outcome_status":null,"persistent_id":"","id":84489025,"location_subtype":"","month":"2020-06"},{"category":"anti-social-behaviour","location_type":"Force","location":{"latitude":"53.331468","street":{"id":1046373,"name":"On or near Nursery Close"},"longitude":"-3.408873"},"context":"","outcome_status":null,"persistent_id":"","id":84489096,"location_subtype":"","month":"2020-06"},{"category":"anti-social-behaviour","location_type":"Force","location":{"latitude":"53.335127","street":{"id":1046351,"name":"On or near Penisardre Road"},"longitude":"-3.405825"},"context":"","outcome_status":null,"persistent_id":"","id":84488463,"location_subtype":"","month":"2020-06"},{"category":"anti-social-behaviour","location_type":"Force","location":{"latitude":"53.335202","street":{"id":1046415,"name":"On or near South Meadow Close"},"longitude":"-3.419269"},"context":"","outcome_status":null,"persistent_id":"","id":84489186,"location_subtype":"","month":"2020-06"},{"category":"bicycle-theft","location_type":"Force","location":{"latitude":"53.336600","street":{"id":1046595,"name":"On or near Grasmere Close"},"longitude":"-3.418084"},"context":"","outcome_status":{"category":"Investigation complete; no suspect identified","date":"2020-09"},"persistent_id":"bc904e1af40ae9a7f9309cac4588ff48af9964d980100367532fedf0fbd519b8","id":84491658,"location_subtype":"","month":"2020-06"},{"category":"bicycle-theft","location_type":"Force","location":{"latitude":"53.326626","street":{"id":1046409,"name":"On or near Sports/recreation Area"},"longitude":"-3.411657"},"context":"","outcome_status":{"category":"Unable to prosecute suspect","date":"2020-06"},"persistent_id":"5e6c92b0b8dfeff49a383e8b7725ada2e650a62c27ee1b84101e11992c35f6b4","id":84492533,"location_subtype":"","month":"2020-06"},{"category":"bicycle-theft","location_type":"Force","location":{"latitude":"53.336600","street":{"id":1046595,"name":"On or near Grasmere Close"},"longitude":"-3.418084"},"context":"","outcome_status":{"category":"Investigation complete; no suspect identified","date":"2020-10"},"persistent_id":"df6b638d296312cf9272f97f1978a8f61de52d910fdfeb561bab5a53bd702367","id":84491657,"location_subtype":"","month":"2020-06"},{"category":"burglary","location_type":"Force","location":{"latitude":"53.335806","street":{"id":1046585,"name":"On or near Parking Area"},"longitude":"-3.406959"},"context":"","outcome_status":{"category":"Status update unavailable","date":"2020-10"},"persistent_id":"4a8523afa48ccf4d6ac2d4d711acb5982a6055353a3fe0fb2e2d32f4e4c5035b","id":84490526,"location_subtype":"","month":"2020-06"},{"category":"burglary","location_type":"Force","location":{"latitude":"53.334200","street":{"id":1046419,"name":"On or near Overton Avenue"},"longitude":"-3.420302"},"context":"","outcome_status":{"category":"Unable to prosecute suspect","date":"2020-11"},"persistent_id":"ab32bfafc68752af7523bca3a6c189a35bd4eecaad0f927ae8a7c9c115bd73ce","id":84493034,"location_subtype":"","month":"2020-06"},{"category":"criminal-damage-arson","location_type":"Force","location":{"latitude":"53.339234","street":{"id":1046536,"name":"On or near Hafod Road"},"longitude":"-3.400568"},"context":"","outcome_status":{"category":"Unable to prosecute suspect","date":"2020-12"},"persistent_id":"741d6e47f283fd18a1cb43f6ff899c52679e3172149965020345b61fecf8c1c6","id":84489991,"location_subtype":"","month":"2020-06"},{"category":"criminal-damage-arson","location_type":"BTP","location":{"latitude":"53.336100","street":{"id":1488983,"name":"Prestatyn (station)"},"longitude":"-3.407130"},"context":"","outcome_status":{"category":"Status update unavailable","date":"2020-10"},"persistent_id":"","id":89407959,"location_subtype":"STATION","month":"2020-06"},{"category":"criminal-damage-arson","location_type":"Force","location":{"latitude":"53.340356","street":{"id":1046577,"name":"On or near Highbury Close"},"longitude":"-3.403023"},"context":"","outcome_status":{"category":"Unable to prosecute suspect","date":"2020-06"},"persistent_id":"fdea8797e9720792cd18f985d22e833a6448d0fdc554923bdd22f57b7f7688a9","id":84490954,"location_subtype":"","month":"2020-06"},{"category":"criminal-damage-arson","location_type":"Force","location":{"latitude":"53.341313","street":{"id":1035255,"name":"On or near Warren Close"},"longitude":"-3.393472"},"context":"","outcome_status":{"category":"Investigation complete; no suspect identified","date":"2020-06"},"persistent_id":"1ba1da40c13416b76d23d099fc9d9f5eb858a4ac08c7ab2ab1b092fed6086d11","id":84492381,"location_subtype":"","month":"2020-06"},{"category":"criminal-damage-arson","location_type":"Force","location":{"latitude":"53.337417","street":{"id":1046541,"name":"On or near Rhodfa Derwen"},"longitude":"-3.389184"},"context":"","outcome_status":{"category":"Court result unavailable","date":"2021-01"},"persistent_id":"47a27237532d0f6845a34be241334d41cb814f046ba2453368371cfa928a21ef","id":84493621,"location_subtype":"","month":"2020-06"},{"category":"criminal-damage-arson","location_type":"Force","location":{"latitude":"53.333043","street":{"id":1046447,"name":"On or near Priory Lane"},"longitude":"-3.401101"},"context":"","outcome_status":{"category":"Investigation complete; no suspect identified","date":"2020-10"},"persistent_id":"b2a125f058c21404e5376b2a4329c2bf5edf3086e39eee42e7023406a9bafab7","id":84492234,"location_subtype":"","month":"2020-06"},{"category":"criminal-damage-arson","location_type":"Force","location":{"latitude":"53.334541","street":{"id":1046420,"name":"On or near Min Y Morfa"},"longitude":"-3.416574"},"context":"","outcome_status":{"category":"Investigation complete; no suspect identified","date":"2020-06"},"persistent_id":"8a4a0e47a6344c9c55009bd7ed3c4cdf39f18f38eb06159083ea00339780db1e","id":84489683,"location_subtype":"","month":"2020-06"},{"category":"drugs","location_type":"Force","location":{"latitude":"53.338829","street":{"id":1046575,"name":"On or near Marine Road"},"longitude":"-3.402883"},"context":"","outcome_status":{"category":"Awaiting court outcome","date":"2020-12"},"persistent_id":"1990129243c83cba6609648036eb62e2e65a75aefc9f7d0fe1e69d31735d75f9","id":84489692,"location_subtype":"","month":"2020-06"},{"category":"drugs","location_type":"Force","location":{"latitude":"53.339234","street":{"id":1046536,"name":"On or near Hafod Road"},"longitude":"-3.400568"},"context":"","outcome_status":{"category":"Court result unavailable","date":"2020-12"},"persistent_id":"957f2527abc38396597015340b129abacf0df0ff4ae57a46a5e6203f3da33344","id":84491095,"location_subtype":"","month":"2020-06"},{"category":"other-theft","location_type":"Force","location":{"latitude":"53.335635","street":{"id":1046591,"name":"On or near Tywyn Isaf"},"longitude":"-3.414567"},"context":"","outcome_status":{"category":"Unable to prosecute suspect","date":"2020-06"},"persistent_id":"88338ce1163b33032574bebd9b755af4bab675dfcb057f87956917dcbdbfafe3","id":84491847,"location_subtype":"","month":"2020-06"},{"category":"other-theft","location_type":"Force","location":{"latitude":"53.328463","street":{"id":1035194,"name":"On or near St James Drive"},"longitude":"-3.412934"},"context":"","outcome_status":{"category":"Unable to prosecute suspect","date":"2020-07"},"persistent_id":"19e91f3efd9df6afb151b6e20b379ad43e9dc2087bce4f23504c4730467b47e6","id":84490384,"location_subtype":"","month":"2020-06"},{"category":"other-theft","location_type":"Force","location":{"latitude":"53.328463","street":{"id":1035194,"name":"On or near St James Drive"},"longitude":"-3.412934"},"context":"","outcome_status":{"category":"Unable to prosecute suspect","date":"2020-07"},"persistent_id":"14176f926fc714ea43d88b4b05bc0ce05d0bb67c6f40088156c65de92a33cbba","id":84490385,"location_subtype":"","month":"2020-06"},{"category":"other-theft","location_type":"Force","location":{"latitude":"53.332598","street":{"id":1046335,"name":"On or near Maes-y-groes"},"longitude":"-3.403820"},"context":"","outcome_status":{"category":"Investigation complete; no suspect identified","date":"2020-07"},"persistent_id":"32dc368f4de35e00ab9e77d451a7179dc99f98a0891d921cebfb834f89618b8d","id":84493643,"location_subtype":"","month":"2020-06"},{"category":"other-theft","location_type":"Force","location":{"latitude":"53.334923","street":{"id":1046413,"name":"On or near Tywyn Ganol"},"longitude":"-3.416256"},"context":"","outcome_status":{"category":"Investigation complete; no suspect identified","date":"2020-11"},"persistent_id":"91395bf38d3203fc57dcbbd25cb841f24a29f2505f49ee467517d1e803880c02","id":84490253,"location_subtype":"","month":"2020-06"},{"category":"other-theft","location_type":"Force","location":{"latitude":"53.331468","street":{"id":1046373,"name":"On or near Nursery Close"},"longitude":"-3.408873"},"context":"","outcome_status":{"category":"Investigation complete; no suspect identified","date":"2021-01"},"persistent_id":"f2dd3e8790aff43fb2050e22c9306ee561f72e0e392b59392299f27f066b3393","id":84490841,"location_subtype":"","month":"2020-06"},{"category":"other-theft","location_type":"Force","location":{"latitude":"53.335127","street":{"id":1046351,"name":"On or near Penisardre Road"},"longitude":"-3.405825"},"context":"","outcome_status":{"category":"Further investigation is not in the public interest","date":"2020-11"},"persistent_id":"97e896647c238eb93799395204f86b1a4f94436638784767413f6a81bc6c4043","id":84493073,"location_subtype":"","month":"2020-06"},{"category":"other-theft","location_type":"Force","location":{"latitude":"53.337418","street":{"id":1046586,"name":"On or near Station Road"},"longitude":"-3.405930"},"context":"","outcome_status":{"category":"Unable to prosecute suspect","date":"2020-10"},"persistent_id":"a828f28f752a02b9ee1ffea6b2a68db4966fbd63386e35233bb0e7a2f12e4adf","id":84489378,"location_subtype":"","month":"2020-06"},{"category":"other-theft","location_type":"Force","location":{"latitude":"53.336600","street":{"id":1046595,"name":"On or near Grasmere Close"},"longitude":"-3.418084"},"context":"","outcome_status":{"category":"Investigation complete; no suspect identified","date":"2020-06"},"persistent_id":"351031c8a8d9fc5bb36a97daa8ef4bc6ef6ea95271075d76978bc6077ad20a3d","id":84491980,"location_subtype":"","month":"2020-06"},{"category":"public-order","location_type":"Force","location":{"latitude":"53.336671","street":{"id":1046544,"name":"On or near Parc Cemlyn"},"longitude":"-3.400679"},"context":"","outcome_status":{"category":"Unable to prosecute suspect","date":"2020-11"},"persistent_id":"1d21bf05ae150c233a611f46a8799cf8f26e536c8185c88c2fc860bd25c105ea","id":84492763,"location_subtype":"","month":"2020-06"},{"category":"public-order","location_type":"Force","location":{"latitude":"53.337183","street":{"id":1046546,"name":"On or near Maes Glas"},"longitude":"-3.400681"},"context":"","outcome_status":{"category":"Investigation complete; no suspect identified","date":"2020-07"},"persistent_id":"0cd72a8be48d00b071f5122c8d14826bc22dded3738ca9c4dda6bb5d0f5ccc04","id":84490569,"location_subtype":"","month":"2020-06"},{"category":"public-order","location_type":"Force","location":{"latitude":"53.335127","street":{"id":1046351,"name":"On or near Penisardre Road"},"longitude":"-3.405825"},"context":"","outcome_status":{"category":"Investigation complete; no suspect identified","date":"2020-11"},"persistent_id":"b6b74aabf05e11f67996dd841c27baba843dba3d557fcd6faa7fdda1d7dccded","id":84492252,"location_subtype":"","month":"2020-06"},{"category":"public-order","location_type":"Force","location":{"latitude":"53.335334","street":{"id":1046350,"name":"On or near Parking Area"},"longitude":"-3.402768"},"context":"","outcome_status":{"category":"Unable to prosecute suspect","date":"2020-11"},"persistent_id":"a045885e874d747339d7a0ae02dc07a5cf89e39f6515554ca34c5c35a77f5dd5","id":84492764,"location_subtype":"","month":"2020-06"},{"category":"public-order","location_type":"Force","location":{"latitude":"53.337767","street":{"id":1046574,"name":"On or near Morley Road"},"longitude":"-3.404545"},"context":"","outcome_status":{"category":"Investigation complete; no suspect identified","date":"2020-10"},"persistent_id":"50d9827a6548e1bd0d74f50f27fe00024f67d17fec26ce37d7dad413d2ddd499","id":84491397,"location_subtype":"","month":"2020-06"},{"category":"public-order","location_type":"Force","location":{"latitude":"53.335635","street":{"id":1046591,"name":"On or near Tywyn Isaf"},"longitude":"-3.414567"},"context":"","outcome_status":{"category":"Unable to prosecute suspect","date":"2020-11"},"persistent_id":"0dadbbcbba907c4fa34d015a4706a4ddab5a9192eb65b2c95d12ae2d16b4840e","id":84491993,"location_subtype":"","month":"2020-06"},{"category":"robbery","location_type":"Force","location":{"latitude":"53.335127","street":{"id":1046351,"name":"On or near Penisardre Road"},"longitude":"-3.405825"},"context":"","outcome_status":{"category":"Awaiting court outcome","date":"2021-01"},"persistent_id":"08063f919f4c78f9a462b7cb56c9dc0cf80a827a34412b83e83b42e0944795a7","id":84493107,"location_subtype":"","month":"2020-06"},{"category":"shoplifting","location_type":"Force","location":{"latitude":"53.335127","street":{"id":1046351,"name":"On or near Penisardre Road"},"longitude":"-3.405825"},"context":"","outcome_status":{"category":"Unable to prosecute suspect","date":"2020-09"},"persistent_id":"83b656370029b5589121fc887c0c910e1cef55eb3f92abd924817e632f23acb0","id":84489406,"location_subtype":"","month":"2020-06"},{"category":"shoplifting","location_type":"Force","location":{"latitude":"53.335127","street":{"id":1046351,"name":"On or near Penisardre Road"},"longitude":"-3.405825"},"context":"","outcome_status":{"category":"Unable to prosecute suspect","date":"2020-09"},"persistent_id":"49a13b56cbc97de41b5eb6c152737344b41b55fa2f578b5626927530c4b503dd","id":84489567,"location_subtype":"","month":"2020-06"},{"category":"shoplifting","location_type":"Force","location":{"latitude":"53.335504","street":{"id":1046354,"name":"On or near Church Lane"},"longitude":"-3.404321"},"context":"","outcome_status":{"category":"Awaiting court outcome","date":"2020-09"},"persistent_id":"81f91b21eb3964e4ac072b831a3799754f072a0029ff6c14632e760b87691073","id":84492940,"location_subtype":"","month":"2020-06"},{"category":"theft-from-the-person","location_type":"Force","location":{"latitude":"53.343470","street":{"id":1046581,"name":"On or near Beach Road East"},"longitude":"-3.407256"},"context":"","outcome_status":{"category":"Unable to prosecute suspect","date":"2020-09"},"persistent_id":"66f5ba14b00d54d0550288e73440558c0ac2b6ff290d827d83d9637d4949c028","id":84493529,"location_subtype":"","month":"2020-06"},{"category":"vehicle-crime","location_type":"Force","location":{"latitude":"53.334200","street":{"id":1046419,"name":"On or near Overton Avenue"},"longitude":"-3.420302"},"context":"","outcome_status":{"category":"Unable to prosecute suspect","date":"2020-07"},"persistent_id":"afd5c582adfd9e62a070e8be8c5623c37cdab527d66a9169a6e4f55811a659d2","id":84493393,"location_subtype":"","month":"2020-06"},{"category":"violent-crime","location_type":"Force","location":{"latitude":"53.331215","street":{"id":1046461,"name":"On or near Hendre Court"},"longitude":"-3.399825"},"context":"","outcome_status":{"category":"Unable to prosecute suspect","date":"2021-02"},"persistent_id":"32d71fadd9efb5b9f9c5ba502b3e4ceda7a780c4866bddefb5b90d88fbe34ac9","id":84490638,"location_subtype":"","month":"2020-06"},{"category":"violent-crime","location_type":"Force","location":{"latitude":"53.336671","street":{"id":1046544,"name":"On or near Parc Cemlyn"},"longitude":"-3.400679"},"context":"","outcome_status":{"category":"Unable to prosecute suspect","date":"2020-12"},"persistent_id":"86f83b169c4a39aac266d9662f0dafa9dbc78341b2db608fe1f4e7c48c778214","id":84489803,"location_subtype":"","month":"2020-06"},{"category":"violent-crime","location_type":"Force","location":{"latitude":"53.337281","street":{"id":1046598,"name":"On or near Derwent Close"},"longitude":"-3.415253"},"context":"","outcome_status":{"category":"Unable to prosecute suspect","date":"2020-12"},"persistent_id":"e3eae1668fa337b310c505aa904d9b1a85ed0c72b5bc395864299e10d1bb960d","id":84492650,"location_subtype":"","month":"2020-06"},{"category":"violent-crime","location_type":"Force","location":{"latitude":"53.328065","street":{"id":1046385,"name":"On or near Knowles Avenue"},"longitude":"-3.408581"},"context":"","outcome_status":{"category":"Further investigation is not in the public interest","date":"2020-12"},"persistent_id":"76b1511af4614c7b2a3b3e8f15ca02eeca48d6d6972d666ae74acf7db4e00b19","id":84491778,"location_subtype":"","month":"2020-06"},{"category":"violent-crime","location_type":"Force","location":{"latitude":"53.336671","street":{"id":1046544,"name":"On or near Parc Cemlyn"},"longitude":"-3.400679"},"context":"","outcome_status":{"category":"Awaiting court outcome","date":"2020-12"},"persistent_id":"1b22574e44325c432814e9fa865ad25aa4af98e383839961c9b0b4b34e2730b5","id":84489455,"location_subtype":"","month":"2020-06"},{"category":"violent-crime","location_type":"Force","location":{"latitude":"53.329261","street":{"id":1046366,"name":"On or near St Brelade's Drive"},"longitude":"-3.411534"},"context":"","outcome_status":{"category":"Unable to prosecute suspect","date":"2020-12"},"persistent_id":"f9c68a4978ba91131d34830433e81d2c82a9367b582aa0ed139fcb86531d6480","id":84491777,"location_subtype":"","month":"2020-06"},{"category":"violent-crime","location_type":"Force","location":{"latitude":"53.330104","street":{"id":1046453,"name":"On or near Palmeira Gardens"},"longitude":"-3.401080"},"context":"","outcome_status":{"category":"Unable to prosecute suspect","date":"2020-12"},"persistent_id":"817075492680c222ebd0ab6f45407679b5ebc04d2070aec6dcaa03664f5b0176","id":84490093,"location_subtype":"","month":"2020-06"},{"category":"violent-crime","location_type":"Force","location":{"latitude":"53.336671","street":{"id":1046544,"name":"On or near Parc Cemlyn"},"longitude":"-3.400679"},"context":"","outcome_status":{"category":"Awaiting court outcome","date":"2020-12"},"persistent_id":"1f4908f8a1e6f3a18bd391db0ed1c2b42e5c54bac41256e5e880c91e8b11ef1c","id":84489801,"location_subtype":"","month":"2020-06"},{"category":"violent-crime","location_type":"Force","location":{"latitude":"53.336671","street":{"id":1046544,"name":"On or near Parc Cemlyn"},"longitude":"-3.400679"},"context":"","outcome_status":{"category":"Awaiting court outcome","date":"2020-12"},"persistent_id":"d8fab249baae60029e0fc8ddb2970eb3b5a656d4b4fbfe0b9632ef401230d0ec","id":84489802,"location_subtype":"","month":"2020-06"},{"category":"violent-crime","location_type":"Force","location":{"latitude":"53.335145","street":{"id":1046414,"name":"On or near Susan Grove"},"longitude":"-3.420213"},"context":"","outcome_status":{"category":"Status update unavailable","date":"2020-10"},"persistent_id":"4c3cad38b5b8d55de46df0cfe292e8f744c1e6a0ec8938f81e396d6e7334387c","id":84489800,"location_subtype":"","month":"2020-06"},{"category":"violent-crime","location_type":"Force","location":{"latitude":"53.339234","street":{"id":1046536,"name":"On or near Hafod Road"},"longitude":"-3.400568"},"context":"","outcome_status":{"category":"Unable to prosecute suspect","date":"2020-07"},"persistent_id":"58d3cd940669f60d576be3bac270dd2c4f1466c48a106cc71f042d8b04659e39","id":84493566,"location_subtype":"","month":"2020-06"},{"category":"violent-crime","location_type":"Force","location":{"latitude":"53.330643","street":{"id":1046329,"name":"On or near South Avenue"},"longitude":"-3.405723"},"context":"","outcome_status":{"category":"Formal action is not in the public interest","date":"2020-07"},"persistent_id":"0eafbf242e89c9ce640f37fddf45dc5f791403b13df0bad5373f1636e7a311e8","id":84491915,"location_subtype":"","month":"2020-06"},{"category":"violent-crime","location_type":"Force","location":{"latitude":"53.330643","street":{"id":1046329,"name":"On or near South Avenue"},"longitude":"-3.405723"},"context":"","outcome_status":{"category":"Unable to prosecute suspect","date":"2020-07"},"persistent_id":"8a66a14d5c82bd44707804ce1dfc9ce089c1acebc83f0811f0b60d72d7f5aeb8","id":84491779,"location_subtype":"","month":"2020-06"},{"category":"violent-crime","location_type":"Force","location":{"latitude":"53.337767","street":{"id":1046574,"name":"On or near Morley Road"},"longitude":"-3.404545"},"context":"","outcome_status":{"category":"Unable to prosecute suspect","date":"2020-07"},"persistent_id":"72af9aeede22b7c3d209a58c1ad388f2c4f47bd872f83ab82e50e5d8212959ba","id":84491325,"location_subtype":"","month":"2020-06"},{"category":"violent-crime","location_type":"Force","location":{"latitude":"53.336662","street":{"id":1046599,"name":"On or near Coniston Drive"},"longitude":"-3.417410"},"context":"","outcome_status":{"category":"Unable to prosecute suspect","date":"2020-07"},"persistent_id":"38a031feb00fddbfb7f0818b7362821a8b44c9a8d4d712541c2d96596e4e589b","id":84490089,"location_subtype":"","month":"2020-06"},{"category":"violent-crime","location_type":"Force","location":{"latitude":"53.335202","street":{"id":1046415,"name":"On or near South Meadow Close"},"longitude":"-3.419269"},"context":"","outcome_status":{"category":"Unable to prosecute suspect","date":"2020-11"},"persistent_id":"a976056ad5bb259c666c8a7adb544bfe5d721773f3b7901ebdbb04c6424a189e","id":84493427,"location_subtype":"","month":"2020-06"},{"category":"violent-crime","location_type":"Force","location":{"latitude":"53.336662","street":{"id":1046599,"name":"On or near Coniston Drive"},"longitude":"-3.417410"},"context":"","outcome_status":{"category":"Unable to prosecute suspect","date":"2020-11"},"persistent_id":"633f3b4545a7ea7906dd23f06f0981fa03055a8f3894dccbbf1378c92c84c947","id":84490779,"location_subtype":"","month":"2020-06"},{"category":"violent-crime","location_type":"Force","location":{"latitude":"53.331468","street":{"id":1046373,"name":"On or near Nursery Close"},"longitude":"-3.408873"},"context":"","outcome_status":{"category":"Unable to prosecute suspect","date":"2020-11"},"persistent_id":"393059723dba07f2759dae71a0487c78f8a5e630bb384ef08e868b15c0238b0b","id":84490207,"location_subtype":"","month":"2020-06"},{"category":"violent-crime","location_type":"Force","location":{"latitude":"53.336662","street":{"id":1046599,"name":"On or near Coniston Drive"},"longitude":"-3.417410"},"context":"","outcome_status":{"category":"Formal action is not in the public interest","date":"2020-11"},"persistent_id":"afdd554b521c27e2a89e03108c451cfdfb7ce058a4ab082c8a4af774d5134b19","id":84490205,"location_subtype":"","month":"2020-06"},{"category":"violent-crime","location_type":"Force","location":{"latitude":"53.336662","street":{"id":1046599,"name":"On or near Coniston Drive"},"longitude":"-3.417410"},"context":"","outcome_status":{"category":"Formal action is not in the public interest","date":"2020-11"},"persistent_id":"bdcf9001d000c8090b77be7001fcf9f7ef68616c730a6769a62d79512b0353c4","id":84490206,"location_subtype":"","month":"2020-06"},{"category":"violent-crime","location_type":"Force","location":{"latitude":"53.330643","street":{"id":1046329,"name":"On or near South Avenue"},"longitude":"-3.405723"},"context":"","outcome_status":{"category":"Unable to prosecute suspect","date":"2020-11"},"persistent_id":"d5130ad29d0594e6587899c2b53a5ecdf254e0cdd7a3e5863d61616ee642ac31","id":84490092,"location_subtype":"","month":"2020-06"},{"category":"violent-crime","location_type":"Force","location":{"latitude":"53.330643","street":{"id":1046329,"name":"On or near South Avenue"},"longitude":"-3.405723"},"context":"","outcome_status":{"category":"Unable to prosecute suspect","date":"2020-11"},"persistent_id":"3a88219e3cc4ed7818a9942308f0c1d42aa2b51c23387d4dc542c761bf089695","id":84490091,"location_subtype":"","month":"2020-06"},{"category":"violent-crime","location_type":"Force","location":{"latitude":"53.339234","street":{"id":1046536,"name":"On or near Hafod Road"},"longitude":"-3.400568"},"context":"","outcome_status":{"category":"Unable to prosecute suspect","date":"2020-06"},"persistent_id":"b60ba34efc824159d15d61a975d3728e749451b22195f7fe0c404bbcef866c68","id":84491183,"location_subtype":"","month":"2020-06"},{"category":"violent-crime","location_type":"Force","location":{"latitude":"53.324591","street":{"id":1046470,"name":"On or near Calthorpe Drive"},"longitude":"-3.400509"},"context":"","outcome_status":{"category":"Unable to prosecute suspect","date":"2020-06"},"persistent_id":"bfafb568acb130d83253aded5a3ab67b444ef46e839aed6d44b5cd58197b28b2","id":84490637,"location_subtype":"","month":"2020-06"},{"category":"violent-crime","location_type":"Force","location":{"latitude":"53.335240","street":{"id":1046424,"name":"On or near Clos Pry Copyn"},"longitude":"-3.418294"},"context":"","outcome_status":{"category":"Unable to prosecute suspect","date":"2020-10"},"persistent_id":"d7c5bebc5f1cef971f6fc1610864c7a26276f76bcc2e9eff07104aa29c00784f","id":84492318,"location_subtype":"","month":"2020-06"},{"category":"violent-crime","location_type":"Force","location":{"latitude":"53.339234","street":{"id":1046536,"name":"On or near Hafod Road"},"longitude":"-3.400568"},"context":"","outcome_status":{"category":"Unable to prosecute suspect","date":"2020-06"},"persistent_id":"630fd58efd52c24a06c3f9caf63feb102c2b3eace1767e0fe438db9b602f420b","id":84491040,"location_subtype":"","month":"2020-06"},{"category":"violent-crime","location_type":"Force","location":{"latitude":"53.335240","street":{"id":1046424,"name":"On or near Clos Pry Copyn"},"longitude":"-3.418294"},"context":"","outcome_status":{"category":"Formal action is not in the public interest","date":"2020-10"},"persistent_id":"927969be62e5fa6d34f0a1192c440eb8a6d307f69ca5854e88c34f994a292345","id":84492317,"location_subtype":"","month":"2020-06"},{"category":"violent-crime","location_type":"Force","location":{"latitude":"53.338614","street":{"id":1046561,"name":"On or near Llys Vyrnwy"},"longitude":"-3.422581"},"context":"","outcome_status":{"category":"Unable to prosecute suspect","date":"2020-06"},"persistent_id":"dacc854382413f75e0a72e6d08afd2ef23d1bb77c2b1a064f89949a021b7ae94","id":84490917,"location_subtype":"","month":"2020-06"},{"category":"violent-crime","location_type":"Force","location":{"latitude":"53.339138","street":{"id":1046565,"name":"On or near Glan Mor"},"longitude":"-3.411755"},"context":"","outcome_status":{"category":"Unable to prosecute suspect","date":"2020-06"},"persistent_id":"7e52dd4ed7f63edf886b6fd8d12731252a1b02d9575d769aa20ad5b2e31070b4","id":84490918,"location_subtype":"","month":"2020-06"},{"category":"violent-crime","location_type":"Force","location":{"latitude":"53.335962","street":{"id":1046602,"name":"On or near Awelon Mor"},"longitude":"-3.419610"},"context":"","outcome_status":{"category":"Unable to prosecute suspect","date":"2020-10"},"persistent_id":"03ee1ad2d7ab126eee2ef2112aa14633fc99bb34d90a2aef3560bb8714055043","id":84491614,"location_subtype":"","month":"2020-06"},{"category":"violent-crime","location_type":"Force","location":{"latitude":"53.340356","street":{"id":1046577,"name":"On or near Highbury Close"},"longitude":"-3.403023"},"context":"","outcome_status":{"category":"Unable to prosecute suspect","date":"2020-06"},"persistent_id":"5fb95d4695d24b85b136f88521f9d43fedd8c42a1e92bb4fb158ddf8e58c9d45","id":84491039,"location_subtype":"","month":"2020-06"},{"category":"violent-crime","location_type":"Force","location":{"latitude":"53.331468","street":{"id":1046373,"name":"On or near Nursery Close"},"longitude":"-3.408873"},"context":"","outcome_status":{"category":"Unable to prosecute suspect","date":"2020-12"},"persistent_id":"8757a4df8d2302ae1b803b48cd8509d07f8aad033a56121c1ca4bc329f50562d","id":84490919,"location_subtype":"","month":"2020-06"},{"category":"violent-crime","location_type":"Force","location":{"latitude":"53.337057","street":{"id":1046609,"name":"On or near Llys Aled"},"longitude":"-3.426465"},"context":"","outcome_status":{"category":"Unable to prosecute suspect","date":"2020-11"},"persistent_id":"dd958dcf11260dcd257923d0a58c7f9fddf43854fac8f617794da365df4f6728","id":84491462,"location_subtype":"","month":"2020-06"},{"category":"violent-crime","location_type":"Force","location":{"latitude":"53.337183","street":{"id":1046546,"name":"On or near Maes Glas"},"longitude":"-3.400681"},"context":"","outcome_status":{"category":"Unable to prosecute suspect","date":"2020-06"},"persistent_id":"839a9c1ff9d9804ec99e9d4061e3ca1dc3719d899023bc6fb3a0675dad0a4d04","id":84490636,"location_subtype":"","month":"2020-06"},{"category":"violent-crime","location_type":"Force","location":{"latitude":"53.335334","street":{"id":1046350,"name":"On or near Parking Area"},"longitude":"-3.402768"},"context":"","outcome_status":{"category":"Unable to prosecute suspect","date":"2020-11"},"persistent_id":"057a2b49cdab48c152e0b475313e258a93d31f4ad1f2a6d5a90a71023f0d780c","id":84491463,"location_subtype":"","month":"2020-06"},{"category":"violent-crime","location_type":"Force","location":{"latitude":"53.337057","street":{"id":1046609,"name":"On or near Llys Aled"},"longitude":"-3.426465"},"context":"","outcome_status":{"category":"Unable to prosecute suspect","date":"2021-02"},"persistent_id":"0333f11537598e28b3c2b0bcaf8f16956d57779ac18959a42d63a39f0066a131","id":84491776,"location_subtype":"","month":"2020-06"},{"category":"violent-crime","location_type":"Force","location":{"latitude":"53.330643","street":{"id":1046329,"name":"On or near South Avenue"},"longitude":"-3.405723"},"context":"","outcome_status":{"category":"Unable to prosecute suspect","date":"2020-11"},"persistent_id":"10348d262d6f38faa1c6f768631d1aa82392a886b425606e4cea90fed5d03396","id":84489950,"location_subtype":"","month":"2020-06"},{"category":"violent-crime","location_type":"Force","location":{"latitude":"53.335635","street":{"id":1046591,"name":"On or near Tywyn Isaf"},"longitude":"-3.414567"},"context":"","outcome_status":{"category":"Investigation complete; no suspect identified","date":"2020-12"},"persistent_id":"1fc09fc1eb7fdbeb7c1b9d5e1e18ff0295dcd3409db2bc63b9554e7ce2996e44","id":84489949,"location_subtype":"","month":"2020-06"},{"category":"violent-crime","location_type":"Force","location":{"latitude":"53.343470","street":{"id":1046581,"name":"On or near Beach Road East"},"longitude":"-3.407256"},"context":"","outcome_status":{"category":"Unable to prosecute suspect","date":"2021-01"},"persistent_id":"3389fa4a09107abe0fbdcb69e3b14db04f1967e0afa12d9c4810516b9e4bd3e7","id":84492651,"location_subtype":"","month":"2020-06"},{"category":"violent-crime","location_type":"Force","location":{"latitude":"53.335127","street":{"id":1046351,"name":"On or near Penisardre Road"},"longitude":"-3.405825"},"context":"","outcome_status":{"category":"Unable to prosecute suspect","date":"2020-12"},"persistent_id":"7b721919e056eb277e2144e7266ab2b049221e314d7ed17766b6e3bfbe4b749c","id":84493164,"location_subtype":"","month":"2020-06"},{"category":"violent-crime","location_type":"Force","location":{"latitude":"53.336671","street":{"id":1046544,"name":"On or near Parc Cemlyn"},"longitude":"-3.400679"},"context":"","outcome_status":{"category":"Unable to prosecute suspect","date":"2020-11"},"persistent_id":"a3c8c8534c206d140852b5b5b34c58df52f04c37159432bfd2552dd61d714b65","id":84492999,"location_subtype":"","month":"2020-06"},{"category":"violent-crime","location_type":"Force","location":{"latitude":"53.338614","street":{"id":1046561,"name":"On or near Llys Vyrnwy"},"longitude":"-3.422581"},"context":"","outcome_status":{"category":"Unable to prosecute suspect","date":"2021-01"},"persistent_id":"4d7b0793666a085116eca5ede3ec2cec6ce932a3bbbbcebdde05ce92827f4200","id":84492047,"location_subtype":"","month":"2020-06"},{"category":"violent-crime","location_type":"Force","location":{"latitude":"53.335240","street":{"id":1046424,"name":"On or near Clos Pry Copyn"},"longitude":"-3.418294"},"context":"","outcome_status":{"category":"Formal action is not in the public interest","date":"2020-10"},"persistent_id":"2949edbf3b2cb56cb11357e117eed941d4da1b6f89390667c90200d132b56afa","id":84492319,"location_subtype":"","month":"2020-06"},{"category":"violent-crime","location_type":"Force","location":{"latitude":"53.331449","street":{"id":1046344,"name":"On or near Central Avenue"},"longitude":"-3.407476"},"context":"","outcome_status":{"category":"Further investigation is not in the public interest","date":"2020-06"},"persistent_id":"2e5796264c20efe19d94526d52dc8e94118f249e114f384106f58cad4b48e348","id":84490634,"location_subtype":"","month":"2020-06"},{"category":"violent-crime","location_type":"Force","location":{"latitude":"53.330643","street":{"id":1046329,"name":"On or near South Avenue"},"longitude":"-3.405723"},"context":"","outcome_status":{"category":"Unable to prosecute suspect","date":"2020-06"},"persistent_id":"63064310c95ed7a7b57d27187708cccdfa63fecce619a353670e352e98a2e505","id":84491182,"location_subtype":"","month":"2020-06"},{"category":"violent-crime","location_type":"Force","location":{"latitude":"53.324591","street":{"id":1046470,"name":"On or near Calthorpe Drive"},"longitude":"-3.400509"},"context":"","outcome_status":{"category":"Unable to prosecute suspect","date":"2020-06"},"persistent_id":"5e1fe452fb111cf7262b76b6083e11e3e64c4cbb3cc97a1d8ba9614c4a2114ba","id":84490781,"location_subtype":"","month":"2020-06"},{"category":"violent-crime","location_type":"Force","location":{"latitude":"53.330643","street":{"id":1046329,"name":"On or near South Avenue"},"longitude":"-3.405723"},"context":"","outcome_status":{"category":"Formal action is not in the public interest","date":"2020-07"},"persistent_id":"72be934902ede2ed5fb9fb59a545c08ffe41f3d0322f4efdece924f410369109","id":84491916,"location_subtype":"","month":"2020-06"},{"category":"violent-crime","location_type":"Force","location":{"latitude":"53.335064","street":{"id":1046353,"name":"On or near Lon Alwen"},"longitude":"-3.404291"},"context":"","outcome_status":{"category":"Unable to prosecute suspect","date":"2021-02"},"persistent_id":"5c7a25f1f99d73c2954db412b024c4f6a9257f8f0b7ee79aa43f5e8039129b17","id":84491917,"location_subtype":"","month":"2020-06"},{"category":"violent-crime","location_type":"Force","location":{"latitude":"53.337383","street":{"id":1046550,"name":"On or near Clos Bodnant"},"longitude":"-3.399772"},"context":"","outcome_status":{"category":"Unable to prosecute suspect","date":"2020-11"},"persistent_id":"61d370b2917dce83ce3780c8ae859d7a2d04962e275601094a166e39bf91858b","id":84491041,"location_subtype":"","month":"2020-06"},{"category":"other-crime","location_type":"Force","location":{"latitude":"53.329666","street":{"id":1035261,"name":"On or near Mount Ida Road"},"longitude":"-3.393978"},"context":"","outcome_status":{"category":"Unable to prosecute suspect","date":"2021-01"},"persistent_id":"7b1427fa8cf7cdada2efed6d93f96891f86173bbdefb1e50ff9a69ea6ad54247","id":84489699,"location_subtype":"","month":"2020-06"}]