[{"category":"anti-social-behaviour","location_type":"Force","location":{"latitude":"53.336633","street":{"id":1046596,"name":"On or near Gorphwysfa Avenue"},"longitude":"-3.409239"},"context":"","outcome_status":null,"persistent_id":"","id":88848070,"location_subtype":"","month":"2020-12"},{"category":"anti-social-behaviour","location_type":"Force","location":{"latitude":"53.335504","street":{"id":1046354,"name":"On or near Church Lane"},"longitude":"-3.404321"},"context":"","outcome_status":null,"persistent_id":"","id":88848362,"location_subtype":"","month":"2020-12"},{"category":"anti-social-behaviour","location_type":"Force","location":{"latitude":"53.330104","street":{"id":1046453,"name":"On or near Palmeira Gardens"},"longitude":"-3.401080"},"context":"","outcome_status":null,"persistent_id":"","id":88848363,"location_subtype":"","month":"2020-12"},{"category":"anti-social-behaviour","location_type":"Force","location":{"latitude":"53.333043","street":{"id":1046447,"name":"On or near Priory Lane"},"longitude":"-3.401101"},"context":"","outcome_status":null,"persistent_id":"","id":88848364,"location_subtype":"","month":"2020-12"},{"category":"anti-social-behaviour","location_type":"Force","location":{"latitude":"53.332598","street":{"id":1046335,"name":"On or near Maes-y-groes"},"longitude":"-3.403820"},"context":"","outcome_status":null,"persistent_id":"","id":88848818,"location_subtype":"","month":"2020-12"},{"category":"anti-social-behaviour","location_type":"Force","location":{"latitude":"53.338643","street":{"id":1046583,"name":"On or near Sports/recreation Area"},"longitude":"-3.404995"},"context":"","outcome_status":null,"persistent_id":"","id":88848817,"location_subtype":"","month":"2020-12"},{"category":"anti-social-behaviour","location_type":"Force","location":{"latitude":"53.336877","street":{"id":1046589,"name":"On or near Windermere Drive"},"longitude":"-3.415990"},"context":"","outcome_status":null,"persistent_id":"","id":88848864,"location_subtype":"","month":"2020-12"},{"category":"anti-social-behaviour","location_type":"Force","location":{"latitude":"53.334499","street":{"id":1046482,"name":"On or near Glyn Avenue"},"longitude":"-3.401164"},"context":"","outcome_status":null,"persistent_id":"","id":88848482,"location_subtype":"","month":"2020-12"},{"category":"anti-social-behaviour","location_type":"Force","location":{"latitude":"53.332262","street":{"id":1046338,"name":"On or near Fern Avenue"},"longitude":"-3.402532"},"context":"","outcome_status":null,"persistent_id":"","id":88848819,"location_subtype":"","month":"2020-12"},{"category":"anti-social-behaviour","location_type":"Force","location":{"latitude":"53.338065","street":{"id":1046539,"name":"On or near Caradoc Road"},"longitude":"-3.402182"},"context":"","outcome_status":null,"persistent_id":"","id":88848820,"location_subtype":"","month":"2020-12"},{"category":"anti-social-behaviour","location_type":"Force","location":{"latitude":"53.332598","street":{"id":1046335,"name":"On or near Maes-y-groes"},"longitude":"-3.403820"},"context":"","outcome_status":null,"persistent_id":"","id":88848899,"location_subtype":"","month":"2020-12"},{"category":"anti-social-behaviour","location_type":"Force","location":{"latitude":"53.332598","street":{"id":1046335,"name":"On or near Maes-y-groes"},"longitude":"-3.403820"},"context":"","outcome_status":null,"persistent_id":"","id":88848930,"location_subtype":"","month":"2020-12"},{"category":"anti-social-behaviour","location_type":"Force","location":{"latitude":"53.330323","street":{"id":1046410,"name":"On or near Sports/recreation Area"},"longitude":"-3.412244"},"context":"","outcome_status":null,"persistent_id":"","id":88848524,"location_subtype":"","month":"2020-12"},{"category":"anti-social-behaviour","location_type":"Force","location":{"latitude":"53.325867","street":{"id":1046468,"name":"On or near Chatsworth Close"},"longitude":"-3.399770"},"context":"","outcome_status":null,"persistent_id":"","id":88848525,"location_subtype":"","month":"2020-12"},{"category":"anti-social-behaviour","location_type":"Force","location":{"latitude":"53.337418","street":{"id":1046586,"name":"On or near Station Road"},"longitude":"-3.405930"},"context":"","outcome_status":null,"persistent_id":"","id":88848028,"location_subtype":"","month":"2020-12"},{"category":"anti-social-behaviour","location_type":"Force","location":{"latitude":"53.338643","street":{"id":1046583,"name":"On or near Sports/recreation Area"},"longitude":"-3.404995"},"context":"","outcome_status":null,"persistent_id":"","id":88847804,"location_subtype":"","month":"2020-12"},{"category":"anti-social-behaviour","location_type":"Force","location":{"latitude":"53.328961","street":{"id":1046336,"name":"On or near Maes Tegid"},"longitude":"-3.406508"},"context":"","outcome_status":null,"persistent_id":"","id":88847844,"location_subtype":"","month":"2020-12"},{"category":"anti-social-behaviour","location_type":"Force","location":{"latitude":"53.335334","street":{"id":1046350,"name":"On or near Parking Area"},"longitude":"-3.402768"},"context":"","outcome_status":null,"persistent_id":"","id":88847845,"location_subtype":"","month":"2020-12"},{"category":"anti-social-behaviour","location_type":"Force","location":{"latitude":"53.335127","street":{"id":1046351,"name":"On or near Penisardre Road"},"longitude":"-3.405825"},"context":"","outcome_status":null,"persistent_id":"","id":88847803,"location_subtype":"","month":"2020-12"},{"category":"anti-social-behaviour","location_type":"Force","location":{"latitude":"53.328614","street":{"id":1046402,"name":"On or near Chester Close"},"longitude":"-3.419876"},"context":"","outcome_status":null,"persistent_id":"","id":88848111,"location_subtype":"","month":"2020-12"},{"category":"anti-social-behaviour","location_type":"Force","location":{"latitude":"53.328463","street":{"id":1035194,"name":"On or near St James Drive"},"longitude":"-3.412934"},"context":"","outcome_status":null,"persistent_id":"","id":88848112,"location_subtype":"","month":"2020-12"},{"category":"anti-social-behaviour","location_type":"Force","location":{"latitude":"53.331468","street":{"id":1046373,"name":"On or near Nursery Close"},"longitude":"-3.408873"},"context":"","outcome_status":null,"persistent_id":"","id":88848113,"location_subtype":"","month":"2020-12"},{"category":"anti-social-behaviour","location_type":"Force","location":{"latitude":"53.339766","street":{"id":1046569,"name":"On or near Bastion Gardens"},"longitude":"-3.408080"},"context":"","outcome_status":null,"persistent_id":"","id":88848114,"location_subtype":"","month":"2020-12"},{"category":"anti-social-behaviour","location_type":"Force","location":{"latitude":"53.334912","street":{"id":1046352,"name":"On or near Penisardre Road"},"longitude":"-3.405037"},"context":"","outcome_status":null,"persistent_id":"","id":88848115,"location_subtype":"","month":"2020-12"},{"category":"anti-social-behaviour","location_type":"Force","location":{"latitude":"53.334332","street":{"id":1046423,"name":"On or near Glan Y Gors"},"longitude":"-3.415245"},"context":"","outcome_status":null,"persistent_id":"","id":88848026,"location_subtype":"","month":"2020-12"},{"category":"anti-social-behaviour","location_type":"Force","location":{"latitude":"53.335127","street":{"id":1046351,"name":"On or near Penisardre Road"},"longitude":"-3.405825"},"context":"","outcome_status":null,"persistent_id":"","id":88848027,"location_subtype":"","month":"2020-12"},{"category":"anti-social-behaviour","location_type":"Force","location":{"latitude":"53.330323","street":{"id":1046410,"name":"On or near Sports/recreation Area"},"longitude":"-3.412244"},"context":"","outcome_status":null,"persistent_id":"","id":88848069,"location_subtype":"","month":"2020-12"},{"category":"anti-social-behaviour","location_type":"Force","location":{"latitude":"53.336633","street":{"id":1046596,"name":"On or near Gorphwysfa Avenue"},"longitude":"-3.409239"},"context":"","outcome_status":null,"persistent_id":"","id":88848071,"location_subtype":"","month":"2020-12"},{"category":"anti-social-behaviour","location_type":"Force","location":{"latitude":"53.337767","street":{"id":1046574,"name":"On or near Morley Road"},"longitude":"-3.404545"},"context":"","outcome_status":null,"persistent_id":"","id":88848072,"location_subtype":"","month":"2020-12"},{"category":"anti-social-behaviour","location_type":"Force","location":{"latitude":"53.336633","street":{"id":1046596,"name":"On or near Gorphwysfa Avenue"},"longitude":"-3.409239"},"context":"","outcome_status":null,"persistent_id":"","id":88848865,"location_subtype":"","month":"2020-12"},{"category":"anti-social-behaviour","location_type":"Force","location":{"latitude":"53.337715","street":{"id":1046604,"name":"On or near Ffordd Idwal"},"longitude":"-3.426336"},"context":"","outcome_status":null,"persistent_id":"","id":88848648,"location_subtype":"","month":"2020-12"},{"category":"anti-social-behaviour","location_type":"Force","location":{"latitude":"53.330323","street":{"id":1046410,"name":"On or near Sports/recreation Area"},"longitude":"-3.412244"},"context":"","outcome_status":null,"persistent_id":"","id":88848150,"location_subtype":"","month":"2020-12"},{"category":"anti-social-behaviour","location_type":"Force","location":{"latitude":"53.335334","street":{"id":1046350,"name":"On or near Parking Area"},"longitude":"-3.402768"},"context":"","outcome_status":null,"persistent_id":"","id":88848151,"location_subtype":"","month":"2020-12"},{"category":"anti-social-behaviour","location_type":"Force","location":{"latitude":"53.334912","street":{"id":1046352,"name":"On or near Penisardre Road"},"longitude":"-3.405037"},"context":"","outcome_status":null,"persistent_id":"","id":88848181,"location_subtype":"","month":"2020-12"},{"category":"anti-social-behaviour","location_type":"Force","location":{"latitude":"53.336671","street":{"id":1046544,"name":"On or near Parc Cemlyn"},"longitude":"-3.400679"},"context":"","outcome_status":null,"persistent_id":"","id":88848182,"location_subtype":"","month":"2020-12"},{"category":"anti-social-behaviour","location_type":"Force","location":{"latitude":"53.330104","street":{"id":1046453,"name":"On or near Palmeira Gardens"},"longitude":"-3.401080"},"context":"","outcome_status":null,"persistent_id":"","id":88848286,"location_subtype":"","month":"2020-12"},{"category":"burglary","location_type":"Force","location":{"latitude":"53.328631","street":{"id":1046328,"name":"On or near St Elmo's Drive"},"longitude":"-3.402473"},"context":"","outcome_status":{"category":"Investigation complete; no suspect identified","date":"2020-12"},"persistent_id":"76d2b9386a58478d1b2f43c908dc836ce3091061258a1c85f309ec20d82b2520","id":88852132,"location_subtype":"","month":"2020-12"},{"category":"burglary","location_type":"Force","location":{"latitude":"53.338065","street":{"id":1046539,"name":"On or near Caradoc Road"},"longitude":"-3.402182"},"context":"","outcome_status":{"category":"Investigation complete; no suspect identified","date":"2020-12"},"persistent_id":"511cbfc5ec75e03f3c90d8dfe8aeb2bebcf39d98a32b03c0eadcd3b62858f9e5","id":88851336,"location_subtype":"","month":"2020-12"},{"category":"burglary","location_type":"Force","location":{"latitude":"53.339138","street":{"id":1046565,"name":"On or near Glan Mor"},"longitude":"-3.411755"},"context":"","outcome_status":{"category":"Investigation complete; no suspect identified","date":"2020-12"},"persistent_id":"ed0acfd939cd0415f232c65738f0b96e98a660775d91c60a050c58fb1d6b3569","id":88850041,"location_subtype":"","month":"2020-12"},{"category":"criminal-damage-arson","location_type":"Force","location":{"latitude":"53.332610","street":{"id":1046332,"name":"On or near North Avenue"},"longitude":"-3.406553"},"context":"","outcome_status":{"category":"Under investigation","date":"2020-12"},"persistent_id":"f569f25a4808c78f5891dcdc9680cf707eb8bc6a7b840e2b343ecce0a22b2f56","id":88848965,"location_subtype":"","month":"2020-12"},{"category":"criminal-damage-arson","location_type":"Force","location":{"latitude":"53.340356","street":{"id":1046577,"name":"On or near Highbury Close"},"longitude":"-3.403023"},"context":"","outcome_status":{"category":"Investigation complete; no suspect identified","date":"2021-01"},"persistent_id":"215b8ac37d8bd17eb5706c03e366b90270677d3b4279f53aa552b570be51e131","id":88849535,"location_subtype":"","month":"2020-12"},{"category":"criminal-damage-arson","location_type":"Force","location":{"latitude":"53.330643","street":{"id":1046329,"name":"On or near South Avenue"},"longitude":"-3.405723"},"context":"","outcome_status":{"category":"Unable to prosecute suspect","date":"2020-12"},"persistent_id":"89a0c233d317effdcf99cfc3e570fdbc5d5ccfde6bfc0f82b9d6a3270f5d48c1","id":88849917,"location_subtype":"","month":"2020-12"},{"category":"criminal-damage-arson","location_type":"Force","location":{"latitude":"53.331449","street":{"id":1046344,"name":"On or near Central Avenue"},"longitude":"-3.407476"},"context":"","outcome_status":{"category":"Under investigation","date":"2020-12"},"persistent_id":"2899a3735083551d0bacd9ee29e44510bd64478e51191a24f939bce2e48b875b","id":88849401,"location_subtype":"","month":"2020-12"},{"category":"criminal-damage-arson","location_type":"Force","location":{"latitude":"53.333390","street":{"id":1046456,"name":"On or near Norfolk Avenue"},"longitude":"-3.400632"},"context":"","outcome_status":{"category":"Investigation complete; no suspect identified","date":"2020-12"},"persistent_id":"df5c0ead5c8ed518197321e7921bf323bc4886093493547549b9eaa78a6d1273","id":88849788,"location_subtype":"","month":"2020-12"},{"category":"criminal-damage-arson","location_type":"Force","location":{"latitude":"53.335527","street":{"id":1046421,"name":"On or near Gwelfryn"},"longitude":"-3.412281"},"context":"","outcome_status":{"category":"Under investigation","date":"2020-12"},"persistent_id":"168c8e79a3aeba035bdbdfe216a5b7bb18fc7c74c7240a3d3196fec3a2a579f3","id":88848964,"location_subtype":"","month":"2020-12"},{"category":"drugs","location_type":"Force","location":{"latitude":"53.331924","street":{"id":1046443,"name":"On or near Talton Crescent"},"longitude":"-3.391514"},"context":"","outcome_status":{"category":"Under investigation","date":"2020-12"},"persistent_id":"bc79aec32d3648f9b3a49518615ea0ca92d27c4f9c2a0dc483a6796d64493ad3","id":88849268,"location_subtype":"","month":"2020-12"},{"category":"drugs","location_type":"Force","location":{"latitude":"53.330643","street":{"id":1046329,"name":"On or near South Avenue"},"longitude":"-3.405723"},"context":"","outcome_status":{"category":"Awaiting court outcome","date":"2021-01"},"persistent_id":"3217b350de421ab432c99089f0785c7356c9c5f4801930e297416d91feab1a29","id":88849924,"location_subtype":"","month":"2020-12"},{"category":"other-theft","location_type":"Force","location":{"latitude":"53.337230","street":{"id":1046588,"name":"On or near Bastion Road"},"longitude":"-3.407411"},"context":"","outcome_status":{"category":"Investigation complete; no suspect identified","date":"2021-01"},"persistent_id":"f3204dbf3f61ba83c7dee961b325e5f0480d854722d4027daed0c8e3e2edb63d","id":88852249,"location_subtype":"","month":"2020-12"},{"category":"other-theft","location_type":"Force","location":{"latitude":"53.337680","street":{"id":1046563,"name":"On or near Llys Bran"},"longitude":"-3.422490"},"context":"","outcome_status":{"category":"Investigation complete; no suspect identified","date":"2021-02"},"persistent_id":"ba0227824041718aa51c44047dd1588c225bd937fa59d6aa70c0a2e0fd1b7705","id":88849552,"location_subtype":"","month":"2020-12"},{"category":"other-theft","location_type":"Force","location":{"latitude":"53.328614","street":{"id":1046402,"name":"On or near Chester Close"},"longitude":"-3.419876"},"context":"","outcome_status":{"category":"Unable to prosecute suspect","date":"2021-01"},"persistent_id":"552745c7d69852412b66dff28311337de49625d73cb0caa319b201731541d5b5","id":88849553,"location_subtype":"","month":"2020-12"},{"category":"other-theft","location_type":"Force","location":{"latitude":"53.335527","street":{"id":1046421,"name":"On or near Gwelfryn"},"longitude":"-3.412281"},"context":"","outcome_status":{"category":"Under investigation","date":"2020-12"},"persistent_id":"ddc5e5b34bc230238b524bbf50215ca26cdd7932e6a7b4c2c339f84307603b39","id":88848989,"location_subtype":"","month":"2020-12"},{"category":"other-theft","location_type":"Force","location":{"latitude":"53.335504","street":{"id":1046354,"name":"On or near Church Lane"},"longitude":"-3.404321"},"context":"","outcome_status":{"category":"Investigation complete; no suspect identified","date":"2021-01"},"persistent_id":"56a039d0f513e3f0065e3fd4ccb22639bb03d4575920a6d41426bfd5e50278fb","id":88851241,"location_subtype":"","month":"2020-12"},{"category":"other-theft","location_type":"Force","location":{"latitude":"53.335527","street":{"id":1046421,"name":"On or near Gwelfryn"},"longitude":"-3.412281"},"context":"","outcome_status":{"category":"Investigation complete; no suspect identified","date":"2020-12"},"persistent_id":"715c7003cc3d7754ce5583113647e23fa7bef4c12336451745a7404de0bd2502","id":88850468,"location_subtype":"","month":"2020-12"},{"category":"other-theft","location_type":"Force","location":{"latitude":"53.328821","street":{"id":1046363,"name":"On or near Sycamore Drive"},"longitude":"-3.411504"},"context":"","outcome_status":{"category":"Under investigation","date":"2020-12"},"persistent_id":"43e23544bc05274c7bcb46898f3ee540f75638ee3ecc3ddf280182aab6545cb8","id":88849145,"location_subtype":"","month":"2020-12"},{"category":"public-order","location_type":"Force","location":{"latitude":"53.335504","street":{"id":1046354,"name":"On or near Church Lane"},"longitude":"-3.404321"},"context":"","outcome_status":{"category":"Unable to prosecute suspect","date":"2021-02"},"persistent_id":"739386a09ca294de8377a8f4194f5a8940a233853cdcda0a3c08d4ee1ee0daac","id":88850339,"location_subtype":"","month":"2020-12"},{"category":"public-order","location_type":"Force","location":{"latitude":"53.337183","street":{"id":1046546,"name":"On or near Maes Glas"},"longitude":"-3.400681"},"context":"","outcome_status":{"category":"Unable to prosecute suspect","date":"2021-01"},"persistent_id":"6f8dfe2e1569c07d2d0b339f6dfbdb278a42549279a2d22880b9393d91389e37","id":88850340,"location_subtype":"","month":"2020-12"},{"category":"public-order","location_type":"Force","location":{"latitude":"53.336671","street":{"id":1046544,"name":"On or near Parc Cemlyn"},"longitude":"-3.400679"},"context":"","outcome_status":{"category":"Under investigation","date":"2020-12"},"persistent_id":"3e0c73192029257d442da46fb847d89e6963710eb3d5c4eb1f19ec1aa08747ab","id":88850589,"location_subtype":"","month":"2020-12"},{"category":"public-order","location_type":"Force","location":{"latitude":"53.335603","street":{"id":1046597,"name":"On or near Ffordd Ffrith"},"longitude":"-3.418742"},"context":"","outcome_status":{"category":"Under investigation","date":"2020-12"},"persistent_id":"53b692f5d22257f9ba6f822f5b62a51b439afba638a5d2b0af3a370f17f9fe0b","id":88849815,"location_subtype":"","month":"2020-12"},{"category":"public-order","location_type":"Force","location":{"latitude":"53.338643","street":{"id":1046583,"name":"On or near Sports/recreation Area"},"longitude":"-3.404995"},"context":"","outcome_status":{"category":"Under investigation","date":"2020-12"},"persistent_id":"4a7bb6fcde2b258172bdd85fe18d8e25b87ece34ac018470af6c17065a288ad9","id":88849426,"location_subtype":"","month":"2020-12"},{"category":"public-order","location_type":"Force","location":{"latitude":"53.330023","street":{"id":1046397,"name":"On or near Dawson Court"},"longitude":"-3.407925"},"context":"","outcome_status":{"category":"Formal action is not in the public interest","date":"2021-02"},"persistent_id":"59ef6485ea530df0bad7c34cd33891a1590c36ab6a2be43f3772d844d00aed44","id":88850338,"location_subtype":"","month":"2020-12"},{"category":"public-order","location_type":"Force","location":{"latitude":"53.335635","street":{"id":1046591,"name":"On or near Tywyn Isaf"},"longitude":"-3.414567"},"context":"","outcome_status":{"category":"Investigation complete; no suspect identified","date":"2021-01"},"persistent_id":"3e6a82c369328693ab649d17b9291f435235e01d143a15f1a90c75f7bc15557b","id":88849300,"location_subtype":"","month":"2020-12"},{"category":"public-order","location_type":"Force","location":{"latitude":"53.335635","street":{"id":1046591,"name":"On or near Tywyn Isaf"},"longitude":"-3.414567"},"context":"","outcome_status":{"category":"Under investigation","date":"2020-12"},"persistent_id":"22ebbb4a4b45d6c9241b5822e35a91da6b044663fc85a46e69f1e1965cfa6b0d","id":88849567,"location_subtype":"","month":"2020-12"},{"category":"violent-crime","location_type":"Force","location":{"latitude":"53.339766","street":{"id":1046569,"name":"On or near Bastion Gardens"},"longitude":"-3.408080"},"context":"","outcome_status":{"category":"Unable to prosecute suspect","date":"2021-02"},"persistent_id":"5bfe0c52595f75380ee9f7e6c0097ce54fb5603e69889471293acde974c3fba8","id":88850002,"location_subtype":"","month":"2020-12"},{"category":"violent-crime","location_type":"Force","location":{"latitude":"53.340970","street":{"id":1046566,"name":"On or near First Avenue"},"longitude":"-3.413467"},"context":"","outcome_status":{"category":"Unable to prosecute suspect","date":"2021-01"},"persistent_id":"d236fcdf2db36075683db12592d95abee0024369438dd54d0c582b9b4b0367b7","id":88851298,"location_subtype":"","month":"2020-12"},{"category":"violent-crime","location_type":"Force","location":{"latitude":"53.340970","street":{"id":1046566,"name":"On or near First Avenue"},"longitude":"-3.413467"},"context":"","outcome_status":{"category":"Under investigation","date":"2020-12"},"persistent_id":"a61ec34f9267169345060e5d833f406af7c2c427e028f191aec11328c5720b36","id":88851296,"location_subtype":"","month":"2020-12"},{"category":"violent-crime","location_type":"Force","location":{"latitude":"53.340970","street":{"id":1046566,"name":"On or near First Avenue"},"longitude":"-3.413467"},"context":"","outcome_status":{"category":"Under investigation","date":"2020-12"},"persistent_id":"024da9b0b3017d2dd2cfea0a5dd15c3d7a310ad90a3359c002ab99883fff68c7","id":88851297,"location_subtype":"","month":"2020-12"},{"category":"violent-crime","location_type":"Force","location":{"latitude":"53.325882","street":{"id":1046371,"name":"On or near Princes Avenue"},"longitude":"-3.409215"},"context":"","outcome_status":{"category":"Formal action is not in the public interest","date":"2021-02"},"persistent_id":"fb20ffe5c8e31119c86bbf68c73b4fbf784aa9acd90fc681392c3b7f45511952","id":88851174,"location_subtype":"","month":"2020-12"},{"category":"violent-crime","location_type":"Force","location":{"latitude":"53.331449","street":{"id":1046344,"name":"On or near Central Avenue"},"longitude":"-3.407476"},"context":"","outcome_status":{"category":"Under investigation","date":"2020-12"},"persistent_id":"4a101559c1ab6b0321d7037fed4844614e5a7371484ef6094a355537e8e6f548","id":88851175,"location_subtype":"","month":"2020-12"},{"category":"violent-crime","location_type":"Force","location":{"latitude":"53.328217","street":{"id":1046455,"name":"On or near Oak Hill Lane"},"longitude":"-3.401003"},"context":"","outcome_status":{"category":"Under investigation","date":"2020-12"},"persistent_id":"a7d9566776768d2506926278f446c4f0f41d2bbb01d6f3f3327e7054a339c181","id":88849066,"location_subtype":"","month":"2020-12"},{"category":"violent-crime","location_type":"Force","location":{"latitude":"53.335806","street":{"id":1046585,"name":"On or near Parking Area"},"longitude":"-3.406959"},"context":"","outcome_status":{"category":"Unable to prosecute suspect","date":"2021-02"},"persistent_id":"b4320625ed6257049843ea28434d4eab2293fb075e5ae04b4e477d9fdad001fa","id":88849203,"location_subtype":"","month":"2020-12"},{"category":"violent-crime","location_type":"Force","location":{"latitude":"53.328614","street":{"id":1046402,"name":"On or near Chester Close"},"longitude":"-3.419876"},"context":"","outcome_status":{"category":"Under investigation","date":"2020-12"},"persistent_id":"4cc7ea239ac432285544d8883177a1240b6ce495f40122d65ade8e497dcf6436","id":88849355,"location_subtype":"","month":"2020-12"},{"category":"violent-crime","location_type":"Force","location":{"latitude":"53.332610","street":{"id":1046332,"name":"On or near North Avenue"},"longitude":"-3.406553"},"context":"","outcome_status":{"category":"Under investigation","date":"2020-12"},"persistent_id":"b34e797eac4c5fbbb726d8e92d6ca29898f60f8ebc04835da6c2da69a657f6ae","id":88849357,"location_subtype":"","month":"2020-12"},{"category":"violent-crime","location_type":"Force","location":{"latitude":"53.339766","street":{"id":1046569,"name":"On or near Bastion Gardens"},"longitude":"-3.408080"},"context":"","outcome_status":{"category":"Under investigation","date":"2020-12"},"persistent_id":"c52005046c62ab387c049aa2ded50c2f512301e070577a02b572f2f330e8d25d","id":88849358,"location_subtype":"","month":"2020-12"},{"category":"violent-crime","location_type":"Force","location":{"latitude":"53.327245","street":{"id":1046386,"name":"On or near Gordon Avenue"},"longitude":"-3.407968"},"context":"","outcome_status":{"category":"Under investigation","date":"2020-12"},"persistent_id":"ab0507ab397d0ee22bb145ea68673b090207d63b5b673229adb2e4f190b40120","id":88849487,"location_subtype":"","month":"2020-12"},{"category":"violent-crime","location_type":"Force","location":{"latitude":"53.339766","street":{"id":1046569,"name":"On or near Bastion Gardens"},"longitude":"-3.408080"},"context":"","outcome_status":{"category":"Under investigation","date":"2020-12"},"persistent_id":"dff45accc7c6dc5521a4d5dd67ac896cb9463e3edd5d2030432fd88dc76390a6","id":88849488,"location_subtype":"","month":"2020-12"},{"category":"violent-crime","location_type":"Force","location":{"latitude":"53.337767","street":{"id":1046574,"name":"On or near Morley Road"},"longitude":"-3.404545"},"context":"","outcome_status":{"category":"Under investigation","date":"2020-12"},"persistent_id":"c4f06a2242b42678d2c9ee41e35c9a12db67e63d27e189d0e22874d3273a896b","id":88849489,"location_subtype":"","month":"2020-12"},{"category":"violent-crime","location_type":"Force","location":{"latitude":"53.337767","street":{"id":1046574,"name":"On or near Morley Road"},"longitude":"-3.404545"},"context":"","outcome_status":{"category":"Under investigation","date":"2020-12"},"persistent_id":"4d49377712706ea2de0c7c297e1bbab1a7ea669bacad75647c4d5b1ae6566ea1","id":88849490,"location_subtype":"","month":"2020-12"},{"category":"violent-crime","location_type":"Force","location":{"latitude":"53.330643","street":{"id":1046329,"name":"On or near South Avenue"},"longitude":"-3.405723"},"context":"","outcome_status":{"category":"Awaiting court outcome","date":"2021-01"},"persistent_id":"6aee708ac8e372e206f586a1926fe125aab77e7483bbab2ed174da79c8d4b7a6","id":88849874,"location_subtype":"","month":"2020-12"},{"category":"violent-crime","location_type":"Force","location":{"latitude":"53.330643","street":{"id":1046329,"name":"On or near South Avenue"},"longitude":"-3.405723"},"context":"","outcome_status":{"category":"Formal action is not in the public interest","date":"2021-02"},"persistent_id":"a90d76fcfd9d8c26e11d066e9f977a01d50c0d0397be34b73988c1aa46a90f23","id":88850523,"location_subtype":"","month":"2020-12"},{"category":"violent-crime","location_type":"Force","location":{"latitude":"53.330643","street":{"id":1046329,"name":"On or near South Avenue"},"longitude":"-3.405723"},"context":"","outcome_status":{"category":"Formal action is not in the public interest","date":"2021-01"},"persistent_id":"1714eb8c987a5935397f0795c47d4a83a5dc106c7a1aeae032fa2e21b9cfb4f7","id":88850524,"location_subtype":"","month":"2020-12"},{"category":"violent-crime","location_type":"Force","location":{"latitude":"53.339766","street":{"id":1046569,"name":"On or near Bastion Gardens"},"longitude":"-3.408080"},"context":"","outcome_status":{"category":"Unable to prosecute suspect","date":"2020-12"},"persistent_id":"035583d83eb819f7b123e01756d672a4a6ba7ef814b39013de74645c042e285e","id":88850253,"location_subtype":"","month":"2020-12"},{"category":"violent-crime","location_type":"Force","location":{"latitude":"53.334277","street":{"id":1046475,"name":"On or near Aberconway Road"},"longitude":"-3.391650"},"context":"","outcome_status":{"category":"Unable to prosecute suspect","date":"2021-02"},"persistent_id":"6e97edbf619fd3efd430ae57ec1682b1792be9d2cba7ee05eb5c941b0fc950ea","id":88850254,"location_subtype":"","month":"2020-12"},{"category":"violent-crime","location_type":"Force","location":{"latitude":"53.337183","street":{"id":1046546,"name":"On or near Maes Glas"},"longitude":"-3.400681"},"context":"","outcome_status":{"category":"Under investigation","date":"2020-12"},"persistent_id":"85840e7b572cac17bba611644b10a4a34f1f95fbfc4bea6e43838b3eb89f4e44","id":88849622,"location_subtype":"","month":"2020-12"},{"category":"violent-crime","location_type":"Force","location":{"latitude":"53.335806","street":{"id":1046585,"name":"On or near Parking Area"},"longitude":"-3.406959"},"context":"","outcome_status":{"category":"Under investigation","date":"2020-12"},"persistent_id":"731460e39c26455ebd6de845e9085055e2cb4e5239d19728d66abbe97ee1f0b8","id":88850924,"location_subtype":"","month":"2020-12"},{"category":"violent-crime","location_type":"Force","location":{"latitude":"53.331537","street":{"id":1046374,"name":"On or near Monmouth Grove"},"longitude":"-3.422060"},"context":"","outcome_status":{"category":"Unable to prosecute suspect","date":"2020-12"},"persistent_id":"36ba554f21ac89fdd5208469ab46162fe94d7dd90ad5665ac9f28265f4f30ba4","id":88850000,"location_subtype":"","month":"2020-12"},{"category":"violent-crime","location_type":"Force","location":{"latitude":"53.331468","street":{"id":1046373,"name":"On or near Nursery Close"},"longitude":"-3.408873"},"context":"","outcome_status":{"category":"Under investigation","date":"2020-12"},"persistent_id":"dfddaf87e8d678d530da52968720227f0c35b5d42e4286c4d850f9874225b88e","id":88850001,"location_subtype":"","month":"2020-12"},{"category":"violent-crime","location_type":"Force","location":{"latitude":"53.330643","street":{"id":1046329,"name":"On or near South Avenue"},"longitude":"-3.405723"},"context":"","outcome_status":{"category":"Unable to prosecute suspect","date":"2020-12"},"persistent_id":"4095807bbba0d9c96e082b4b5e3098ee6611a990d64d2c3423f6ce8991dee085","id":88850003,"location_subtype":"","month":"2020-12"},{"category":"violent-crime","location_type":"Force","location":{"latitude":"53.326373","street":{"id":1046372,"name":"On or near Peters Close"},"longitude":"-3.408735"},"context":"","outcome_status":{"category":"Under investigation","date":"2020-12"},"persistent_id":"50e4754538a1e5174cacfe8cdc92f6bb36112d1e024044df40e9e404a8bd58d7","id":88851061,"location_subtype":"","month":"2020-12"},{"category":"violent-crime","location_type":"Force","location":{"latitude":"53.336671","street":{"id":1046544,"name":"On or near Parc Cemlyn"},"longitude":"-3.400679"},"context":"","outcome_status":{"category":"Unable to prosecute suspect","date":"2021-01"},"persistent_id":"662fb8d6a37f196902834a676dacdf5091be72cbbe82b5a8f80229bf5da67bad","id":88851176,"location_subtype":"","month":"2020-12"},{"category":"violent-crime","location_type":"Force","location":{"latitude":"53.336633","street":{"id":1046596,"name":"On or near Gorphwysfa Avenue"},"longitude":"-3.409239"},"context":"","outcome_status":{"category":"Under investigation","date":"2020-12"},"persistent_id":"ba82750a5e4b3ed9b53393ad7662f738dcac011df2954e21fcd5aa57a2763123","id":88851510,"location_subtype":"","month":"2020-12"},{"category":"violent-crime","location_type":"Force","location":{"latitude":"53.339219","street":{"id":1046576,"name":"On or near Highbury Crescent"},"longitude":"-3.406470"},"context":"","outcome_status":{"category":"Unable to prosecute suspect","date":"2021-02"},"persistent_id":"834ba7e297c77f32cd3b05eee11e034be288b16c23c626bf3f44328cdc3cc99e","id":88851626,"location_subtype":"","month":"2020-12"},{"category":"violent-crime","location_type":"Force","location":{"latitude":"53.333739","street":{"id":1046464,"name":"On or near East Avenue"},"longitude":"-3.393089"},"context":"","outcome_status":{"category":"Under investigation","date":"2020-12"},"persistent_id":"7ed2b607f9a2ef58543ee34cd4f61dd93dfb9ba90242a9701569686c8886191b","id":88851888,"location_subtype":"","month":"2020-12"},{"category":"violent-crime","location_type":"Force","location":{"latitude":"53.336633","street":{"id":1046596,"name":"On or near Gorphwysfa Avenue"},"longitude":"-3.409239"},"context":"","outcome_status":{"category":"Unable to prosecute suspect","date":"2020-12"},"persistent_id":"0e604dc5e52411a79b195ab1b6956e79755202981640c681dab6fd8f0b125342","id":88851059,"location_subtype":"","month":"2020-12"},{"category":"violent-crime","location_type":"Force","location":{"latitude":"53.337953","street":{"id":1046560,"name":"On or near Norton Avenue"},"longitude":"-3.411595"},"context":"","outcome_status":{"category":"Unable to prosecute suspect","date":"2020-12"},"persistent_id":"fbf56c6eb092adb3d4535bbe26c25f78570401666b28e7834044ff3155a52304","id":88849356,"location_subtype":"","month":"2020-12"},{"category":"violent-crime","location_type":"Force","location":{"latitude":"53.330643","street":{"id":1046329,"name":"On or near South Avenue"},"longitude":"-3.405723"},"context":"","outcome_status":{"category":"Investigation complete; no suspect identified","date":"2020-12"},"persistent_id":"d76ae24a1814fba613c59129f479e76c38311e91affb29aa5a33245fa0613e9f","id":88849875,"location_subtype":"","month":"2020-12"},{"category":"violent-crime","location_type":"Force","location":{"latitude":"53.339234","street":{"id":1046536,"name":"On or near Hafod Road"},"longitude":"-3.400568"},"context":"","outcome_status":{"category":"Unable to prosecute suspect","date":"2020-12"},"persistent_id":"17dacd33a4273595d102657910855b63d9a5a518466fa43e932a0b8be9c058dd","id":88850004,"location_subtype":"","month":"2020-12"},{"category":"violent-crime","location_type":"Force","location":{"latitude":"53.334277","street":{"id":1046475,"name":"On or near Aberconway Road"},"longitude":"-3.391650"},"context":"","outcome_status":{"category":"Unable to prosecute suspect","date":"2020-12"},"persistent_id":"78ace11e140d01746b661a31250caf7c2440ab8e3b4864862fdc6bf4123d38e9","id":88850395,"location_subtype":"","month":"2020-12"},{"category":"violent-crime","location_type":"Force","location":{"latitude":"53.339109","street":{"id":1046580,"name":"On or near Brook Park Avenue"},"longitude":"-3.402832"},"context":"","outcome_status":{"category":"Under investigation","date":"2020-12"},"persistent_id":"d019c50890c10c91519ef1e57a0f25bfc286513f1733b32a686ba194e2b1ab74","id":88852408,"location_subtype":"","month":"2020-12"},{"category":"violent-crime","location_type":"Force","location":{"latitude":"53.338065","street":{"id":1046539,"name":"On or near Caradoc Road"},"longitude":"-3.402182"},"context":"","outcome_status":{"category":"Formal action is not in the public interest","date":"2021-01"},"persistent_id":"f63b53d58537d43c593c22e7a2351c9435e70b795bb9bbf62993fdd47315a4ec","id":88852410,"location_subtype":"","month":"2020-12"},{"category":"violent-crime","location_type":"Force","location":{"latitude":"53.339109","street":{"id":1046580,"name":"On or near Brook Park Avenue"},"longitude":"-3.402832"},"context":"","outcome_status":{"category":"Under investigation","date":"2020-12"},"persistent_id":"49128370aa269df4a006492fe8d79080614ed120ced89a2150b83c6e735d61d7","id":88852409,"location_subtype":"","month":"2020-12"},{"category":"violent-crime","location_type":"Force","location":{"latitude":"53.334499","street":{"id":1046482,"name":"On or near Glyn Avenue"},"longitude":"-3.401164"},"context":"","outcome_status":{"category":"Under investigation","date":"2020-12"},"persistent_id":"4b08b0eaece9c0aea9da97652c4c2c8d83a5923862f48c6ece4a8f06affa75a2","id":88852733,"location_subtype":"","month":"2020-12"},{"category":"violent-crime","location_type":"Force","location":{"latitude":"53.325882","street":{"id":1046371,"name":"On or near Princes Avenue"},"longitude":"-3.409215"},"context":"","outcome_status":{"category":"Under investigation","date":"2020-12"},"persistent_id":"dc8b6c5f8dfd0c5c1f5a2c3be2f02fd2a662ad7c4be29c53bc876bac5e258c7d","id":88850391,"location_subtype":"","month":"2020-12"},{"category":"violent-crime","location_type":"Force","location":{"latitude":"53.335806","street":{"id":1046585,"name":"On or near Parking Area"},"longitude":"-3.406959"},"context":"","outcome_status":{"category":"Under investigation","date":"2020-12"},"persistent_id":"7ec8d9b0633115942222da892da0bcb0567dffeeee8a2982cc51a9419ab3a23e","id":88850392,"location_subtype":"","month":"2020-12"},{"category":"violent-crime","location_type":"Force","location":{"latitude":"53.327686","street":{"id":1046361,"name":"On or near Tip Lane"},"longitude":"-3.414019"},"context":"","outcome_status":{"category":"Action to be taken by another organisation","date":"2020-12"},"persistent_id":"a89339345c831eaa309c1b397ee2841e8c6407e8df8e41e208cceb76881c32dd","id":88850390,"location_subtype":"","month":"2020-12"},{"category":"violent-crime","location_type":"Force","location":{"latitude":"53.334972","street":{"id":1046481,"name":"On or near Mostyn Avenue"},"longitude":"-3.396794"},"context":"","outcome_status":{"category":"Action to be taken by another organisation","date":"2020-12"},"persistent_id":"64e1947214e647bf895438eab4f9271a6602bec30063dd0a10a69ac4cd90ac10","id":88850394,"location_subtype":"","month":"2020-12"},{"category":"violent-crime","location_type":"Force","location":{"latitude":"53.331537","street":{"id":1046374,"name":"On or near Monmouth Grove"},"longitude":"-3.422060"},"context":"","outcome_status":{"category":"Unable to prosecute suspect","date":"2020-12"},"persistent_id":"a5ac860f1fb3a2717e15ae8d0184d29b56331228b2329957c53306472965e00a","id":88850126,"location_subtype":"","month":"2020-12"},{"category":"violent-crime","location_type":"Force","location":{"latitude":"53.326373","street":{"id":1046372,"name":"On or near Peters Close"},"longitude":"-3.408735"},"context":"","outcome_status":{"category":"Awaiting court outcome","date":"2021-02"},"persistent_id":"6d19b104c513050b35e2140ccddad109d8b8a8ae45a8a4a2180b83aca501c09e","id":88850127,"location_subtype":"","month":"2020-12"},{"category":"violent-crime","location_type":"Force","location":{"latitude":"53.331468","street":{"id":1046373,"name":"On or near Nursery Close"},"longitude":"-3.408873"},"context":"","outcome_status":{"category":"Under investigation","date":"2020-12"},"persistent_id":"50d4f0cc17acc7bf4367e6b14f5215925552f5b46ed41b148afa97c5df47978e","id":88850771,"location_subtype":"","month":"2020-12"},{"category":"violent-crime","location_type":"Force","location":{"latitude":"53.342805","street":{"id":1046567,"name":"On or near Beach Close"},"longitude":"-3.408751"},"context":"","outcome_status":{"category":"Unable to prosecute suspect","date":"2020-12"},"persistent_id":"16d89eae3e8f1d953bda66ebd49e2d03333c21c52ec57510134bc279aecb0741","id":88851060,"location_subtype":"","month":"2020-12"},{"category":"violent-crime","location_type":"Force","location":{"latitude":"53.327388","street":{"id":1046436,"name":"On or near Coed Mor Drive"},"longitude":"-3.401907"},"context":"","outcome_status":{"category":"Investigation complete; no suspect identified","date":"2020-12"},"persistent_id":"628714ee57088aabcb36c018bd77a86ba89ab3dc16177ce53183e1afaa66cab7","id":88851766,"location_subtype":"","month":"2020-12"},{"category":"violent-crime","location_type":"Force","location":{"latitude":"53.335806","street":{"id":1046585,"name":"On or near Parking Area"},"longitude":"-3.406959"},"context":"","outcome_status":{"category":"Investigation complete; no suspect identified","date":"2020-12"},"persistent_id":"65243d494b1340876ac2d81ab6f04c15daa3589e6bdc7d2b58e449a88eb11ea2","id":88852406,"location_subtype":"","month":"2020-12"},{"category":"other-crime","location_type":"Force","location":{"latitude":"53.325882","street":{"id":1046371,"name":"On or near Princes Avenue"},"longitude":"-3.409215"},"context":"","outcome_status":{"category":"Under investigation","date":"2020-12"},"persistent_id":"8a44b21a4d1e0dd9839939dd4b2775f035c3fa4c697db86eee03cba26dcad278","id":88850316,"location_subtype":"","month":"2020-12"},{"category":"other-crime","location_type":"Force","location":{"latitude":"53.325882","street":{"id":1046371,"name":"On or near Princes Avenue"},"longitude":"-3.409215"},"context":"","outcome_status":{"category":"Under investigation","date":"2020-12"},"persistent_id":"38980e693a0dda444257fd7f32bb4291cf7eaf0709a6694059f7f725c23cddec","id":88850315,"location_subtype":"","month":"2020-12"},{"category":"other-crime","location_type":"Force","location":{"latitude":"53.327245","street":{"id":1046386,"name":"On or near Gordon Avenue"},"longitude":"-3.407968"},"context":"","outcome_status":{"category":"Under investigation","date":"2020-12"},"persistent_id":"a328cd0e1bdc5c5c6ebb6bbf5d90d2a4514ef0b936b7aa779d8642cdae8426d8","id":88849135,"location_subtype":"","month":"2020-12"},{"category":"other-crime","location_type":"Force","location":{"latitude":"53.327245","street":{"id":1046386,"name":"On or near Gordon Avenue"},"longitude":"-3.407968"},"context":"","outcome_status":{"category":"Under investigation","date":"2020-12"},"persistent_id":"eb82c87180a5502d3c5fdbb5ef412038a415bfdd21d33a34371b4eae64fafa95","id":88849136,"location_subtype":"","month":"2020-12"},{"category":"other-crime","location_type":"Force","location":{"latitude":"53.327245","street":{"id":1046386,"name":"On or near Gordon Avenue"},"longitude":"-3.407968"},"context":"","outcome_status":{"category":"Formal action is not in the public interest","date":"2021-01"},"persistent_id":"82a6405ced4b560a242e5b238b39f24843aae487624fce13eff4148454729129","id":88849412,"location_subtype":"","month":"2020-12"}]