[{"category":"anti-social-behaviour","location_type":"Force","location":{"latitude":"53.328614","street":{"id":1046402,"name":"On or near Chester Close"},"longitude":"-3.419876"},"context":"","outcome_status":null,"persistent_id":"","id":89516900,"location_subtype":"","month":"2021-01"},{"category":"anti-social-behaviour","location_type":"Force","location":{"latitude":"53.340970","street":{"id":1046566,"name":"On or near First Avenue"},"longitude":"-3.413467"},"context":"","outcome_status":null,"persistent_id":"","id":89516655,"location_subtype":"","month":"2021-01"},{"category":"anti-social-behaviour","location_type":"Force","location":{"latitude":"53.336671","street":{"id":1046544,"name":"On or near Parc Cemlyn"},"longitude":"-3.400679"},"context":"","outcome_status":null,"persistent_id":"","id":89517085,"location_subtype":"","month":"2021-01"},{"category":"anti-social-behaviour","location_type":"Force","location":{"latitude":"53.341080","street":{"id":1046534,"name":"On or near Marine Road East"},"longitude":"-3.394936"},"context":"","outcome_status":null,"persistent_id":"","id":89516617,"location_subtype":"","month":"2021-01"},{"category":"anti-social-behaviour","location_type":"Force","location":{"latitude":"53.336671","street":{"id":1046544,"name":"On or near Parc Cemlyn"},"longitude":"-3.400679"},"context":"","outcome_status":null,"persistent_id":"","id":89516477,"location_subtype":"","month":"2021-01"},{"category":"anti-social-behaviour","location_type":"Force","location":{"latitude":"53.337627","street":{"id":1046564,"name":"On or near Grosvenor Road"},"longitude":"-3.415640"},"context":"","outcome_status":null,"persistent_id":"","id":89517056,"location_subtype":"","month":"2021-01"},{"category":"anti-social-behaviour","location_type":"Force","location":{"latitude":"53.336633","street":{"id":1046596,"name":"On or near Gorphwysfa Avenue"},"longitude":"-3.409239"},"context":"","outcome_status":null,"persistent_id":"","id":89516807,"location_subtype":"","month":"2021-01"},{"category":"anti-social-behaviour","location_type":"Force","location":{"latitude":"53.333043","street":{"id":1046447,"name":"On or near Priory Lane"},"longitude":"-3.401101"},"context":"","outcome_status":null,"persistent_id":"","id":89516808,"location_subtype":"","month":"2021-01"},{"category":"anti-social-behaviour","location_type":"Force","location":{"latitude":"53.330673","street":{"id":1046398,"name":"On or near Dawson Close"},"longitude":"-3.408487"},"context":"","outcome_status":null,"persistent_id":"","id":89516835,"location_subtype":"","month":"2021-01"},{"category":"anti-social-behaviour","location_type":"Force","location":{"latitude":"53.329666","street":{"id":1035261,"name":"On or near Mount Ida Road"},"longitude":"-3.393978"},"context":"","outcome_status":null,"persistent_id":"","id":89516836,"location_subtype":"","month":"2021-01"},{"category":"anti-social-behaviour","location_type":"Force","location":{"latitude":"53.328614","street":{"id":1046402,"name":"On or near Chester Close"},"longitude":"-3.419876"},"context":"","outcome_status":null,"persistent_id":"","id":89517055,"location_subtype":"","month":"2021-01"},{"category":"anti-social-behaviour","location_type":"Force","location":{"latitude":"53.335635","street":{"id":1046591,"name":"On or near Tywyn Isaf"},"longitude":"-3.414567"},"context":"","outcome_status":null,"persistent_id":"","id":89516234,"location_subtype":"","month":"2021-01"},{"category":"anti-social-behaviour","location_type":"Force","location":{"latitude":"53.333482","street":{"id":1046343,"name":"On or near Conwy Grove"},"longitude":"-3.407363"},"context":"","outcome_status":null,"persistent_id":"","id":89516197,"location_subtype":"","month":"2021-01"},{"category":"anti-social-behaviour","location_type":"Force","location":{"latitude":"53.337230","street":{"id":1046588,"name":"On or near Bastion Road"},"longitude":"-3.407411"},"context":"","outcome_status":null,"persistent_id":"","id":89516235,"location_subtype":"","month":"2021-01"},{"category":"anti-social-behaviour","location_type":"Force","location":{"latitude":"53.336671","street":{"id":1046544,"name":"On or near Parc Cemlyn"},"longitude":"-3.400679"},"context":"","outcome_status":null,"persistent_id":"","id":89516901,"location_subtype":"","month":"2021-01"},{"category":"anti-social-behaviour","location_type":"Force","location":{"latitude":"53.329666","street":{"id":1035261,"name":"On or near Mount Ida Road"},"longitude":"-3.393978"},"context":"","outcome_status":null,"persistent_id":"","id":89516412,"location_subtype":"","month":"2021-01"},{"category":"anti-social-behaviour","location_type":"Force","location":{"latitude":"53.332598","street":{"id":1046335,"name":"On or near Maes-y-groes"},"longitude":"-3.403820"},"context":"","outcome_status":null,"persistent_id":"","id":89516261,"location_subtype":"","month":"2021-01"},{"category":"anti-social-behaviour","location_type":"Force","location":{"latitude":"53.332598","street":{"id":1046335,"name":"On or near Maes-y-groes"},"longitude":"-3.403820"},"context":"","outcome_status":null,"persistent_id":"","id":89516320,"location_subtype":"","month":"2021-01"},{"category":"anti-social-behaviour","location_type":"Force","location":{"latitude":"53.337715","street":{"id":1046604,"name":"On or near Ffordd Idwal"},"longitude":"-3.426336"},"context":"","outcome_status":null,"persistent_id":"","id":89516343,"location_subtype":"","month":"2021-01"},{"category":"anti-social-behaviour","location_type":"Force","location":{"latitude":"53.335962","street":{"id":1046602,"name":"On or near Awelon Mor"},"longitude":"-3.419610"},"context":"","outcome_status":null,"persistent_id":"","id":89517084,"location_subtype":"","month":"2021-01"},{"category":"anti-social-behaviour","location_type":"Force","location":{"latitude":"53.339219","street":{"id":1046576,"name":"On or near Highbury Crescent"},"longitude":"-3.406470"},"context":"","outcome_status":null,"persistent_id":"","id":89516949,"location_subtype":"","month":"2021-01"},{"category":"criminal-damage-arson","location_type":"BTP","location":{"latitude":"53.336100","street":{"id":1488983,"name":"Prestatyn (station)"},"longitude":"-3.407130"},"context":"","outcome_status":{"category":"Under investigation","date":"2021-01"},"persistent_id":"","id":90209627,"location_subtype":"STATION","month":"2021-01"},{"category":"criminal-damage-arson","location_type":"Force","location":{"latitude":"53.334972","street":{"id":1046481,"name":"On or near Mostyn Avenue"},"longitude":"-3.396794"},"context":"","outcome_status":{"category":"Under investigation","date":"2021-01"},"persistent_id":"f65673d4f263a48ecd64fb9110c800e0ddd9374efad90956110822cc59a0ef92","id":89519556,"location_subtype":"","month":"2021-01"},{"category":"criminal-damage-arson","location_type":"Force","location":{"latitude":"53.328614","street":{"id":1046402,"name":"On or near Chester Close"},"longitude":"-3.419876"},"context":"","outcome_status":{"category":"Investigation complete; no suspect identified","date":"2021-02"},"persistent_id":"f3a59f601e463f62da4c003160caf0a448cea3dca0635eb8624629ce7b8b9601","id":89520162,"location_subtype":"","month":"2021-01"},{"category":"criminal-damage-arson","location_type":"Force","location":{"latitude":"53.337680","street":{"id":1046563,"name":"On or near Llys Bran"},"longitude":"-3.422490"},"context":"","outcome_status":{"category":"Under investigation","date":"2021-01"},"persistent_id":"1d52a5c718e336d9d9bb1e4d28b8cbef121064aac8d95e9875ee167c8fe66fb2","id":89520620,"location_subtype":"","month":"2021-01"},{"category":"criminal-damage-arson","location_type":"Force","location":{"latitude":"53.326669","street":{"id":1046355,"name":"On or near Bangor Crescent"},"longitude":"-3.416358"},"context":"","outcome_status":{"category":"Under investigation","date":"2021-01"},"persistent_id":"5e1b15f38cf9d4a1ff83443a2af1038dd62c6f9b35c411dac82ff1e463551eaf","id":89520392,"location_subtype":"","month":"2021-01"},{"category":"criminal-damage-arson","location_type":"Force","location":{"latitude":"53.326669","street":{"id":1046355,"name":"On or near Bangor Crescent"},"longitude":"-3.416358"},"context":"","outcome_status":{"category":"Unable to prosecute suspect","date":"2021-01"},"persistent_id":"fa3c385728593895053fdc4d54b2082204ebe5bf6d4f3dedc6a80092268bc054","id":89519818,"location_subtype":"","month":"2021-01"},{"category":"criminal-damage-arson","location_type":"Force","location":{"latitude":"53.336633","street":{"id":1046596,"name":"On or near Gorphwysfa Avenue"},"longitude":"-3.409239"},"context":"","outcome_status":{"category":"Unable to prosecute suspect","date":"2021-01"},"persistent_id":"b0cccf8be9219472b3d481c0ade36c867decb97fe6443bf9ba3e360a3c533eea","id":89517933,"location_subtype":"","month":"2021-01"},{"category":"criminal-damage-arson","location_type":"Force","location":{"latitude":"53.333871","street":{"id":1046446,"name":"On or near Rhodfa Clwyd"},"longitude":"-3.399476"},"context":"","outcome_status":{"category":"Under investigation","date":"2021-01"},"persistent_id":"a6004e0ebe6a52441b938c1e4d74fbc87a2cefb3b240546a9061a7e15b970d55","id":89517177,"location_subtype":"","month":"2021-01"},{"category":"other-theft","location_type":"Force","location":{"latitude":"53.338233","street":{"id":1046579,"name":"On or near Cae'r Nant"},"longitude":"-3.402353"},"context":"","outcome_status":{"category":"Unable to prosecute suspect","date":"2021-01"},"persistent_id":"4bb8975a836f4efb9e3e4f5520779a079be652f6b89a96ce7c53f05502bb5474","id":89518634,"location_subtype":"","month":"2021-01"},{"category":"other-theft","location_type":"Force","location":{"latitude":"53.337803","street":{"id":1046553,"name":"On or near White Rose Close"},"longitude":"-3.409157"},"context":"","outcome_status":{"category":"Unable to prosecute suspect","date":"2021-02"},"persistent_id":"2630e7638fd2286b6694b5807f4480765d5f5695239df5a1f99be3d8227b579e","id":89518633,"location_subtype":"","month":"2021-01"},{"category":"other-theft","location_type":"Force","location":{"latitude":"53.328065","street":{"id":1046385,"name":"On or near Knowles Avenue"},"longitude":"-3.408581"},"context":"","outcome_status":{"category":"Unable to prosecute suspect","date":"2021-01"},"persistent_id":"b226f38e89f586a1e78c3a34126ce7155f669609746490a6602296f919492831","id":89517196,"location_subtype":"","month":"2021-01"},{"category":"public-order","location_type":"Force","location":{"latitude":"53.333871","street":{"id":1046446,"name":"On or near Rhodfa Clwyd"},"longitude":"-3.399476"},"context":"","outcome_status":{"category":"Unable to prosecute suspect","date":"2021-01"},"persistent_id":"5a770bd0f33d80bb67055e30f61e8ff39aeb251d3e779dae0deb6010ec317050","id":89519590,"location_subtype":"","month":"2021-01"},{"category":"public-order","location_type":"Force","location":{"latitude":"53.337767","street":{"id":1046574,"name":"On or near Morley Road"},"longitude":"-3.404545"},"context":"","outcome_status":{"category":"Under investigation","date":"2021-01"},"persistent_id":"d5add7cdc40861fa64a49ed78971876f3055796b0c7a1fb03f4514f03ad6f16a","id":89518297,"location_subtype":"","month":"2021-01"},{"category":"public-order","location_type":"Force","location":{"latitude":"53.336877","street":{"id":1046589,"name":"On or near Windermere Drive"},"longitude":"-3.415990"},"context":"","outcome_status":{"category":"Investigation complete; no suspect identified","date":"2021-02"},"persistent_id":"0f9f66e64ec6fe0377cdee96e0dfffab4a4dd827fecca614676ecde45d395181","id":89520415,"location_subtype":"","month":"2021-01"},{"category":"public-order","location_type":"Force","location":{"latitude":"53.337230","street":{"id":1046588,"name":"On or near Bastion Road"},"longitude":"-3.407411"},"context":"","outcome_status":{"category":"Investigation complete; no suspect identified","date":"2021-01"},"persistent_id":"e669c8970cc5a0d3ad8f7747f4356ecb55d1bd8a6f658be4c9de1cd92e4897ed","id":89517492,"location_subtype":"","month":"2021-01"},{"category":"public-order","location_type":"Force","location":{"latitude":"53.334499","street":{"id":1046482,"name":"On or near Glyn Avenue"},"longitude":"-3.401164"},"context":"","outcome_status":{"category":"Investigation complete; no suspect identified","date":"2021-01"},"persistent_id":"90ef46eff07a13a34db81cfdf4017678b9640299f1eea2f8523f7c12f87c2d7a","id":89517373,"location_subtype":"","month":"2021-01"},{"category":"public-order","location_type":"Force","location":{"latitude":"53.333482","street":{"id":1046343,"name":"On or near Conwy Grove"},"longitude":"-3.407363"},"context":"","outcome_status":{"category":"Under investigation","date":"2021-01"},"persistent_id":"2cd68c72c1be3b03062a7269847d70bb292c37f0fe567753ed6e732f171e643c","id":89517491,"location_subtype":"","month":"2021-01"},{"category":"shoplifting","location_type":"Force","location":{"latitude":"53.336671","street":{"id":1046544,"name":"On or near Parc Cemlyn"},"longitude":"-3.400679"},"context":"","outcome_status":{"category":"Investigation complete; no suspect identified","date":"2021-01"},"persistent_id":"7f2000ef4a87697b4ad2ec4a5609c57d5e1cbb2cb119a336f8e23f8881ca4a3b","id":89519599,"location_subtype":"","month":"2021-01"},{"category":"violent-crime","location_type":"Force","location":{"latitude":"53.332207","street":{"id":1046434,"name":"On or near Parking Area"},"longitude":"-3.401885"},"context":"","outcome_status":{"category":"Unable to prosecute suspect","date":"2021-02"},"persistent_id":"5b85a71c2739dfce1866e7eb7272b4ea7d350bf1d83838232a19933154712a3e","id":89520768,"location_subtype":"","month":"2021-01"},{"category":"violent-crime","location_type":"Force","location":{"latitude":"53.333189","street":{"id":1046407,"name":"On or near Beverley Drive"},"longitude":"-3.422221"},"context":"","outcome_status":{"category":"Under investigation","date":"2021-01"},"persistent_id":"47aa1c99f772d66b050301fb41d6107277f4844545b08a98aee6a962b32c2f06","id":89517430,"location_subtype":"","month":"2021-01"},{"category":"violent-crime","location_type":"Force","location":{"latitude":"53.333482","street":{"id":1046343,"name":"On or near Conwy Grove"},"longitude":"-3.407363"},"context":"","outcome_status":{"category":"Under investigation","date":"2021-01"},"persistent_id":"fd1ddac7f9043e56f94567d2fc1022056d1c841d760363432934f78d0713110a","id":89517433,"location_subtype":"","month":"2021-01"},{"category":"violent-crime","location_type":"Force","location":{"latitude":"53.334499","street":{"id":1046482,"name":"On or near Glyn Avenue"},"longitude":"-3.401164"},"context":"","outcome_status":{"category":"Under investigation","date":"2021-01"},"persistent_id":"8fc96512d48107bfe97bacec9a80962c13ce578fea759df744bcc03692fbf14c","id":89517434,"location_subtype":"","month":"2021-01"},{"category":"violent-crime","location_type":"Force","location":{"latitude":"53.337230","street":{"id":1046588,"name":"On or near Bastion Road"},"longitude":"-3.407411"},"context":"","outcome_status":{"category":"Investigation complete; no suspect identified","date":"2021-01"},"persistent_id":"9438bada53b7eb3841cba842f7946cd81e37da4deb982cf10b3f5721a25ccdfc","id":89517657,"location_subtype":"","month":"2021-01"},{"category":"violent-crime","location_type":"Force","location":{"latitude":"53.337383","street":{"id":1046550,"name":"On or near Clos Bodnant"},"longitude":"-3.399772"},"context":"","outcome_status":{"category":"Under investigation","date":"2021-01"},"persistent_id":"f031a9d74178a94620c8919222e3e85bb192318343d86f588c259b25064c03e5","id":89517793,"location_subtype":"","month":"2021-01"},{"category":"violent-crime","location_type":"Force","location":{"latitude":"53.330643","street":{"id":1046329,"name":"On or near South Avenue"},"longitude":"-3.405723"},"context":"","outcome_status":{"category":"Unable to prosecute suspect","date":"2021-02"},"persistent_id":"94961e2356cd6c48a9bca0fa5789eaa97099aaf72bf3d73ea376d08a2d4cb953","id":89518116,"location_subtype":"","month":"2021-01"},{"category":"violent-crime","location_type":"Force","location":{"latitude":"53.334541","street":{"id":1046420,"name":"On or near Min Y Morfa"},"longitude":"-3.416574"},"context":"","outcome_status":{"category":"Under investigation","date":"2021-01"},"persistent_id":"33e8d917448d4597feb4096829a1231af50208acf23a19e00b81439a6eac4000","id":89518115,"location_subtype":"","month":"2021-01"},{"category":"violent-crime","location_type":"Force","location":{"latitude":"53.337767","street":{"id":1046574,"name":"On or near Morley Road"},"longitude":"-3.404545"},"context":"","outcome_status":{"category":"Under investigation","date":"2021-01"},"persistent_id":"22fdbe6c2047b8373b557a361ff54d69ee66a76e88704f9a7ac88e90fa58e2ce","id":89518226,"location_subtype":"","month":"2021-01"},{"category":"violent-crime","location_type":"Force","location":{"latitude":"53.335877","street":{"id":1046600,"name":"On or near Chapel Road"},"longitude":"-3.416167"},"context":"","outcome_status":{"category":"Unable to prosecute suspect","date":"2021-02"},"persistent_id":"e31a30d427960e2bccba6d042b12dec03c297e7f68e6b9b181b628bee99444b1","id":89517531,"location_subtype":"","month":"2021-01"},{"category":"violent-crime","location_type":"Force","location":{"latitude":"53.324611","street":{"id":1046333,"name":"On or near Melyd Avenue"},"longitude":"-3.407236"},"context":"","outcome_status":{"category":"Under investigation","date":"2021-01"},"persistent_id":"2d3261b048e57d2d90f45288631767b3f19c198b091a0d001c7911eb5bc1c165","id":89518575,"location_subtype":"","month":"2021-01"},{"category":"violent-crime","location_type":"Force","location":{"latitude":"53.337383","street":{"id":1046550,"name":"On or near Clos Bodnant"},"longitude":"-3.399772"},"context":"","outcome_status":{"category":"Under investigation","date":"2021-01"},"persistent_id":"d134eb27b4a0b697d13d05627804cb55bb3ea73f7415f40b70cada4344ccbd7a","id":89517891,"location_subtype":"","month":"2021-01"},{"category":"violent-crime","location_type":"Force","location":{"latitude":"53.330402","street":{"id":1046463,"name":"On or near Fforddlas"},"longitude":"-3.397876"},"context":"","outcome_status":{"category":"Unable to prosecute suspect","date":"2021-01"},"persistent_id":"ab4882c4bdae6c4413077c6940bddd0f8bc320039cc3cc417ef8a7300fd75758","id":89518936,"location_subtype":"","month":"2021-01"},{"category":"violent-crime","location_type":"Force","location":{"latitude":"53.336662","street":{"id":1046599,"name":"On or near Coniston Drive"},"longitude":"-3.417410"},"context":"","outcome_status":{"category":"Under investigation","date":"2021-01"},"persistent_id":"2e136278ca9aa439ff498fbaf58f867e44b369c065c6329411ac13139276cd36","id":89518450,"location_subtype":"","month":"2021-01"},{"category":"violent-crime","location_type":"Force","location":{"latitude":"53.331406","street":{"id":1046469,"name":"On or near Cassandra Court"},"longitude":"-3.401198"},"context":"","outcome_status":{"category":"Under investigation","date":"2021-01"},"persistent_id":"674c3a2e5049ee0dc1b5fb35690c035a8c9cc0454183c0cc7df633c9fd3ff0dd","id":89518451,"location_subtype":"","month":"2021-01"},{"category":"violent-crime","location_type":"Force","location":{"latitude":"53.330643","street":{"id":1046329,"name":"On or near South Avenue"},"longitude":"-3.405723"},"context":"","outcome_status":{"category":"Under investigation","date":"2021-01"},"persistent_id":"6de43033f4d6329ad687affc1cd17859046a740d9842a7ca6f345ea49f7ba781","id":89519643,"location_subtype":"","month":"2021-01"},{"category":"violent-crime","location_type":"Force","location":{"latitude":"53.338859","street":{"id":1046535,"name":"On or near Hafod Y Mor"},"longitude":"-3.399595"},"context":"","outcome_status":{"category":"Unable to prosecute suspect","date":"2021-02"},"persistent_id":"0fc34fb2ec5297314f83fd29a8045c141c2de857a020fd23a60b6d88e2e1fd24","id":89519779,"location_subtype":"","month":"2021-01"},{"category":"violent-crime","location_type":"Force","location":{"latitude":"53.330104","street":{"id":1046453,"name":"On or near Palmeira Gardens"},"longitude":"-3.401080"},"context":"","outcome_status":{"category":"Under investigation","date":"2021-01"},"persistent_id":"00db9f5ee5647f94d631c37982ae60652f186a2d06140f6c7c6e1b88c771c20f","id":89520113,"location_subtype":"","month":"2021-01"},{"category":"violent-crime","location_type":"Force","location":{"latitude":"53.328614","street":{"id":1046402,"name":"On or near Chester Close"},"longitude":"-3.419876"},"context":"","outcome_status":{"category":"Investigation complete; no suspect identified","date":"2021-02"},"persistent_id":"a0e375d8ead87f39637a2c48a711e5b11100986e507bdbd54c2d409e36efccbe","id":89520250,"location_subtype":"","month":"2021-01"},{"category":"violent-crime","location_type":"Force","location":{"latitude":"53.330643","street":{"id":1046329,"name":"On or near South Avenue"},"longitude":"-3.405723"},"context":"","outcome_status":{"category":"Under investigation","date":"2021-01"},"persistent_id":"9491b0cee83460ef8ee1c0c1cf0f69e8b40eb8cb4cc6e1eba02f807595243279","id":89520251,"location_subtype":"","month":"2021-01"},{"category":"violent-crime","location_type":"Force","location":{"latitude":"53.335962","street":{"id":1046602,"name":"On or near Awelon Mor"},"longitude":"-3.419610"},"context":"","outcome_status":{"category":"Under investigation","date":"2021-01"},"persistent_id":"cc4036a121b6a8d93f2532f5ff62e3e4fac962023d0405d8a22d47d6eb1f9654","id":89520460,"location_subtype":"","month":"2021-01"},{"category":"violent-crime","location_type":"Force","location":{"latitude":"53.337627","street":{"id":1046564,"name":"On or near Grosvenor Road"},"longitude":"-3.415640"},"context":"","outcome_status":{"category":"Unable to prosecute suspect","date":"2021-02"},"persistent_id":"1e60b6f811b2cc19a4dff189cebc01c1fd28acbe94a53df43f09d58d15123028","id":89520461,"location_subtype":"","month":"2021-01"},{"category":"violent-crime","location_type":"Force","location":{"latitude":"53.333043","street":{"id":1046447,"name":"On or near Priory Lane"},"longitude":"-3.401101"},"context":"","outcome_status":{"category":"Under investigation","date":"2021-01"},"persistent_id":"a28d488b14604fef9abbdd6cd9a4fd368c62bdf67e5da9a4d54e823cf6223a66","id":89520679,"location_subtype":"","month":"2021-01"},{"category":"violent-crime","location_type":"Force","location":{"latitude":"53.339234","street":{"id":1046536,"name":"On or near Hafod Road"},"longitude":"-3.400568"},"context":"","outcome_status":{"category":"Unable to prosecute suspect","date":"2021-01"},"persistent_id":"a9b7a52a1ff2aa8ab368e14d9af6b7d52e18c0bc670a39b0fa27bd17de273499","id":89517283,"location_subtype":"","month":"2021-01"},{"category":"violent-crime","location_type":"Force","location":{"latitude":"53.330643","street":{"id":1046329,"name":"On or near South Avenue"},"longitude":"-3.405723"},"context":"","outcome_status":{"category":"Unable to prosecute suspect","date":"2021-01"},"persistent_id":"85d7803bd44180b488ef490442052d01718af89f5fb33a7c0a66da2effa61c84","id":89517282,"location_subtype":"","month":"2021-01"},{"category":"violent-crime","location_type":"Force","location":{"latitude":"53.330643","street":{"id":1046329,"name":"On or near South Avenue"},"longitude":"-3.405723"},"context":"","outcome_status":{"category":"Unable to prosecute suspect","date":"2021-01"},"persistent_id":"1fee873e5ed1076b2e1d7e50b5eba21a7b64e0e8bb7386dfd8f58028aae052d8","id":89518117,"location_subtype":"","month":"2021-01"},{"category":"violent-crime","location_type":"Force","location":{"latitude":"53.334912","street":{"id":1046352,"name":"On or near Penisardre Road"},"longitude":"-3.405037"},"context":"","outcome_status":{"category":"Under investigation","date":"2021-01"},"persistent_id":"5714c44721f6fbb96723965377b68bf83b65a9c3e198d05a21473cfe96d2012f","id":89520363,"location_subtype":"","month":"2021-01"},{"category":"violent-crime","location_type":"Force","location":{"latitude":"53.339234","street":{"id":1046536,"name":"On or near Hafod Road"},"longitude":"-3.400568"},"context":"","outcome_status":{"category":"Under investigation","date":"2021-01"},"persistent_id":"d6a2b6468fe53254a40738a89b7ab508bdc853f344f6ee3220744d28535a52ca","id":89520364,"location_subtype":"","month":"2021-01"},{"category":"violent-crime","location_type":"Force","location":{"latitude":"53.336671","street":{"id":1046544,"name":"On or near Parc Cemlyn"},"longitude":"-3.400679"},"context":"","outcome_status":{"category":"Under investigation","date":"2021-01"},"persistent_id":"4ab466cada5aa6c3ea9fa61a11ded4eaa7820d82f1dd9ae63d7d5d2f613b9531","id":89520578,"location_subtype":"","month":"2021-01"},{"category":"violent-crime","location_type":"Force","location":{"latitude":"53.330643","street":{"id":1046329,"name":"On or near South Avenue"},"longitude":"-3.405723"},"context":"","outcome_status":{"category":"Unable to prosecute suspect","date":"2021-01"},"persistent_id":"8534fb0db0102fc35bd19a0f7429b5b678f5c2ea2083b1001bbe9027bcb1a1af","id":89518118,"location_subtype":"","month":"2021-01"},{"category":"violent-crime","location_type":"Force","location":{"latitude":"53.343470","street":{"id":1046581,"name":"On or near Beach Road East"},"longitude":"-3.407256"},"context":"","outcome_status":{"category":"Awaiting court outcome","date":"2021-02"},"persistent_id":"092e107ac9ca830c52491c214b928c0e350c6fa1f82c4bf3ae6fdf17fd5ccdd9","id":90024786,"location_subtype":"","month":"2021-01"},{"category":"violent-crime","location_type":"Force","location":{"latitude":"53.328961","street":{"id":1046336,"name":"On or near Maes Tegid"},"longitude":"-3.406508"},"context":"","outcome_status":{"category":"Unable to prosecute suspect","date":"2021-02"},"persistent_id":"0bad5d5289ed1c38238274403b7353008f52938875bca74536085fc298cc48f8","id":89519513,"location_subtype":"","month":"2021-01"},{"category":"violent-crime","location_type":"Force","location":{"latitude":"53.337680","street":{"id":1046563,"name":"On or near Llys Bran"},"longitude":"-3.422490"},"context":"","outcome_status":{"category":"Unable to prosecute suspect","date":"2021-02"},"persistent_id":"76fcd60d60838d145c8aac6721260e6798f3b52d9529b067e2f54b4c9c294fe1","id":89520576,"location_subtype":"","month":"2021-01"},{"category":"violent-crime","location_type":"Force","location":{"latitude":"53.328961","street":{"id":1046336,"name":"On or near Maes Tegid"},"longitude":"-3.406508"},"context":"","outcome_status":{"category":"Unable to prosecute suspect","date":"2021-02"},"persistent_id":"2f0385ff436ac99922c289e84f0775d59742a33ed3cf4d186b2177ca38eb17e3","id":89519387,"location_subtype":"","month":"2021-01"},{"category":"other-crime","location_type":"Force","location":{"latitude":"53.338233","street":{"id":1046579,"name":"On or near Cae'r Nant"},"longitude":"-3.402353"},"context":"","outcome_status":{"category":"Under investigation","date":"2021-01"},"persistent_id":"9fdd7242e2b6005992509c7ba2958afc685db2bfb3dab06b52c1c69bae4806d3","id":89518861,"location_subtype":"","month":"2021-01"},{"category":"other-crime","location_type":"Force","location":{"latitude":"53.335635","street":{"id":1046591,"name":"On or near Tywyn Isaf"},"longitude":"-3.414567"},"context":"","outcome_status":{"category":"Under investigation","date":"2021-01"},"persistent_id":"1cddae85171ee024c7e1174031006d82bcc312a50063cb4988dd314b5c23934c","id":89517479,"location_subtype":"","month":"2021-01"}]